enable_time_secs=1682518693	enable_time_usecs=902481	siftrver=1.2.4	hz=100	tcp_rtt_scale=32	sysname=FreeBSD	sysver=1400084	ipmode=4
o,0x00000000,1682518693.902764,10.0.2.15,22,10.0.2.2,57206,1073725440,17202,1026,65535,65700,0,0,4,1460,1,0,4,23,33580,68,65700,0,0,0,0,0
o,0x00000000,1682518693.903194,10.0.2.15,22,10.0.2.2,57206,1073725440,17202,1026,65535,65700,0,0,4,1460,1,0,4,23,33580,104,65700,0,68,0,0,0
i,0x00000000,1682518693.903497,10.0.2.15,22,10.0.2.2,57206,1073725440,17202,1026,65535,65700,0,0,4,1460,1,0,4,23,33580,104,65700,0,104,0,0,0
i,0x00000000,1682518693.903527,10.0.2.15,22,10.0.2.2,57206,1073725440,17270,1026,65535,65700,0,0,4,1460,1,0,4,23,33580,36,65700,0,36,0,0,0
o,0x00000000,1682518693.904031,10.0.2.15,22,10.0.2.2,57206,1073725440,17306,1026,65535,65700,0,0,4,1460,1,0,4,23,33580,140,65700,0,0,0,0,0
i,0x00000000,1682518693.905509,10.0.2.15,22,10.0.2.2,57206,1073725440,17306,1026,65535,65700,0,0,4,1460,1,0,4,23,33580,140,65700,0,140,0,0,0
i,0x00000000,1682518693.905532,10.0.2.15,22,10.0.2.2,57206,1073725440,17446,1026,65535,65700,0,0,4,1460,1,0,4,24,33580,0,65700,0,0,0,0,0
i,0x00000000,1682518693.906429,10.0.2.15,22,10.0.2.2,57206,1073725440,17446,1026,65535,65700,0,0,4,1460,1,0,4,24,33580,0,65700,0,0,0,0,0
o,0x00000000,1682518693.906787,10.0.2.15,22,10.0.2.2,57206,1073725440,17446,1026,65535,65700,0,0,4,1460,1,0,5,24,33580,0,65700,60,0,0,0,0
i,0x00000000,1682518693.907617,10.0.2.15,22,10.0.2.2,57206,1073725440,17446,1026,65535,65700,0,0,4,1460,1,0,4,24,33580,0,65700,0,0,0,0,0
o,0x00000000,1682518693.907644,10.0.2.15,22,10.0.2.2,57206,1073725440,17446,1026,65535,65700,0,0,5,1460,1,0,7,24,33580,0,65700,0,0,0,0,0
o,0x00000000,1682518693.909091,10.0.2.15,22,10.0.2.2,57206,1073725440,17446,1026,65535,65700,0,0,8,1460,1,0,4,24,33580,0,65700,0,0,0,0,0
i,0x00000000,1682518693.910297,10.0.2.15,22,10.0.2.2,57206,1073725440,17446,1026,65535,65700,0,0,8,1460,1,0,67108884,24,33580,0,65700,0,1,0,0,0
i,0x00000000,1682518695.181032,10.0.2.15,22,10.0.2.2,57210,1073725440,14600,0,65535,65700,0,0,4,1460,1,0,0,27,33580,0,65700,0,0,0,0,0
o,0x00000000,1682518695.200742,10.0.2.15,22,10.0.2.2,57210,1073725440,14600,1026,65535,65700,0,0,4,1460,1,0,0,27,33580,38,65700,41,0,0,0,0
i,0x00000000,1682518695.201880,10.0.2.15,22,10.0.2.2,57210,1073725440,14600,1026,65535,65700,0,0,4,1460,1,0,0,27,33580,38,65700,0,38,0,0,0
o,0x00000000,1682518695.203702,10.0.2.15,22,10.0.2.2,57210,1073725440,14638,1026,65535,65700,0,0,4,1460,1,0,0,24,33580,1056,65700,0,0,0,0,0
i,0x00000000,1682518695.204360,10.0.2.15,22,10.0.2.2,57210,1073725440,14638,1026,65535,65700,0,0,4,1460,1,0,0,24,33580,1056,65700,0,1056,0,0,0
i,0x00000000,1682518695.204425,10.0.2.15,22,10.0.2.2,57210,1073725440,14638,1026,65535,65700,0,0,4,1460,1,0,0,24,33580,1056,65700,1460,1056,0,0,0
o,0x00000000,1682518695.204450,10.0.2.15,22,10.0.2.2,57210,1073725440,14638,1026,65535,65700,0,0,4,1460,1,0,1,24,33580,1056,65700,1504,1056,0,0,0
i,0x00000000,1682518695.204597,10.0.2.15,22,10.0.2.2,57210,1073725440,14638,1026,65535,65700,0,0,4,1460,1,0,0,24,33580,1056,65700,1504,1056,0,0,0
i,0x00000000,1682518695.206809,10.0.2.15,22,10.0.2.2,57210,1073725440,15694,1026,65535,65700,0,0,4,1460,1,0,0,24,33580,0,65700,0,0,0,0,0
o,0x00000000,1682518695.211336,10.0.2.15,22,10.0.2.2,57210,1073725440,15694,1026,65535,65700,0,0,4,1460,1,0,0,24,33580,484,65700,0,0,0,0,0
i,0x00000000,1682518695.211867,10.0.2.15,22,10.0.2.2,57210,1073725440,15694,1026,65535,65700,0,0,4,1460,1,0,0,24,33580,484,65700,0,484,0,0,0
i,0x00000000,1682518695.218070,10.0.2.15,22,10.0.2.2,57210,1073725440,16178,1026,65535,65700,0,0,4,1460,1,0,0,24,33580,0,65700,0,0,0,0,0
i,0x00000000,1682518695.230059,10.0.2.15,22,10.0.2.2,57210,1073725440,16178,1026,65535,65700,0,0,4,1460,1,0,0,24,33580,0,65700,0,0,0,0,0
o,0x00000000,1682518695.230084,10.0.2.15,22,10.0.2.2,57210,1073725440,16178,1026,65535,65700,0,0,4,1460,1,0,1,24,33580,0,65700,44,0,0,0,0
o,0x00000000,1682518695.230264,10.0.2.15,22,10.0.2.2,57210,1073725440,16178,1026,65535,65700,0,0,4,1460,1,0,0,24,33580,44,65700,0,0,0,0,0
i,0x00000000,1682518695.232126,10.0.2.15,22,10.0.2.2,57210,1073725440,16178,1026,65535,65700,0,0,4,1460,1,0,0,24,33580,44,65700,0,44,0,0,0
i,0x00000000,1682518695.232323,10.0.2.15,22,10.0.2.2,57210,1073725440,16222,1026,65535,65700,0,0,4,1460,1,0,0,24,33580,0,65700,0,0,0,0,0
o,0x00000000,1682518695.243908,10.0.2.15,22,10.0.2.2,57210,1073725440,16222,1026,65535,65700,0,0,4,1460,1,0,0,24,33580,68,65700,0,0,0,0,0
i,0x00000000,1682518695.245996,10.0.2.15,22,10.0.2.2,57210,1073725440,16222,1026,65535,65700,0,0,4,1460,1,0,0,24,33580,68,65700,0,68,0,0,0
i,0x00000000,1682518695.251943,10.0.2.15,22,10.0.2.2,57210,1073725440,16290,1026,65535,65700,0,0,4,1460,1,0,0,24,33580,0,65700,0,0,0,0,0
o,0x00000000,1682518695.258061,10.0.2.15,22,10.0.2.2,57210,1073725440,16290,1026,65535,65700,0,0,4,1460,1,0,0,24,33580,28,65700,0,0,0,0,0
i,0x00000000,1682518695.258876,10.0.2.15,22,10.0.2.2,57210,1073725440,16290,1026,65535,65700,0,0,4,1460,1,0,0,24,33580,28,65700,0,28,0,0,0
i,0x00000000,1682518695.259780,10.0.2.15,22,10.0.2.2,57210,1073725440,16318,1026,65535,65700,0,0,4,1460,1,0,0,24,33580,0,65700,0,0,0,0,0
o,0x00000000,1682518695.263037,10.0.2.15,22,10.0.2.2,57210,1073725440,16318,1026,65535,65700,0,0,4,1460,1,0,0,24,33580,768,65700,112,0,0,0,0
i,0x00000000,1682518695.264471,10.0.2.15,22,10.0.2.2,57210,1073725440,16318,1026,65535,65700,0,0,4,1460,1,0,0,24,33580,812,65700,0,768,0,0,0
o,0x00000000,1682518695.264505,10.0.2.15,22,10.0.2.2,57210,1073725440,17086,1026,65535,65700,0,0,4,1460,1,0,0,24,33580,44,65700,0,0,0,0,0
i,0x00000000,1682518695.265326,10.0.2.15,22,10.0.2.2,57210,1073725440,17086,1026,65535,65700,0,0,4,1460,1,0,0,24,33580,44,65700,0,44,0,0,0
i,0x00000000,1682518695.271196,10.0.2.15,22,10.0.2.2,57210,1073725440,17130,1026,65535,65700,0,0,4,1460,1,0,0,24,33580,0,65700,0,0,0,0,0
o,0x00000000,1682518695.273448,10.0.2.15,22,10.0.2.2,57210,1073725440,17130,1026,65535,65700,0,0,4,1460,1,0,4,24,33580,72,65700,0,0,0,0,0
i,0x00000000,1682518695.275680,10.0.2.15,22,10.0.2.2,57210,1073725440,17130,1026,65535,65700,0,0,4,1460,1,0,4,24,33580,72,65700,0,72,0,0,0
i,0x00000000,1682518695.275773,10.0.2.15,22,10.0.2.2,57210,1073725440,17202,1026,65535,65700,0,0,4,1460,1,0,4,24,33580,0,65700,0,0,0,0,0
o,0x00000000,1682518695.304021,172.16.1.2,59415,172.16.3.2,5101,1073725440,1073725440,2,0,0,0,0,2,536,0,1,672,100,32768,0,65536,0,0,0,0,0
o,0x00000000,1682518695.307438,10.0.2.15,22,10.0.2.2,57210,1073725440,17202,1026,65535,65700,0,0,4,1460,1,0,5,24,33580,0,65700,0,0,0,0,0
i,0x00000000,1682518695.418014,172.16.1.2,59415,172.16.3.2,5101,1073725440,1073725440,2,0,0,0,0,2,536,0,1,672,100,32768,0,65536,0,1,0,0,0
o,0x00000000,1682518695.418090,172.16.1.2,59415,172.16.3.2,5101,13445,14480,2,65535,65700,6,6,4,1460,464,1,993,53,33580,0,65700,0,0,0,0,0
o,0x00000000,1682518695.419628,172.16.1.2,59415,172.16.3.2,5101,13445,14480,2,65535,65700,6,6,4,1460,464,1,996,53,33580,37,65700,0,0,0,0,0
i,0x00000000,1682518695.537802,172.16.1.2,59415,172.16.3.2,5101,13445,14480,2,65535,65700,6,6,4,1460,464,1,996,53,33580,37,65700,0,37,0,0,0
o,0x00000000,1682518695.538829,172.16.1.2,59415,172.16.3.2,5101,13445,14517,1026,65728,65728,6,6,4,1460,454,1,996,51,33580,4,65700,0,0,0,0,0
o,0x00000000,1682518695.540776,172.16.1.2,59415,172.16.3.2,5101,13445,14517,1026,65728,65728,6,6,4,1460,454,1,996,51,33580,128,65700,0,4,0,0,0
i,0x00000000,1682518695.658435,172.16.1.2,59415,172.16.3.2,5101,13445,14517,1026,65728,65728,6,6,4,1460,454,1,996,51,33580,128,65700,0,128,0,0,0
i,0x00000000,1682518695.658534,172.16.1.2,59415,172.16.3.2,5101,13445,14645,1026,65600,65728,6,6,4,1460,446,1,996,48,33580,0,65700,0,0,0,0,0
o,0x00000000,1682518695.659934,172.16.1.2,25779,172.16.3.2,5101,1073725440,1073725440,2,0,0,0,0,2,536,0,1,672,100,32768,0,65536,0,0,0,0,0
o,0x00000000,1682518695.697450,172.16.1.2,59415,172.16.3.2,5101,13445,14645,1026,65728,65728,6,6,4,1460,446,1,997,48,33580,0,65700,0,0,0,0,0
i,0x00000000,1682518695.785763,172.16.1.2,25779,172.16.3.2,5101,1073725440,1073725440,2,0,0,0,0,2,536,0,1,672,100,32768,0,65536,0,1,0,0,0
o,0x00000000,1682518695.785795,172.16.1.2,25779,172.16.3.2,5101,13445,14480,2,65535,65700,6,6,4,1460,464,1,993,53,33580,0,65700,0,0,0,0,0
o,0x00000000,1682518695.785955,172.16.1.2,25779,172.16.3.2,5101,13445,14480,2,65535,65700,6,6,4,1460,464,1,992,53,33580,37,65700,0,0,0,0,0
i,0x00000000,1682518695.907617,172.16.1.2,59415,172.16.3.2,5101,13445,14645,1026,65728,65728,6,6,4,1460,446,1,996,48,33580,0,65700,0,0,0,0,0
i,0x00000000,1682518695.907642,172.16.1.2,59415,172.16.3.2,5101,13445,14645,1026,65728,65728,6,6,4,1460,446,1,996,48,33580,0,65700,1,0,0,0,0
o,0x00000000,1682518695.907668,172.16.1.2,59415,172.16.3.2,5101,13445,14645,1026,65728,65728,6,6,4,1460,446,1,997,48,33580,0,65700,2,0,0,0,0
o,0x00000000,1682518695.907976,172.16.1.2,25779,172.16.3.2,5101,13445,14480,6,65535,65700,6,6,4,1460,464,1,992,53,33580,33580,65700,0,37,0,0,0
o,0x00000000,1682518695.908113,172.16.1.2,25779,172.16.3.2,5101,13445,14480,6,65535,65700,6,6,4,1460,464,1,992,53,33580,33580,65700,0,1485,0,0,0
o,0x00000000,1682518695.908229,172.16.1.2,25779,172.16.3.2,5101,13445,14480,6,65535,65700,6,6,4,1460,464,1,992,53,33580,33580,65700,0,2933,0,0,0
o,0x00000000,1682518695.908353,172.16.1.2,25779,172.16.3.2,5101,13445,14480,6,65535,65700,6,6,4,1460,464,1,992,53,33580,33580,65700,0,4381,0,0,0
o,0x00000000,1682518695.908470,172.16.1.2,25779,172.16.3.2,5101,13445,14480,6,65535,65700,6,6,4,1460,464,1,992,53,33580,33580,65700,0,5829,0,0,0
o,0x00000000,1682518695.908577,172.16.1.2,25779,172.16.3.2,5101,13445,14480,6,65535,65700,6,6,4,1460,464,1,992,53,33580,33580,65700,0,7277,0,0,0
o,0x00000000,1682518695.908687,172.16.1.2,25779,172.16.3.2,5101,13445,14480,6,65535,65700,6,6,4,1460,464,1,992,53,33580,33580,65700,0,8725,0,0,0
o,0x00000000,1682518695.908802,172.16.1.2,25779,172.16.3.2,5101,13445,14480,6,65535,65700,6,6,4,1460,464,1,992,53,33580,33580,65700,0,10173,0,0,0
o,0x00000000,1682518695.908920,172.16.1.2,25779,172.16.3.2,5101,13445,14480,6,65535,65700,6,6,4,1460,464,1,992,53,33580,33580,65700,0,11621,0,0,0
i,0x00000000,1682518695.935117,172.16.1.2,25779,172.16.3.2,5101,13445,14480,6,65535,65700,6,6,4,1460,464,1,992,53,33580,33580,65700,0,13069,0,0,0
o,0x00000000,1682518695.935591,172.16.1.2,25779,172.16.3.2,5101,13445,14517,6,65728,65728,6,6,4,1460,466,1,992,49,33580,33543,65700,0,13032,0,0,0
i,0x00000000,1682518696.126953,172.16.1.2,25779,172.16.3.2,5101,13445,14517,6,65728,65728,6,6,4,1460,466,1,992,49,33580,33543,65700,0,14480,0,0,0
o,0x00000000,1682518696.127093,172.16.1.2,25779,172.16.3.2,5101,13445,17413,6,64256,65728,6,6,4,1460,496,1,992,54,33580,30647,65700,0,11584,0,0,0
o,0x00000000,1682518696.128274,172.16.1.2,25779,172.16.3.2,5101,13445,17413,6,64256,65728,6,6,4,1460,496,1,992,54,33580,30647,65700,0,13032,0,0,0
o,0x00000000,1682518696.128849,172.16.1.2,25779,172.16.3.2,5101,13445,17413,6,64256,65728,6,6,4,1460,496,1,992,54,41772,30647,65700,0,14480,0,0,0
o,0x00000000,1682518696.129516,172.16.1.2,25779,172.16.3.2,5101,13445,17413,6,64256,65728,6,6,4,1460,496,1,992,54,41772,30647,65700,0,15928,0,0,0
i,0x00000000,1682518696.145826,172.16.1.2,25779,172.16.3.2,5101,13445,17413,6,64256,65728,6,6,4,1460,496,1,992,54,41772,41772,65700,0,17376,0,0,0
o,0x00000000,1682518696.145990,172.16.1.2,25779,172.16.3.2,5101,13445,20309,6,64256,65728,6,6,4,1460,526,1,992,58,41772,38876,65700,0,14480,0,0,0
o,0x00000000,1682518696.147535,172.16.1.2,25779,172.16.3.2,5101,13445,20309,6,64256,65728,6,6,4,1460,526,1,992,58,41772,38876,65700,0,15928,0,0,0
o,0x00000000,1682518696.148164,172.16.1.2,25779,172.16.3.2,5101,13445,20309,6,64256,65728,6,6,4,1460,526,1,992,58,41772,38876,65700,0,17376,0,0,0
o,0x00000000,1682518696.148765,172.16.1.2,25779,172.16.3.2,5101,13445,20309,6,64256,65728,6,6,4,1460,526,1,992,58,49964,38876,65700,0,18824,0,0,0
i,0x00000000,1682518696.177075,172.16.1.2,25779,172.16.3.2,5101,13445,20309,6,64256,65728,6,6,4,1460,526,1,992,58,49964,49964,65700,0,20272,0,0,0
o,0x00000000,1682518696.177124,172.16.1.2,25779,172.16.3.2,5101,13445,23205,6,64256,65728,6,6,4,1460,569,1,992,65,49964,47068,65700,0,17376,0,0,0
o,0x00000000,1682518696.177258,172.16.1.2,25779,172.16.3.2,5101,13445,23205,6,64256,65728,6,6,4,1460,569,1,992,65,49964,47068,65700,0,18824,0,0,0
o,0x00000000,1682518696.177363,172.16.1.2,25779,172.16.3.2,5101,13445,23205,6,64256,65728,6,6,4,1460,569,1,992,65,49964,47068,65700,0,20272,0,0,0
o,0x00000000,1682518696.177485,172.16.1.2,25779,172.16.3.2,5101,13445,23205,6,64256,65728,6,6,4,1460,569,1,992,65,49964,47068,65700,0,21720,0,0,0
i,0x00000000,1682518696.217742,172.16.1.2,25779,172.16.3.2,5101,13445,23205,6,64256,65728,6,6,4,1460,569,1,992,65,49964,49964,65700,0,23168,0,0,0
o,0x00000000,1682518696.218392,172.16.1.2,25779,172.16.3.2,5101,13445,26101,6,64256,65728,6,6,4,1460,622,1,992,73,49964,47068,65700,0,20272,0,0,0
o,0x00000000,1682518696.219177,172.16.1.2,25779,172.16.3.2,5101,13445,26101,6,64256,65728,6,6,4,1460,622,1,992,73,58156,47068,65700,0,21720,0,0,0
o,0x00000000,1682518696.219798,172.16.1.2,25779,172.16.3.2,5101,13445,26101,6,64256,65728,6,6,4,1460,622,1,992,73,58156,47068,65700,0,23168,0,0,0
o,0x00000000,1682518696.220403,172.16.1.2,25779,172.16.3.2,5101,13445,26101,6,64256,65728,6,6,4,1460,622,1,992,73,58156,47068,65700,0,24616,0,0,0
i,0x00000000,1682518696.248417,172.16.1.2,25779,172.16.3.2,5101,13445,26101,6,64256,65728,6,6,4,1460,622,1,992,73,58156,58156,65700,0,26064,0,0,0
o,0x00000000,1682518696.248565,172.16.1.2,25779,172.16.3.2,5101,13445,27549,6,65728,65728,6,6,4,1460,681,1,992,81,58156,56708,65700,0,24616,0,0,0
o,0x00000000,1682518696.249318,172.16.1.2,25779,172.16.3.2,5101,13445,27549,6,65728,65728,6,6,4,1460,681,1,992,81,58156,56708,65700,0,26064,0,0,0
i,0x00000000,1682518696.328288,172.16.1.2,25779,172.16.3.2,5101,13445,27549,6,65728,65728,6,6,4,1460,681,1,992,81,58156,56708,65700,0,27512,0,0,0
o,0x00000000,1682518696.328503,172.16.1.2,25779,172.16.3.2,5101,13445,28960,2,65728,65728,6,6,4,1460,681,1,992,81,58156,56708,65700,0,27512,0,0,0
i,0x00000000,1682518696.358203,172.16.1.2,25779,172.16.3.2,5101,13445,27549,2,65728,65728,6,6,4,1460,681,1,992,81,58156,56708,65700,0,28960,0,0,0
o,0x00000000,1682518696.358330,172.16.1.2,25779,172.16.3.2,5101,13445,30408,2,65728,65728,6,6,4,1460,681,1,992,81,66348,56708,65700,0,28960,0,0,0
i,0x00000000,1682518696.379808,172.16.1.2,25779,172.16.3.2,5101,13445,27549,2,65728,65728,6,6,4,1460,681,1,992,81,66348,56708,65700,0,30408,0,0,0
o,0x00000000,1682518696.380894,172.16.1.2,25779,172.16.3.2,5101,13774,1448,2,65728,65728,6,6,4,1460,681,1,537920480,81,66348,56708,65700,0,30408,0,0,0
i,0x00000000,1682518696.407679,172.16.1.2,25779,172.16.3.2,5101,13774,1448,2,65728,65728,6,6,4,1460,681,1,537920480,81,66348,56708,65700,0,30408,0,0,0
i,0x00000000,1682518696.407781,172.16.1.2,25779,172.16.3.2,5101,13774,1448,2,65728,65728,6,6,4,1460,681,1,537920480,81,66348,56708,65700,0,30408,0,0,0
o,0x00000000,1682518696.407885,172.16.1.2,25779,172.16.3.2,5101,13774,2896,2,65728,65728,6,6,4,1460,681,1,537920480,81,66348,56708,65700,0,30408,0,0,0
i,0x00000000,1682518696.457505,172.16.1.2,25779,172.16.3.2,5101,13774,2896,2,65728,65728,6,6,4,1460,681,1,537920480,81,66348,56708,65700,0,31856,0,0,0
i,0x00000000,1682518696.478155,172.16.1.2,25779,172.16.3.2,5101,13774,2896,2,65728,65728,6,6,4,1460,681,1,537920480,81,66348,56708,65700,0,31856,0,0,0
o,0x00000000,1682518696.478262,172.16.1.2,25779,172.16.3.2,5101,13774,4344,2,65728,65728,6,6,4,1460,681,1,537920480,81,66348,56708,65700,0,31856,0,0,0
i,0x00000000,1682518696.488306,172.16.1.2,25779,172.16.3.2,5101,13774,4344,2,65728,65728,6,6,4,1460,681,1,537920480,81,66348,56708,65700,0,33304,0,0,0
i,0x00000000,1682518696.535200,172.16.1.2,25779,172.16.3.2,5101,13774,4344,2,65728,65728,6,6,4,1460,681,1,537920480,81,66348,56708,65700,0,33304,0,0,0
o,0x00000000,1682518696.535236,172.16.1.2,25779,172.16.3.2,5101,13774,5792,2,65728,65728,6,6,4,1460,681,1,537920480,81,66348,56708,65700,0,33304,0,0,0
i,0x00000000,1682518696.536759,172.16.1.2,25779,172.16.3.2,5101,13774,5792,2,65728,65728,6,6,4,1460,681,1,537920480,81,66348,56708,65700,0,33304,0,0,0
o,0x00000000,1682518696.536797,172.16.1.2,25779,172.16.3.2,5101,13774,5792,2,65728,65728,6,6,4,1460,681,1,537920480,81,66348,56708,65700,0,33304,0,0,0
i,0x00000000,1682518696.558618,172.16.1.2,25779,172.16.3.2,5101,13774,5792,2,65728,65728,6,6,4,1460,681,1,537920480,81,66348,56708,65700,0,33304,0,0,0
i,0x00000000,1682518696.605358,172.16.1.2,25779,172.16.3.2,5101,13774,7240,2,65728,65728,6,6,4,1460,681,1,537920480,81,66348,56708,65700,0,33304,0,0,0
o,0x00000000,1682518696.605510,172.16.1.2,25779,172.16.3.2,5101,13774,7240,6,65728,65728,6,6,4,1460,681,1,537920480,81,66348,56708,65700,0,33304,0,0,0
o,0x00000000,1682518696.605927,172.16.1.2,25779,172.16.3.2,5101,13774,7240,2,65728,65728,6,6,4,1460,681,1,537920480,81,66348,56708,65700,0,33304,0,0,0
i,0x00000000,1682518696.629057,172.16.1.2,25779,172.16.3.2,5101,13774,7240,2,65728,65728,6,6,4,1460,681,1,537920480,81,66348,56708,65700,0,33304,0,0,0
i,0x00000000,1682518696.658387,172.16.1.2,25779,172.16.3.2,5101,13774,10136,2,65728,65728,6,6,4,1460,681,1,537920480,81,66348,56708,65700,0,33304,0,0,0
o,0x00000000,1682518696.658417,172.16.1.2,25779,172.16.3.2,5101,13774,10136,2,65728,65728,6,6,4,1460,681,1,537920480,81,66348,56708,65700,0,33304,0,0,0
i,0x00000000,1682518696.668244,172.16.1.2,25779,172.16.3.2,5101,13774,10136,2,65728,65728,6,6,4,1460,681,1,537920480,81,66348,56708,65700,0,33304,0,0,0
i,0x00000000,1682518696.702030,172.16.1.2,25779,172.16.3.2,5101,13774,11584,2,65728,65728,6,6,4,1460,681,1,537920480,81,66348,56708,65700,0,33304,0,0,0
i,0x00000000,1682518696.716947,172.16.1.2,25779,172.16.3.2,5101,13774,11584,2,65728,65728,6,6,4,1460,681,1,537920480,81,66348,56708,65700,0,33304,0,0,0
i,0x00000000,1682518696.716986,172.16.1.2,25779,172.16.3.2,5101,13774,11584,2,65728,65728,6,6,4,1460,681,1,537920480,81,66348,56708,65700,0,33304,0,0,0
i,0x00000000,1682518696.747456,172.16.1.2,25779,172.16.3.2,5101,13774,10136,2,65728,65728,6,6,4,1460,681,1,537920480,81,66348,56708,65700,0,33304,0,0,0
o,0x00000000,1682518696.747498,172.16.1.2,25779,172.16.3.2,5101,13774,10136,2,65728,65728,6,6,4,1460,681,1,537920480,81,66348,56708,65700,0,33304,0,0,0
i,0x00000000,1682518696.787459,172.16.1.2,25779,172.16.3.2,5101,13774,10136,2,65728,65728,6,6,4,1460,681,1,537920480,81,66348,56708,65700,0,34752,0,0,0
o,0x00000000,1682518696.787516,172.16.1.2,25779,172.16.3.2,5101,13774,11584,6,65728,65728,6,6,4,1460,681,1,537920480,81,66348,56708,65700,0,34752,0,0,0
o,0x00000000,1682518696.787645,172.16.1.2,25779,172.16.3.2,5101,13774,11584,2,65728,65728,6,6,4,1460,681,1,537920480,81,66348,56708,65700,0,36200,0,0,0
i,0x00000000,1682518696.787780,172.16.1.2,25779,172.16.3.2,5101,13774,11584,2,65728,65728,6,6,4,1460,681,1,537920480,81,66348,56708,65700,0,37648,0,0,0
o,0x00000000,1682518696.787800,172.16.1.2,25779,172.16.3.2,5101,13774,13032,6,65728,65728,6,6,4,1460,681,1,537920480,81,66348,56708,65700,0,37648,0,0,0
o,0x00000000,1682518696.787920,172.16.1.2,25779,172.16.3.2,5101,13774,13032,2,65728,65728,6,6,4,1460,681,1,537920480,81,66348,56708,65700,0,39096,0,0,0
i,0x00000000,1682518696.837889,172.16.1.2,25779,172.16.3.2,5101,13774,13032,2,65728,65728,6,6,4,1460,681,1,537920480,81,66348,56708,65700,0,40544,0,0,0
o,0x00000000,1682518696.837992,172.16.1.2,25779,172.16.3.2,5101,13774,14480,6,65728,65728,6,6,4,1460,681,1,537920480,81,66348,56708,65700,0,40544,0,0,0
o,0x00000000,1682518696.838583,172.16.1.2,25779,172.16.3.2,5101,13774,14480,2,65728,65728,6,6,4,1460,681,1,537920480,81,66348,56708,65700,0,41992,0,0,0
i,0x00000000,1682518696.888572,172.16.1.2,25779,172.16.3.2,5101,13774,14480,2,65728,65728,6,6,4,1460,681,1,537920480,81,66348,56708,65700,0,43440,0,0,0
o,0x00000000,1682518696.888699,172.16.1.2,25779,172.16.3.2,5101,13774,15928,2,65728,65728,6,6,4,1460,681,1,537920480,81,66348,56708,65700,0,43440,0,0,0
i,0x00000000,1682518696.957346,172.16.1.2,25779,172.16.3.2,5101,13774,15928,2,65728,65728,6,6,4,1460,681,1,537920480,81,66348,66348,65700,0,44888,0,0,0
o,0x00000000,1682518696.957378,172.16.1.2,25779,172.16.3.2,5101,13774,17376,2,65728,65728,6,6,4,1460,681,1,537920480,81,66348,66348,65700,0,44888,0,0,0
i,0x00000000,1682518696.993747,172.16.1.2,25779,172.16.3.2,5101,13774,17376,2,65728,65728,6,6,4,1460,681,1,537920480,81,66348,66348,65700,0,46336,0,0,0
o,0x00000000,1682518696.993803,172.16.1.2,25779,172.16.3.2,5101,13774,18824,2,65728,65728,6,6,4,1460,681,1,537920480,81,66348,66348,65700,0,46336,0,0,0
i,0x00000000,1682518696.997611,172.16.1.2,25779,172.16.3.2,5101,13774,18824,2,65728,65728,6,6,4,1460,681,1,537920480,81,66348,66348,65700,0,47784,0,0,0
o,0x00000000,1682518696.997738,172.16.1.2,25779,172.16.3.2,5101,13774,20272,2,65728,65728,6,6,4,1460,681,1,537920480,81,74540,66348,65700,0,47784,0,0,0
i,0x00000000,1682518697.007386,172.16.1.2,25779,172.16.3.2,5101,13774,20272,2,65728,65728,6,6,4,1460,681,1,537920480,81,74540,66348,65700,0,49232,0,0,0
o,0x00000000,1682518697.007415,172.16.1.2,25779,172.16.3.2,5101,13774,21720,2,65728,65728,6,6,4,1460,681,1,537920480,81,82732,66348,65700,0,49232,0,0,0
i,0x00000000,1682518697.036404,172.16.1.2,25779,172.16.3.2,5101,13774,21720,2,65728,65728,6,6,4,1460,681,1,537920480,81,82732,66348,65700,0,50680,0,0,0
o,0x00000000,1682518697.036414,172.16.1.2,25779,172.16.3.2,5101,13774,23168,2,65728,65728,6,6,4,1460,681,1,537920480,81,82732,66348,65700,0,50680,0,0,0
i,0x00000000,1682518697.082448,172.16.1.2,25779,172.16.3.2,5101,13774,23168,2,65728,65728,6,6,4,1460,681,1,537920480,81,82732,66348,65700,0,52128,0,0,0
o,0x00000000,1682518697.082784,172.16.1.2,25779,172.16.3.2,5101,13774,24616,2,65728,65728,6,6,4,1460,681,1,537920480,81,82732,66348,65700,0,52128,0,0,0
i,0x00000000,1682518697.083996,172.16.1.2,25779,172.16.3.2,5101,13774,24616,2,65728,65728,6,6,4,1460,681,1,537920480,81,82732,66348,65700,0,53576,0,0,0
o,0x00000000,1682518697.084242,172.16.1.2,25779,172.16.3.2,5101,13774,26064,2,65728,65728,6,6,4,1460,681,1,537920480,81,82732,66348,65700,0,53576,0,0,0
i,0x00000000,1682518697.109969,172.16.1.2,25779,172.16.3.2,5101,13774,26064,2,65728,65728,6,6,4,1460,681,1,537920480,81,82732,66348,65700,0,55024,0,0,0
o,0x00000000,1682518697.110107,172.16.1.2,25779,172.16.3.2,5101,13774,27512,2,65728,65728,6,6,4,1460,681,1,537920480,81,82732,66348,65700,0,55024,0,0,0
i,0x00000000,1682518697.138461,172.16.1.2,25779,172.16.3.2,5101,13774,27512,2,65728,65728,6,6,4,1460,681,1,537920480,81,82732,66348,65700,0,56472,0,0,0
o,0x00000000,1682518697.138600,172.16.1.2,25779,172.16.3.2,5101,13774,28960,2,65728,65728,6,6,4,1460,681,1,537920480,81,82732,66348,65700,0,56472,0,0,0
i,0x00000000,1682518697.159089,172.16.1.2,25779,172.16.3.2,5101,13774,28960,2,65728,65728,6,6,4,1460,681,1,537920480,81,82732,66348,65700,0,57920,0,0,0
o,0x00000000,1682518697.159185,172.16.1.2,25779,172.16.3.2,5101,13774,30408,2,65728,65728,6,6,4,1460,681,1,537920480,81,82732,66348,65700,0,57920,0,0,0
i,0x00000000,1682518697.182233,172.16.1.2,25779,172.16.3.2,5101,13774,30408,2,65728,65728,6,6,4,1460,681,1,537920480,81,82732,66348,65700,0,59368,0,0,0
o,0x00000000,1682518697.182280,172.16.1.2,25779,172.16.3.2,5101,13774,31856,2,65728,65728,6,6,4,1460,681,1,537920480,81,82732,66348,65700,0,59368,0,0,0
o,0x00000000,1682518697.197106,172.16.1.2,25779,172.16.3.2,5101,22274,1448,2,65728,65728,6,6,4,1460,681,1,1075848161,142,82732,66348,65700,0,60816,0,0,0
i,0x00000000,1682518697.207479,172.16.1.2,25779,172.16.3.2,5101,22274,1448,2,65728,65728,6,6,4,1460,681,1,1075848160,142,82732,66348,65700,0,60816,0,0,0
o,0x00000000,1682518697.207508,172.16.1.2,25779,172.16.3.2,5101,13774,33304,2,65728,65728,6,6,4,1460,681,1,1613759456,142,82732,66348,65700,0,60816,0,0,0
o,0x00000000,1682518697.207617,172.16.1.2,25779,172.16.3.2,5101,13774,33304,2,65728,65728,6,6,4,1460,681,1,1613759456,142,82732,66348,65700,0,60816,0,0,0
i,0x00000000,1682518697.246273,172.16.1.2,25779,172.16.3.2,5101,13774,33304,2,65728,65728,6,6,4,1460,681,1,1613759456,142,82732,66348,65700,0,62264,0,0,0
o,0x00000000,1682518697.246423,172.16.1.2,25779,172.16.3.2,5101,13774,34752,2,65728,65728,6,6,4,1460,681,1,1613759456,142,82732,66348,65700,0,62264,0,0,0
i,0x00000000,1682518697.256941,172.16.1.2,25779,172.16.3.2,5101,13774,34752,2,65728,65728,6,6,4,1460,681,1,1613759456,142,82732,66348,65700,0,63712,0,0,0
o,0x00000000,1682518697.256987,172.16.1.2,25779,172.16.3.2,5101,13774,36200,2,65728,65728,6,6,4,1460,681,1,1613759456,142,82732,66348,65700,0,63712,0,0,0
i,0x00000000,1682518697.279203,172.16.1.2,25779,172.16.3.2,5101,13774,36200,2,65728,65728,6,6,4,1460,681,1,1613759456,142,82732,66348,65700,0,65160,0,0,0
i,0x00000000,1682518697.308500,172.16.1.2,25779,172.16.3.2,5101,13774,37648,2,65728,65728,6,6,4,1460,681,1,1613759456,142,82732,66348,65700,0,65160,0,0,0
i,0x00000000,1682518697.369435,172.16.1.2,25779,172.16.3.2,5101,13774,39096,2,65728,65728,6,6,4,1460,681,1,1613759456,142,82732,66348,65700,0,65160,0,0,0
i,0x00000000,1682518697.369488,172.16.1.2,25779,172.16.3.2,5101,13774,40544,2,65728,65728,6,6,4,1460,681,1,1613759456,142,82732,66348,65700,0,65160,0,0,0
i,0x00000000,1682518697.396720,172.16.1.2,25779,172.16.3.2,5101,13774,41992,2,65728,65728,6,6,4,1460,681,1,1613759456,142,82732,66348,65700,0,65160,0,0,0
i,0x00000000,1682518697.396865,172.16.1.2,25779,172.16.3.2,5101,13774,13468,2,4928,65728,6,6,4,1460,676,1,1075839968,72,82732,5532,65700,0,4344,0,0,0
i,0x00000000,1682518697.396941,172.16.1.2,25779,172.16.3.2,5101,13774,13468,2,4928,65728,6,6,4,1460,676,1,1075839968,72,82732,5532,65700,0,4344,0,0,0
o,0x00000000,1682518697.397168,172.16.1.2,25779,172.16.3.2,5101,13774,13468,6,65728,65728,6,6,4,1460,676,1,1075839968,72,82732,57224,65700,0,4344,0,0,0
o,0x00000000,1682518697.399050,172.16.1.2,25779,172.16.3.2,5101,13774,13468,6,65728,65728,6,6,4,1460,676,1,1075839968,72,82732,57224,65700,0,5792,0,0,0
o,0x00000000,1682518697.401042,172.16.1.2,25779,172.16.3.2,5101,13774,13468,6,65728,65728,6,6,4,1460,676,1,1075839968,72,82732,57224,65700,0,7240,0,0,0
o,0x00000000,1682518697.402471,172.16.1.2,25779,172.16.3.2,5101,13774,13468,6,65728,65728,6,6,4,1460,676,1,1075839968,72,82732,57224,65700,0,8688,0,0,0
o,0x00000000,1682518697.403097,172.16.1.2,25779,172.16.3.2,5101,13774,13468,6,65728,65728,6,6,4,1460,676,1,1075839968,72,82732,57224,65700,0,10136,0,0,0
o,0x00000000,1682518697.406147,172.16.1.2,25779,172.16.3.2,5101,13774,13468,6,65728,65728,6,6,4,1460,676,1,1075839968,72,82732,57224,65700,0,11584,0,0,0
i,0x00000000,1682518697.431553,172.16.1.2,25779,172.16.3.2,5101,13774,13468,6,65728,65728,6,6,4,1460,676,1,1075839968,72,82732,82732,65700,0,13032,0,0,0
o,0x00000000,1682518697.431673,172.16.1.2,25779,172.16.3.2,5101,13774,16364,6,64256,65728,6,6,4,1460,680,1,1075839968,66,82732,79836,65700,0,10136,0,0,0
o,0x00000000,1682518697.432204,172.16.1.2,25779,172.16.3.2,5101,13774,16364,6,64256,65728,6,6,4,1460,680,1,1075839968,66,82732,79836,65700,0,11584,0,0,0
o,0x00000000,1682518697.432819,172.16.1.2,25779,172.16.3.2,5101,13774,16364,6,64256,65728,6,6,4,1460,680,1,1075839968,66,82732,79836,65700,0,13032,0,0,0
o,0x00000000,1682518697.433484,172.16.1.2,25779,172.16.3.2,5101,13774,16364,6,64256,65728,6,6,4,1460,680,1,1075839968,66,82732,79836,65700,0,14480,0,0,0
i,0x00000000,1682518697.607226,172.16.1.2,25779,172.16.3.2,5101,13774,16364,6,64256,65728,6,6,4,1460,680,1,1075839968,66,82732,82732,65700,0,15928,0,0,0
o,0x00000000,1682518697.607291,172.16.1.2,25779,172.16.3.2,5101,13774,17376,2,64256,65728,6,6,4,1460,680,1,1075839968,66,82732,82732,65700,0,15928,0,0,0
i,0x00000000,1682518697.617787,172.16.1.2,25779,172.16.3.2,5101,13774,16364,2,64256,65728,6,6,4,1460,680,1,1075839968,66,82732,82732,65700,0,17376,0,0,0
o,0x00000000,1682518697.617831,172.16.1.2,25779,172.16.3.2,5101,13774,18824,2,64256,65728,6,6,4,1460,680,1,1075839968,66,82732,82732,65700,0,17376,0,0,0
i,0x00000000,1682518697.628011,172.16.1.2,25779,172.16.3.2,5101,13774,16364,2,64256,65728,6,6,4,1460,680,1,1075839968,66,82732,82732,65700,0,18824,0,0,0
o,0x00000000,1682518697.628123,172.16.1.2,25779,172.16.3.2,5101,6935,1448,2,64256,65728,6,6,4,1460,680,1,1613759456,66,82732,82732,65700,0,18824,0,0,0
i,0x00000000,1682518697.628690,172.16.1.2,25779,172.16.3.2,5101,6935,1448,2,64256,65728,6,6,4,1460,680,1,1613759456,66,82732,82732,65700,0,18824,0,0,0
i,0x00000000,1682518697.659295,172.16.1.2,25779,172.16.3.2,5101,6935,1448,2,64256,65728,6,6,4,1460,680,1,1613759456,66,82732,82732,65700,0,18824,0,0,0
i,0x00000000,1682518697.659421,172.16.1.2,25779,172.16.3.2,5101,6935,1448,2,64256,65728,6,6,4,1460,680,1,1613759456,66,82732,82732,65700,0,18824,0,0,0
o,0x00000000,1682518697.659542,172.16.1.2,25779,172.16.3.2,5101,6935,2896,2,64256,65728,6,6,4,1460,680,1,1613759456,66,82732,82732,65700,0,18824,0,0,0
i,0x00000000,1682518697.707871,172.16.1.2,25779,172.16.3.2,5101,6935,2896,2,64256,65728,6,6,4,1460,680,1,1613759456,66,82732,82732,65700,0,20272,0,0,0
o,0x00000000,1682518697.708001,172.16.1.2,25779,172.16.3.2,5101,6935,2896,2,64256,65728,6,6,4,1460,680,1,1613759456,66,82732,82732,65700,0,20272,0,0,0
i,0x00000000,1682518697.708943,172.16.1.2,25779,172.16.3.2,5101,6935,2896,2,64256,65728,6,6,4,1460,680,1,1613759456,66,82732,82732,65700,0,20272,0,0,0
i,0x00000000,1682518697.758282,172.16.1.2,25779,172.16.3.2,5101,6935,4344,2,64256,65728,6,6,4,1460,680,1,1613759456,66,82732,82732,65700,0,20272,0,0,0
o,0x00000000,1682518697.758452,172.16.1.2,25779,172.16.3.2,5101,6935,4344,2,64256,65728,6,6,4,1460,680,1,1613759456,66,82732,82732,65700,0,20272,0,0,0
i,0x00000000,1682518697.758663,172.16.1.2,25779,172.16.3.2,5101,6935,4344,2,64256,65728,6,6,4,1460,680,1,1613759456,66,82732,82732,65700,0,20272,0,0,0
i,0x00000000,1682518697.796852,172.16.1.2,25779,172.16.3.2,5101,6935,5792,2,64256,65728,6,6,4,1460,680,1,1613759456,66,82732,82732,65700,0,20272,0,0,0
o,0x00000000,1682518697.796879,172.16.1.2,25779,172.16.3.2,5101,6935,4344,2,64256,65728,6,6,4,1460,680,1,1613759457,66,82732,82732,65700,0,20272,0,0,0
i,0x00000000,1682518697.796979,172.16.1.2,25779,172.16.3.2,5101,6935,4344,2,55616,65728,6,6,4,1460,663,1,1613759456,63,82732,72596,65700,0,10136,0,0,0
i,0x00000000,1682518697.850008,172.16.1.2,25779,172.16.3.2,5101,6935,4344,2,55616,65728,6,6,4,1460,663,1,1613759456,63,82732,82732,65700,0,10136,0,0,0
o,0x00000000,1682518697.850050,172.16.1.2,25779,172.16.3.2,5101,6935,2896,2,55616,65728,6,6,4,1460,663,1,1613759457,63,82732,82732,65700,0,10136,0,0,0
i,0x00000000,1682518697.878189,172.16.1.2,25779,172.16.3.2,5101,6935,2896,2,61440,65728,6,6,4,1460,637,1,1613759456,63,82732,82732,65700,0,5792,0,0,0
o,0x00000000,1682518697.878281,172.16.1.2,25779,172.16.3.2,5101,6935,7252,6,59968,65728,6,6,4,1460,606,1,1075839968,64,82732,76940,65700,0,0,0,0,0
o,0x00000000,1682518697.878587,172.16.1.2,25779,172.16.3.2,5101,6935,7252,6,59968,65728,6,6,4,1460,606,1,1075839968,64,82732,76940,65700,0,1448,0,0,0
o,0x00000000,1682518697.878824,172.16.1.2,25779,172.16.3.2,5101,6935,7252,6,59968,65728,6,6,4,1460,606,1,1075839968,64,82732,76940,65700,0,2896,0,0,0
o,0x00000000,1682518697.878971,172.16.1.2,25779,172.16.3.2,5101,6935,7252,6,59968,65728,6,6,4,1460,606,1,1075839968,64,82732,76940,65700,0,4344,0,0,0
o,0x00000000,1682518697.879099,172.16.1.2,25779,172.16.3.2,5101,6935,7252,6,59968,65728,6,6,4,1460,606,1,1075839968,64,82732,76940,65700,0,5792,0,0,0
i,0x00000000,1682518698.057074,172.16.1.2,25779,172.16.3.2,5101,6935,7252,6,59968,65728,6,6,4,1460,606,1,1075839968,64,82732,82732,65700,0,7240,0,0,0
o,0x00000000,1682518698.057161,172.16.1.2,25779,172.16.3.2,5101,6935,7252,6,64256,65728,6,6,4,1460,599,1,1075839968,59,82732,79836,65700,0,4344,0,0,0
o,0x00000000,1682518698.057780,172.16.1.2,25779,172.16.3.2,5101,6935,7252,6,64256,65728,6,6,4,1460,599,1,1075839968,59,82732,79836,65700,0,5792,0,0,0
i,0x00000000,1682518698.058285,172.16.1.2,25779,172.16.3.2,5101,6935,7252,6,64256,65728,6,6,4,1460,599,1,1075839968,59,82732,79836,65700,0,7240,0,0,0
o,0x00000000,1682518698.058433,172.16.1.2,25779,172.16.3.2,5101,6935,7252,6,64256,65728,6,6,4,1460,593,1,1075839968,56,82732,76940,65700,0,4344,0,0,0
o,0x00000000,1682518698.058928,172.16.1.2,25779,172.16.3.2,5101,6935,7252,6,64256,65728,6,6,4,1460,593,1,1075839968,56,82732,76940,65700,0,5792,0,0,0
i,0x00000000,1682518698.148618,172.16.1.2,25779,172.16.3.2,5101,6935,7252,6,64256,65728,6,6,4,1460,593,1,1075839968,56,82732,82732,65700,0,7240,0,0,0
o,0x00000000,1682518698.149029,172.16.1.2,25779,172.16.3.2,5101,6935,7252,6,65728,65728,6,6,4,1460,623,1,1075839968,60,82732,81284,65700,0,5792,0,0,0
i,0x00000000,1682518698.220137,172.16.1.2,25779,172.16.3.2,5101,6935,7252,6,65728,65728,6,6,4,1460,623,1,1075839968,60,82732,81284,65700,0,7240,0,0,0
o,0x00000000,1682518698.220288,172.16.1.2,25779,172.16.3.2,5101,6935,8238,6,64256,65728,6,6,4,1460,610,1,1075839968,58,82732,78388,65700,0,4344,0,0,0
o,0x00000000,1682518698.220950,172.16.1.2,25779,172.16.3.2,5101,6935,8238,6,64256,65728,6,6,4,1460,610,1,1075839968,58,82732,78388,65700,0,5792,0,0,0
i,0x00000000,1682518698.244092,172.16.1.2,25779,172.16.3.2,5101,6935,8238,6,64256,65728,6,6,4,1460,610,1,1075839968,58,82732,82732,65700,0,7240,0,0,0
o,0x00000000,1682518698.244236,172.16.1.2,25779,172.16.3.2,5101,6935,8238,6,64256,65728,6,6,4,1460,606,1,1075839968,54,82732,79836,65700,0,4344,0,0,0
o,0x00000000,1682518698.244356,172.16.1.2,25779,172.16.3.2,5101,6935,8238,6,64256,65728,6,6,4,1460,606,1,1075839968,54,82732,79836,65700,0,5792,0,0,0
i,0x00000000,1682518698.325311,172.16.1.2,25779,172.16.3.2,5101,6935,8238,6,64256,65728,6,6,4,1460,606,1,1075839968,54,82732,82732,65700,0,7240,0,0,0
o,0x00000000,1682518698.325518,172.16.1.2,25779,172.16.3.2,5101,6935,8238,6,65728,65728,6,6,4,1460,599,1,1075839968,51,82732,81284,65700,0,5792,0,0,0
i,0x00000000,1682518698.381409,172.16.1.2,25779,172.16.3.2,5101,6935,8238,6,65728,65728,6,6,4,1460,599,1,1075839968,51,82732,81284,65700,0,7240,0,0,0
o,0x00000000,1682518698.381572,172.16.1.2,25779,172.16.3.2,5101,6935,8238,6,64256,65728,6,6,4,1460,589,1,1075839968,50,82732,78388,65700,0,4344,0,0,0
o,0x00000000,1682518698.382436,172.16.1.2,25779,172.16.3.2,5101,6935,8238,6,64256,65728,6,6,4,1460,589,1,1075839968,50,82732,78388,65700,0,5792,0,0,0
i,0x00000000,1682518698.387931,172.16.1.2,25779,172.16.3.2,5101,6935,8238,6,64256,65728,6,6,4,1460,589,1,1075839968,50,82732,82732,65700,0,7240,0,0,0
o,0x00000000,1682518698.388011,172.16.1.2,25779,172.16.3.2,5101,6935,8238,6,64256,65728,6,6,4,1460,572,1,1075839968,51,82732,79836,65700,0,4344,0,0,0
o,0x00000000,1682518698.388302,172.16.1.2,25779,172.16.3.2,5101,6935,8238,6,64256,65728,6,6,4,1460,572,1,1075839968,51,82732,79836,65700,0,5792,0,0,0
i,0x00000000,1682518698.497453,172.16.1.2,25779,172.16.3.2,5101,6935,8238,6,64256,65728,6,6,4,1460,572,1,1075839968,51,82732,82732,65700,0,7240,0,0,0
o,0x00000000,1682518698.497484,172.16.1.2,25779,172.16.3.2,5101,6935,8486,6,65728,65728,6,6,4,1460,569,1,1075839968,49,82732,81284,65700,0,5792,0,0,0
i,0x00000000,1682518698.536283,172.16.1.2,25779,172.16.3.2,5101,6935,8486,6,65728,65728,6,6,4,1460,569,1,1075839968,49,82732,81284,65700,0,7240,0,0,0
o,0x00000000,1682518698.536363,172.16.1.2,25779,172.16.3.2,5101,6935,8603,6,64256,65728,6,6,4,1460,558,1,1075839968,48,82732,78388,65700,0,4344,0,0,0
o,0x00000000,1682518698.536664,172.16.1.2,25779,172.16.3.2,5101,6935,8603,6,64256,65728,6,6,4,1460,558,1,1075839968,48,82732,78388,65700,0,5792,0,0,0
i,0x00000000,1682518698.557797,172.16.1.2,25779,172.16.3.2,5101,6935,8603,6,64256,65728,6,6,4,1460,558,1,1075839968,48,82732,82732,65700,0,7240,0,0,0
o,0x00000000,1682518698.557868,172.16.1.2,25779,172.16.3.2,5101,6935,8719,6,64256,65728,6,6,4,1460,557,1,1075839968,46,82732,79836,65700,0,4344,0,0,0
o,0x00000000,1682518698.558076,172.16.1.2,25779,172.16.3.2,5101,6935,8719,6,64256,65728,6,6,4,1460,557,1,1075839968,46,82732,79836,65700,0,5792,0,0,0
o,0x00000000,1682518698.558221,172.16.1.2,25779,172.16.3.2,5101,6935,8719,6,64256,65728,6,6,4,1460,557,1,1075839968,46,82732,79836,65700,0,7240,0,0,0
i,0x00000000,1682518698.687523,172.16.1.2,25779,172.16.3.2,5101,6935,8719,6,64256,65728,6,6,4,1460,557,1,1075839968,46,82732,82732,65700,0,8688,0,0,0
o,0x00000000,1682518698.687553,172.16.1.2,25779,172.16.3.2,5101,6935,9223,6,65728,65728,6,6,4,1460,564,1,1075839968,46,82732,81284,65700,0,7240,0,0,0
i,0x00000000,1682518698.708118,172.16.1.2,25779,172.16.3.2,5101,6935,9223,6,65728,65728,6,6,4,1460,564,1,1075839968,46,82732,81284,65700,0,8688,0,0,0
o,0x00000000,1682518698.708270,172.16.1.2,25779,172.16.3.2,5101,6935,9300,6,64256,65728,6,6,4,1460,562,1,1075839968,44,82732,78388,65700,0,5792,0,0,0
o,0x00000000,1682518698.708941,172.16.1.2,25779,172.16.3.2,5101,6935,9300,6,64256,65728,6,6,4,1460,562,1,1075839968,44,82732,78388,65700,0,7240,0,0,0
i,0x00000000,1682518698.738393,172.16.1.2,25779,172.16.3.2,5101,6935,9300,6,64256,65728,6,6,4,1460,562,1,1075839968,44,82732,82732,65700,0,8688,0,0,0
o,0x00000000,1682518698.738519,172.16.1.2,25779,172.16.3.2,5101,6935,9417,6,64256,65728,6,6,4,1460,564,1,1075839968,43,82732,79836,65700,0,5792,0,0,0
o,0x00000000,1682518698.739065,172.16.1.2,25779,172.16.3.2,5101,6935,9417,6,64256,65728,6,6,4,1460,564,1,1075839968,43,82732,79836,65700,0,7240,0,0,0
i,0x00000000,1682518698.797724,172.16.1.2,25779,172.16.3.2,5101,6935,9417,6,64256,65728,6,6,4,1460,564,1,1075839968,43,82732,82732,65700,0,8688,0,0,0
o,0x00000000,1682518698.797815,172.16.1.2,25779,172.16.3.2,5101,6935,9649,6,65728,65728,6,6,4,1460,590,1,1075839968,49,82732,81284,65700,0,7240,0,0,0
i,0x00000000,1682518698.856553,172.16.1.2,25779,172.16.3.2,5101,6935,9649,6,65728,65728,6,6,4,1460,590,1,1075839968,49,82732,81284,65700,0,8688,0,0,0
o,0x00000000,1682518698.856588,172.16.1.2,25779,172.16.3.2,5101,6935,9882,6,65728,65728,6,6,4,1460,581,1,1075839968,48,82732,79836,65700,0,7240,0,0,0
i,0x00000000,1682518698.913626,172.16.1.2,25779,172.16.3.2,5101,6935,9882,6,65728,65728,6,6,4,1460,581,1,1075839968,48,82732,82732,65700,0,8688,0,0,0
o,0x00000000,1682518698.913803,172.16.1.2,25779,172.16.3.2,5101,6935,10076,6,64256,65728,6,6,4,1460,589,1,1075839968,48,82732,79836,65700,0,5792,0,0,0
o,0x00000000,1682518698.914527,172.16.1.2,25779,172.16.3.2,5101,6935,10076,6,64256,65728,6,6,4,1460,589,1,1075839968,48,82732,79836,65700,0,7240,0,0,0
i,0x00000000,1682518698.915149,172.16.1.2,25779,172.16.3.2,5101,6935,10076,6,64256,65728,6,6,4,1460,589,1,1075839968,48,82732,79836,65700,0,8688,0,0,0
o,0x00000000,1682518698.916043,172.16.1.2,25779,172.16.3.2,5101,6935,10076,6,64256,65728,6,6,4,1460,584,1,1075839968,47,82732,76940,65700,0,5792,0,0,0
o,0x00000000,1682518698.916656,172.16.1.2,25779,172.16.3.2,5101,6935,10076,6,64256,65728,6,6,4,1460,584,1,1075839968,47,82732,76940,65700,0,7240,0,0,0
i,0x00000000,1682518698.998541,172.16.1.2,25779,172.16.3.2,5101,6935,10076,6,64256,65728,6,6,4,1460,584,1,1075839968,47,82732,82732,65700,0,8688,0,0,0
o,0x00000000,1682518698.998791,172.16.1.2,25779,172.16.3.2,5101,6935,10424,6,65728,65728,6,6,4,1460,591,1,1075839968,46,82732,81284,65700,0,7240,0,0,0
o,0x00000000,1682518698.999054,172.16.1.2,25779,172.16.3.2,5101,6935,10424,6,65728,65728,6,6,4,1460,591,1,1075839968,46,82732,81284,65700,0,8688,0,0,0
i,0x00000000,1682518699.057369,172.16.1.2,25779,172.16.3.2,5101,6935,10424,6,65728,65728,6,6,4,1460,591,1,1075839968,46,82732,81284,65700,0,10136,0,0,0
o,0x00000000,1682518699.057440,172.16.1.2,25779,172.16.3.2,5101,6935,10657,6,65728,65728,6,6,4,1460,598,1,1075839968,46,82732,79836,65700,0,8688,0,0,0
i,0x00000000,1682518699.108647,172.16.1.2,25779,172.16.3.2,5101,6935,10657,6,65728,65728,6,6,4,1460,598,1,1075839968,46,82732,82732,65700,0,10136,0,0,0
o,0x00000000,1682518699.108869,172.16.1.2,25779,172.16.3.2,5101,6935,10851,6,64256,65728,6,6,4,1460,604,1,1075839968,46,82732,79836,65700,0,7240,0,0,0
o,0x00000000,1682518699.109874,172.16.1.2,25779,172.16.3.2,5101,6935,10851,6,64256,65728,6,6,4,1460,604,1,1075839968,46,82732,79836,65700,0,8688,0,0,0
i,0x00000000,1682518699.111593,172.16.1.2,25779,172.16.3.2,5101,6935,10851,6,64256,65728,6,6,4,1460,604,1,1075839968,46,82732,79836,65700,0,10136,0,0,0
o,0x00000000,1682518699.111941,172.16.1.2,25779,172.16.3.2,5101,6935,10851,6,64256,65728,6,6,4,1460,609,1,1075839968,46,82732,76940,65700,0,7240,0,0,0
o,0x00000000,1682518699.113357,172.16.1.2,25779,172.16.3.2,5101,6935,10851,6,64256,65728,6,6,4,1460,609,1,1075839968,46,82732,76940,65700,0,8688,0,0,0
i,0x00000000,1682518699.202725,172.16.1.2,25779,172.16.3.2,5101,6935,10851,6,64256,65728,6,6,4,1460,609,1,1075839968,46,82732,82732,65700,0,10136,0,0,0
o,0x00000000,1682518699.202785,172.16.1.2,25779,172.16.3.2,5101,6935,11200,6,64256,65728,6,6,4,1460,613,1,1075839968,45,82732,79836,65700,0,7240,0,0,0
o,0x00000000,1682518699.202935,172.16.1.2,25779,172.16.3.2,5101,6935,11200,6,64256,65728,6,6,4,1460,613,1,1075839968,45,82732,79836,65700,0,8688,0,0,0
i,0x00000000,1682518699.256304,172.16.1.2,25779,172.16.3.2,5101,6935,11200,6,64256,65728,6,6,4,1460,613,1,1075839968,45,82732,82732,65700,0,10136,0,0,0
o,0x00000000,1682518699.256439,172.16.1.2,25779,172.16.3.2,5101,6935,11394,6,65728,65728,6,6,4,1460,613,1,1075839968,44,82732,81284,65700,0,8688,0,0,0
i,0x00000000,1682518699.308463,172.16.1.2,25779,172.16.3.2,5101,6935,11394,6,65728,65728,6,6,4,1460,613,1,1075839968,44,82732,81284,65700,0,10136,0,0,0
o,0x00000000,1682518699.308622,172.16.1.2,25779,172.16.3.2,5101,6935,11626,6,64256,65728,6,6,4,1460,613,1,1075839968,42,82732,78388,65700,0,7240,0,0,0
o,0x00000000,1682518699.310071,172.16.1.2,25779,172.16.3.2,5101,6935,11626,6,64256,65728,6,6,4,1460,613,1,1075839968,42,82732,78388,65700,0,8688,0,0,0
o,0x00000000,1682518699.310796,172.16.1.2,25779,172.16.3.2,5101,6935,11626,6,64256,65728,6,6,4,1460,613,1,1075839968,42,82732,78388,65700,0,10136,0,0,0
i,0x00000000,1682518699.311402,172.16.1.2,25779,172.16.3.2,5101,6935,11626,6,64256,65728,6,6,4,1460,613,1,1075839968,42,82732,78388,65700,0,11584,0,0,0
o,0x00000000,1682518699.311508,172.16.1.2,25779,172.16.3.2,5101,6935,11626,6,64256,65728,6,6,4,1460,613,1,1075839968,42,82732,75492,65700,0,8688,0,0,0
o,0x00000000,1682518699.312113,172.16.1.2,25779,172.16.3.2,5101,6935,11626,6,64256,65728,6,6,4,1460,613,1,1075839968,42,82732,75492,65700,0,10136,0,0,0
i,0x00000000,1682518699.397832,172.16.1.2,25779,172.16.3.2,5101,6935,11626,6,64256,65728,6,6,4,1460,613,1,1075839968,42,82732,82732,65700,0,11584,0,0,0
o,0x00000000,1682518699.397982,172.16.1.2,25779,172.16.3.2,5101,6935,11975,6,64256,65728,6,6,4,1460,617,1,1075839968,42,82732,79836,65700,0,8688,0,0,0
o,0x00000000,1682518699.398653,172.16.1.2,25779,172.16.3.2,5101,6935,11975,6,64256,65728,6,6,4,1460,617,1,1075839968,42,82732,79836,65700,0,10136,0,0,0
i,0x00000000,1682518699.459381,172.16.1.2,25779,172.16.3.2,5101,6935,11975,6,64256,65728,6,6,4,1460,617,1,1075839968,42,82732,82732,65700,0,11584,0,0,0
o,0x00000000,1682518699.459977,172.16.1.2,25779,172.16.3.2,5101,6935,12208,6,65728,65728,6,6,4,1460,624,1,1075839968,43,82732,81284,65700,0,10136,0,0,0
i,0x00000000,1682518699.507168,172.16.1.2,25779,172.16.3.2,5101,6935,12208,6,65728,65728,6,6,4,1460,624,1,1075839968,43,82732,81284,65700,0,11584,0,0,0
o,0x00000000,1682518699.507305,172.16.1.2,25779,172.16.3.2,5101,6935,12402,6,64256,65728,6,6,4,1460,626,1,1075839968,43,82732,78388,65700,0,8688,0,0,0
o,0x00000000,1682518699.507435,172.16.1.2,25779,172.16.3.2,5101,6935,12402,6,64256,65728,6,6,4,1460,626,1,1075839968,43,82732,78388,65700,0,10136,0,0,0
i,0x00000000,1682518699.518711,172.16.1.2,25779,172.16.3.2,5101,6935,12402,6,64256,65728,6,6,4,1460,626,1,1075839968,43,82732,82732,65700,0,11584,0,0,0
o,0x00000000,1682518699.519323,172.16.1.2,25779,172.16.3.2,5101,6935,12440,6,64256,65728,6,6,4,1460,632,1,1075839968,44,82732,79836,65700,0,8688,0,0,0
o,0x00000000,1682518699.520005,172.16.1.2,25779,172.16.3.2,5101,6935,12440,6,64256,65728,6,6,4,1460,632,1,1075839968,44,82732,79836,65700,0,10136,0,0,0
i,0x00000000,1682518699.579860,172.16.1.2,25779,172.16.3.2,5101,6935,12440,6,64256,65728,6,6,4,1460,632,1,1075839968,44,82732,82732,65700,0,11584,0,0,0
o,0x00000000,1682518699.580019,172.16.1.2,25779,172.16.3.2,5101,6935,12673,6,64256,65728,6,6,4,1460,661,1,1075839968,51,82732,79836,65700,0,8688,0,0,0
o,0x00000000,1682518699.580171,172.16.1.2,25779,172.16.3.2,5101,6935,12673,6,64256,65728,6,6,4,1460,661,1,1075839968,51,82732,79836,65700,0,10136,0,0,0
i,0x00000000,1682518699.597184,172.16.1.2,25779,172.16.3.2,5101,6935,12673,6,64256,65728,6,6,4,1460,661,1,1075839968,51,82732,82732,65700,0,11584,0,0,0
o,0x00000000,1682518699.597338,172.16.1.2,25779,172.16.3.2,5101,6935,12750,6,64256,65728,6,6,4,1460,655,1,1075839968,50,82732,79836,65700,0,8688,0,0,0
o,0x00000000,1682518699.597930,172.16.1.2,25779,172.16.3.2,5101,6935,12750,6,64256,65728,6,6,4,1460,655,1,1075839968,50,82732,79836,65700,0,10136,0,0,0
i,0x00000000,1682518699.676613,172.16.1.2,25779,172.16.3.2,5101,6935,12750,6,64256,65728,6,6,4,1460,655,1,1075839968,50,82732,82732,65700,0,11584,0,0,0
o,0x00000000,1682518699.678987,172.16.1.2,25779,172.16.3.2,5101,6935,13022,6,64256,65728,6,6,4,1460,638,1,1075839968,51,82732,79836,65700,0,8688,0,0,0
o,0x00000000,1682518699.680952,172.16.1.2,25779,172.16.3.2,5101,6935,13022,6,64256,65728,6,6,4,1460,638,1,1075839968,51,82732,79836,65700,0,10136,0,0,0
i,0x00000000,1682518699.730742,172.16.1.2,25779,172.16.3.2,5101,6935,13022,6,64256,65728,6,6,4,1460,638,1,1075839968,51,82732,82732,65700,0,11584,0,0,0
o,0x00000000,1682518699.731356,172.16.1.2,25779,172.16.3.2,5101,6935,13254,6,64256,65728,6,6,4,1460,643,1,1075839968,50,82732,79836,65700,0,8688,0,0,0
o,0x00000000,1682518699.731976,172.16.1.2,25779,172.16.3.2,5101,6935,13254,6,64256,65728,6,6,4,1460,643,1,1075839968,50,82732,79836,65700,0,10136,0,0,0
o,0x00000000,1682518699.732465,172.16.1.2,25779,172.16.3.2,5101,6935,13254,6,64256,65728,6,6,4,1460,643,1,1075839968,50,82732,79836,65700,0,11584,0,0,0
i,0x00000000,1682518699.790049,172.16.1.2,25779,172.16.3.2,5101,6935,13254,6,64256,65728,6,6,4,1460,643,1,1075839968,50,82732,81144,65700,0,13032,0,0,0
o,0x00000000,1682518699.790087,172.16.1.2,25779,172.16.3.2,5101,6935,13487,6,64256,65728,6,6,4,1460,647,1,1075839968,48,82732,78248,65700,0,10136,0,0,0
o,0x00000000,1682518699.790803,172.16.1.2,25779,172.16.3.2,5101,6935,13487,6,64256,65728,6,6,4,1460,647,1,1075839968,48,82732,78248,65700,0,11584,0,0,0
i,0x00000000,1682518699.820586,172.16.1.2,25779,172.16.3.2,5101,6935,13487,6,64256,65728,6,6,4,1460,647,1,1075839968,48,82732,82732,65700,0,13032,0,0,0
o,0x00000000,1682518699.820628,172.16.1.2,25779,172.16.3.2,5101,6935,13603,6,64256,65728,6,6,4,1460,655,1,1075839968,49,82732,79836,65700,0,10136,0,0,0
o,0x00000000,1682518699.820774,172.16.1.2,25779,172.16.3.2,5101,6935,13603,6,64256,65728,6,6,4,1460,655,1,1075839968,49,82732,79836,65700,0,11584,0,0,0
i,0x00000000,1682518699.882649,172.16.1.2,25779,172.16.3.2,5101,6935,13603,6,64256,65728,6,6,4,1460,655,1,1075839968,49,82732,82732,65700,0,13032,0,0,0
o,0x00000000,1682518699.882728,172.16.1.2,25779,172.16.3.2,5101,6935,13836,6,64256,65728,6,6,4,1460,654,1,1075839968,47,82732,79836,65700,0,10136,0,0,0
o,0x00000000,1682518699.883143,172.16.1.2,25779,172.16.3.2,5101,6935,13836,6,64256,65728,6,6,4,1460,654,1,1075839968,47,82732,79836,65700,0,11584,0,0,0
i,0x00000000,1682518699.913349,172.16.1.2,25779,172.16.3.2,5101,6935,13836,6,64256,65728,6,6,4,1460,654,1,1075839968,47,82732,82732,65700,0,13032,0,0,0
o,0x00000000,1682518699.913434,172.16.1.2,25779,172.16.3.2,5101,6935,13952,6,64256,65728,6,6,4,1460,645,1,1075839968,47,82732,79836,65700,0,10136,0,0,0
o,0x00000000,1682518699.913656,172.16.1.2,25779,172.16.3.2,5101,6935,13952,6,64256,65728,6,6,4,1460,645,1,1075839968,47,82732,79836,65700,0,11584,0,0,0
i,0x00000000,1682518699.987104,172.16.1.2,25779,172.16.3.2,5101,6935,13952,6,64256,65728,6,6,4,1460,645,1,1075839968,47,82732,82732,65700,0,13032,0,0,0
o,0x00000000,1682518699.987255,172.16.1.2,25779,172.16.3.2,5101,6935,14262,6,64256,65728,6,6,4,1460,665,1,1075839968,51,82732,79836,65700,0,10136,0,0,0
o,0x00000000,1682518699.988122,172.16.1.2,25779,172.16.3.2,5101,6935,14262,6,64256,65728,6,6,4,1460,665,1,1075839968,51,82732,79836,65700,0,11584,0,0,0
i,0x00000000,1682518700.037134,172.16.1.2,25779,172.16.3.2,5101,6935,14262,6,64256,65728,6,6,4,1460,665,1,1075839968,51,82732,82732,65700,0,13032,0,0,0
o,0x00000000,1682518700.037166,172.16.1.2,25779,172.16.3.2,5101,6935,14456,6,65728,65728,6,6,4,1460,678,1,1075839968,52,82732,81284,65700,0,11584,0,0,0
i,0x00000000,1682518700.037266,172.16.1.2,25779,172.16.3.2,5101,6935,14456,6,65728,65728,6,6,4,1460,678,1,1075839968,52,82732,81284,65700,0,13032,0,0,0
o,0x00000000,1682518700.037289,172.16.1.2,25779,172.16.3.2,5101,6935,14456,6,64256,65728,6,6,4,1460,678,1,1075839968,49,82732,78388,65700,0,10136,0,0,0
o,0x00000000,1682518700.037382,172.16.1.2,25779,172.16.3.2,5101,6935,14456,6,64256,65728,6,6,4,1460,678,1,1075839968,49,82732,78388,65700,0,11584,0,0,0
i,0x00000000,1682518700.088296,172.16.1.2,25779,172.16.3.2,5101,6935,14456,6,64256,65728,6,6,4,1460,678,1,1075839968,49,82732,82732,65700,0,13032,0,0,0
o,0x00000000,1682518700.089283,172.16.1.2,25779,172.16.3.2,5101,6935,14650,6,64256,65728,6,6,4,1460,674,1,1075839968,48,82732,79836,65700,0,10136,0,0,0
o,0x00000000,1682518700.089967,172.16.1.2,25779,172.16.3.2,5101,6935,14650,6,64256,65728,6,6,4,1460,674,1,1075839968,48,82732,79836,65700,0,11584,0,0,0
o,0x00000000,1682518700.090625,172.16.1.2,25779,172.16.3.2,5101,6935,14650,6,64256,65728,6,6,4,1460,674,1,1075839968,48,82732,79836,65700,0,13032,0,0,0
i,0x00000000,1682518700.147229,172.16.1.2,25779,172.16.3.2,5101,6935,14650,6,64256,65728,6,6,4,1460,674,1,1075839968,48,82732,82732,65700,0,14480,0,0,0
o,0x00000000,1682518700.147313,172.16.1.2,25779,172.16.3.2,5101,6935,14883,6,64256,65728,6,6,4,1460,682,1,1075839968,49,82732,79836,65700,0,11584,0,0,0
o,0x00000000,1682518700.147790,172.16.1.2,25779,172.16.3.2,5101,6935,14883,6,64256,65728,6,6,4,1460,682,1,1075839968,49,82732,79836,65700,0,13032,0,0,0
i,0x00000000,1682518700.197486,172.16.1.2,25779,172.16.3.2,5101,6935,14883,6,64256,65728,6,6,4,1460,682,1,1075839968,49,82732,82732,65700,0,14480,0,0,0
o,0x00000000,1682518700.197545,172.16.1.2,25779,172.16.3.2,5101,6935,15076,6,64256,65728,6,6,4,1460,681,1,1075839968,47,82732,79836,65700,0,11584,0,0,0
o,0x00000000,1682518700.197840,172.16.1.2,25779,172.16.3.2,5101,6935,15076,6,64256,65728,6,6,4,1460,681,1,1075839968,47,82732,79836,65700,0,13032,0,0,0
i,0x00000000,1682518700.258797,172.16.1.2,25779,172.16.3.2,5101,6935,15076,6,64256,65728,6,6,4,1460,681,1,1075839968,47,82732,82732,65700,0,14480,0,0,0
o,0x00000000,1682518700.259501,172.16.1.2,25779,172.16.3.2,5101,6935,15309,6,65728,65728,6,6,4,1460,684,1,1075839968,46,82732,81284,65700,0,13032,0,0,0
i,0x00000000,1682518700.260059,172.16.1.2,25779,172.16.3.2,5101,6935,15309,6,65728,65728,6,6,4,1460,684,1,1075839968,46,82732,81284,65700,0,14480,0,0,0
o,0x00000000,1682518700.260155,172.16.1.2,25779,172.16.3.2,5101,6935,15309,6,64256,65728,6,6,4,1460,687,1,1075839968,46,82732,78388,65700,0,11584,0,0,0
o,0x00000000,1682518700.260648,172.16.1.2,25779,172.16.3.2,5101,6935,15309,6,64256,65728,6,6,4,1460,687,1,1075839968,46,82732,78388,65700,0,13032,0,0,0
i,0x00000000,1682518700.306202,172.16.1.2,25779,172.16.3.2,5101,6935,15309,6,64256,65728,6,6,4,1460,687,1,1075839968,46,82732,82732,65700,0,14480,0,0,0
o,0x00000000,1682518700.306242,172.16.1.2,25779,172.16.3.2,5101,6935,15464,6,65728,65728,6,6,4,1460,686,1,1075839968,45,82732,81284,65700,0,13032,0,0,0
i,0x00000000,1682518700.368325,172.16.1.2,25779,172.16.3.2,5101,6935,15464,6,65728,65728,6,6,4,1460,686,1,1075839968,45,82732,81284,65700,0,14480,0,0,0
i,0x00000000,1682518700.381386,172.16.1.2,25779,172.16.3.2,5101,6935,15464,6,65728,65728,6,6,4,1460,686,1,1075839968,45,82732,81284,65700,0,14480,0,0,0
o,0x00000000,1682518700.381604,172.16.1.2,25779,172.16.3.2,5101,10812,1448,2,65728,65728,6,6,4,1460,686,1,1613759456,45,82732,81284,65700,0,14480,0,0,0
i,0x00000000,1682518700.382367,172.16.1.2,25779,172.16.3.2,5101,10812,1448,2,65728,65728,6,6,4,1460,686,1,1613759456,45,82732,81284,65700,0,14480,0,0,0
i,0x00000000,1682518700.417047,172.16.1.2,25779,172.16.3.2,5101,10812,1448,2,65728,65728,6,6,4,1460,686,1,1613759456,45,82732,81284,65700,0,14480,0,0,0
o,0x00000000,1682518700.417083,172.16.1.2,25779,172.16.3.2,5101,10812,2896,2,65728,65728,6,6,4,1460,686,1,1613759456,45,82732,81284,65700,0,14480,0,0,0
i,0x00000000,1682518700.451570,172.16.1.2,25779,172.16.3.2,5101,10812,2896,2,65728,65728,6,6,4,1460,686,1,1613759456,45,82732,81284,65700,0,15928,0,0,0
o,0x00000000,1682518700.451692,172.16.1.2,25779,172.16.3.2,5101,10812,4344,2,65728,65728,6,6,4,1460,686,1,1613759456,45,82732,81284,65700,0,15928,0,0,0
i,0x00000000,1682518700.452267,172.16.1.2,25779,172.16.3.2,5101,10812,4344,2,65728,65728,6,6,4,1460,686,1,1613759456,45,82732,81284,65700,0,17376,0,0,0
o,0x00000000,1682518700.452369,172.16.1.2,25779,172.16.3.2,5101,10812,5792,2,65728,65728,6,6,4,1460,686,1,1613759456,45,82732,81284,65700,0,17376,0,0,0
i,0x00000000,1682518700.488830,172.16.1.2,25779,172.16.3.2,5101,10812,5792,2,65728,65728,6,6,4,1460,686,1,1613759456,45,82732,81284,65700,0,18824,0,0,0
o,0x00000000,1682518700.489109,172.16.1.2,25779,172.16.3.2,5101,10812,7240,2,65728,65728,6,6,4,1460,686,1,1613759456,45,82732,81284,65700,0,18824,0,0,0
i,0x00000000,1682518700.489817,172.16.1.2,25779,172.16.3.2,5101,10812,7240,2,65728,65728,6,6,4,1460,686,1,1613759456,45,82732,81284,65700,0,20272,0,0,0
o,0x00000000,1682518700.489959,172.16.1.2,25779,172.16.3.2,5101,10812,8688,2,65728,65728,6,6,4,1460,686,1,1613759456,45,82732,81284,65700,0,20272,0,0,0
i,0x00000000,1682518700.536615,172.16.1.2,25779,172.16.3.2,5101,10812,8688,2,65728,65728,6,6,4,1460,686,1,1613759456,45,82732,81284,65700,0,21720,0,0,0
o,0x00000000,1682518700.536723,172.16.1.2,25779,172.16.3.2,5101,10812,10812,6,51264,65728,6,6,4,1460,661,1,1075839968,49,82732,66804,65700,0,7240,0,0,0
o,0x00000000,1682518700.536835,172.16.1.2,25779,172.16.3.2,5101,10812,10812,6,51264,65728,6,6,4,1460,661,1,1075839968,49,82732,66804,65700,0,8688,0,0,0
i,0x00000000,1682518700.584148,172.16.1.2,25779,172.16.3.2,5101,10812,10812,6,51264,65728,6,6,4,1460,661,1,1075839968,49,82732,82732,65700,0,10136,0,0,0
o,0x00000000,1682518700.584512,172.16.1.2,25779,172.16.3.2,5101,10812,12260,6,65728,65728,6,6,4,1460,643,1,1075839968,51,82732,81284,65700,0,8688,0,0,0
o,0x00000000,1682518700.585772,172.16.1.2,25779,172.16.3.2,5101,10812,12260,6,65728,65728,6,6,4,1460,643,1,1075839968,51,82732,81284,65700,0,10136,0,0,0
i,0x00000000,1682518700.606916,172.16.1.2,25779,172.16.3.2,5101,10812,12260,6,65728,65728,6,6,4,1460,643,1,1075839968,51,82732,81284,65700,0,11584,0,0,0
o,0x00000000,1682518700.607092,172.16.1.2,25779,172.16.3.2,5101,10812,12260,6,64256,65728,6,6,4,1460,623,1,1075839968,53,82732,78388,65700,0,8688,0,0,0
o,0x00000000,1682518700.607268,172.16.1.2,25779,172.16.3.2,5101,10812,12260,6,64256,65728,6,6,4,1460,623,1,1075839968,53,82732,78388,65700,0,10136,0,0,0
i,0x00000000,1682518700.668548,172.16.1.2,25779,172.16.3.2,5101,10812,12260,6,64256,65728,6,6,4,1460,623,1,1075839968,53,82732,82732,65700,0,11584,0,0,0
o,0x00000000,1682518700.668710,172.16.1.2,25779,172.16.3.2,5101,10812,12544,6,64256,65728,6,6,4,1460,618,1,1075839968,51,82732,79836,65700,0,8688,0,0,0
o,0x00000000,1682518700.670103,172.16.1.2,25779,172.16.3.2,5101,10812,12544,6,64256,65728,6,6,4,1460,618,1,1075839968,51,82732,79836,65700,0,10136,0,0,0
i,0x00000000,1682518700.717788,172.16.1.2,25779,172.16.3.2,5101,10812,12544,6,64256,65728,6,6,4,1460,618,1,1075839968,51,82732,82732,65700,0,11584,0,0,0
o,0x00000000,1682518700.718889,172.16.1.2,25779,172.16.3.2,5101,10812,12544,6,64256,65728,6,6,4,1460,613,1,1075839968,49,82732,79836,65700,0,8688,0,0,0
o,0x00000000,1682518700.719452,172.16.1.2,25779,172.16.3.2,5101,10812,12544,6,64256,65728,6,6,4,1460,613,1,1075839968,49,82732,79836,65700,0,10136,0,0,0
i,0x00000000,1682518700.778025,172.16.1.2,25779,172.16.3.2,5101,10812,12544,6,64256,65728,6,6,4,1460,613,1,1075839968,49,82732,82732,65700,0,11584,0,0,0
o,0x00000000,1682518700.778365,172.16.1.2,25779,172.16.3.2,5101,10812,12544,6,64256,65728,6,6,4,1460,613,1,1075839968,46,82732,79836,65700,0,8688,0,0,0
o,0x00000000,1682518700.779072,172.16.1.2,25779,172.16.3.2,5101,10812,12544,6,64256,65728,6,6,4,1460,613,1,1075839968,46,82732,79836,65700,0,10136,0,0,0
i,0x00000000,1682518700.806982,172.16.1.2,25779,172.16.3.2,5101,10812,12544,6,64256,65728,6,6,4,1460,613,1,1075839968,46,82732,82732,65700,0,11584,0,0,0
o,0x00000000,1682518700.807033,172.16.1.2,25779,172.16.3.2,5101,10812,12544,6,65728,65728,6,6,4,1460,617,1,1075839968,46,82732,81284,65700,0,10136,0,0,0
i,0x00000000,1682518700.857852,172.16.1.2,25779,172.16.3.2,5101,10812,12544,6,65728,65728,6,6,4,1460,617,1,1075839968,46,82732,81284,65700,0,11584,0,0,0
o,0x00000000,1682518700.857992,172.16.1.2,25779,172.16.3.2,5101,10812,12544,6,65728,65728,6,6,4,1460,640,1,1075839968,51,82732,79836,65700,0,10136,0,0,0
i,0x00000000,1682518700.867465,172.16.1.2,25779,172.16.3.2,5101,10812,12544,6,65728,65728,6,6,4,1460,640,1,1075839968,51,82732,82732,65700,0,11584,0,0,0
o,0x00000000,1682518700.867508,172.16.1.2,25779,172.16.3.2,5101,10812,12544,6,64256,65728,6,6,4,1460,636,1,1075839968,49,82732,79836,65700,0,8688,0,0,0
o,0x00000000,1682518700.869019,172.16.1.2,25779,172.16.3.2,5101,10812,12544,6,64256,65728,6,6,4,1460,636,1,1075839968,49,82732,79836,65700,0,10136,0,0,0
i,0x00000000,1682518700.907445,172.16.1.2,25779,172.16.3.2,5101,10812,12544,6,64256,65728,6,6,4,1460,636,1,1075839968,49,82732,82732,65700,0,11584,0,0,0
o,0x00000000,1682518700.907484,172.16.1.2,25779,172.16.3.2,5101,10812,12544,6,64256,65728,6,6,4,1460,633,1,1075839968,47,82732,79836,65700,0,8688,0,0,0
o,0x00000000,1682518700.907591,172.16.1.2,25779,172.16.3.2,5101,10812,12544,6,64256,65728,6,6,4,1460,633,1,1075839968,47,82732,79836,65700,0,10136,0,0,0
i,0x00000000,1682518700.959152,172.16.1.2,25779,172.16.3.2,5101,10812,12544,6,64256,65728,6,6,4,1460,633,1,1075839968,47,82732,82732,65700,0,11584,0,0,0
o,0x00000000,1682518700.959267,172.16.1.2,25779,172.16.3.2,5101,10812,12544,6,64256,65728,6,6,4,1460,626,1,1075839968,47,82732,79836,65700,0,8688,0,0,0
o,0x00000000,1682518700.959396,172.16.1.2,25779,172.16.3.2,5101,10812,12544,6,64256,65728,6,6,4,1460,626,1,1075839968,47,82732,79836,65700,0,10136,0,0,0
i,0x00000000,1682518701.017506,172.16.1.2,25779,172.16.3.2,5101,10812,12544,6,64256,65728,6,6,4,1460,626,1,1075839968,47,82732,82732,65700,0,11584,0,0,0
o,0x00000000,1682518701.017860,172.16.1.2,25779,172.16.3.2,5101,10812,14004,6,64256,65728,6,6,4,1460,632,1,1075839968,47,82732,79836,65700,0,8688,0,0,0
o,0x00000000,1682518701.018294,172.16.1.2,25779,172.16.3.2,5101,10812,14004,6,64256,65728,6,6,4,1460,632,1,1075839968,47,82732,79836,65700,0,10136,0,0,0
o,0x00000000,1682518701.018625,172.16.1.2,25779,172.16.3.2,5101,10812,14004,6,64256,65728,6,6,4,1460,632,1,1075839968,47,82732,79836,65700,0,11584,0,0,0
i,0x00000000,1682518701.058363,172.16.1.2,25779,172.16.3.2,5101,10812,14004,6,64256,65728,6,6,4,1460,632,1,1075839968,47,82732,82732,65700,0,13032,0,0,0
o,0x00000000,1682518701.058590,172.16.1.2,25779,172.16.3.2,5101,10812,14004,6,64256,65728,6,6,4,1460,629,1,1075839968,46,82732,79836,65700,0,10136,0,0,0
o,0x00000000,1682518701.059522,172.16.1.2,25779,172.16.3.2,5101,10812,14004,6,64256,65728,6,6,4,1460,629,1,1075839968,46,82732,79836,65700,0,11584,0,0,0
i,0x00000000,1682518701.108620,172.16.1.2,25779,172.16.3.2,5101,10812,14004,6,64256,65728,6,6,4,1460,629,1,1075839968,46,82732,82732,65700,0,13032,0,0,0
o,0x00000000,1682518701.109107,172.16.1.2,25779,172.16.3.2,5101,10812,14004,6,64256,65728,6,6,4,1460,631,1,1075839968,45,82732,79836,65700,0,10136,0,0,0
o,0x00000000,1682518701.110104,172.16.1.2,25779,172.16.3.2,5101,10812,14004,6,64256,65728,6,6,4,1460,631,1,1075839968,45,82732,79836,65700,0,11584,0,0,0
i,0x00000000,1682518701.157229,172.16.1.2,25779,172.16.3.2,5101,10812,14004,6,64256,65728,6,6,4,1460,631,1,1075839968,45,82732,82732,65700,0,13032,0,0,0
