enable_time_secs=1682520038	enable_time_usecs=828542	siftrver=1.2.4	hz=100	tcp_rtt_scale=32	sysname=FreeBSD	sysver=1400084	ipmode=4
o,0x00000000,1682520038.828904,10.0.2.15,22,10.0.2.2,58411,1073725440,17202,1026,65535,65700,0,0,4,1460,1,0,4,24,33580,60,65700,0,0,0,0,0
i,0x00000000,1682520038.829611,10.0.2.15,22,10.0.2.2,58411,1073725440,17202,1026,65535,65700,0,0,4,1460,1,0,4,24,33580,60,65700,0,60,0,0,0
o,0x00000000,1682520038.829718,10.0.2.15,22,10.0.2.2,58411,1073725440,17262,1026,65535,65700,0,0,4,1460,1,0,4,24,33580,44,65700,0,0,0,0,0
i,0x00000000,1682520038.830758,10.0.2.15,22,10.0.2.2,58411,1073725440,17262,1026,65535,65700,0,0,4,1460,1,0,4,24,33580,44,65700,0,44,0,0,0
o,0x00000000,1682520038.830885,10.0.2.15,22,10.0.2.2,58411,1073725440,17306,1026,65535,65700,0,0,4,1460,1,0,4,24,33580,176,65700,0,0,0,0,0
i,0x00000000,1682520038.832686,10.0.2.15,22,10.0.2.2,58411,1073725440,17306,1026,65535,65700,0,0,4,1460,1,0,4,24,33580,176,65700,0,176,0,0,0
i,0x00000000,1682520038.832755,10.0.2.15,22,10.0.2.2,58411,1073725440,17482,1026,65535,65700,0,0,4,1460,1,0,4,24,33580,0,65700,0,0,0,0,0
i,0x00000000,1682520038.832896,10.0.2.15,22,10.0.2.2,58411,1073725440,17482,1026,65535,65700,0,0,4,1460,1,0,4,24,33580,0,65700,36,0,0,0,0
o,0x00000000,1682520038.832925,10.0.2.15,22,10.0.2.2,58411,1073725440,17482,1026,65535,65700,0,0,4,1460,1,0,5,24,33580,0,65700,96,0,0,0,0
i,0x00000000,1682520038.833073,10.0.2.15,22,10.0.2.2,58411,1073725440,17482,1026,65535,65700,0,0,4,1460,1,0,4,24,33580,0,65700,96,0,0,0,0
o,0x00000000,1682520038.833100,10.0.2.15,22,10.0.2.2,58411,1073725440,17482,1026,65535,65604,0,0,5,1460,1,0,7,24,33580,0,65700,96,0,0,0,0
o,0x00000000,1682520038.834354,10.0.2.15,22,10.0.2.2,58411,1073725440,17482,1026,65535,65604,0,0,8,1460,1,0,4,24,33580,0,65700,0,0,0,0,0
i,0x00000000,1682520038.835005,10.0.2.15,22,10.0.2.2,58411,1073725440,17482,1026,65535,65604,0,0,8,1460,1,0,67108884,24,33580,0,65700,0,1,0,0,0
i,0x00000000,1682520040.102769,10.0.2.15,22,10.0.2.2,58415,1073725440,14600,0,65535,65700,0,0,4,1460,1,0,0,27,33580,0,65700,0,0,0,0,0
o,0x00000000,1682520040.117015,10.0.2.15,22,10.0.2.2,58415,1073725440,14600,1026,65535,65700,0,0,4,1460,1,0,0,27,33580,38,65700,41,0,0,0,0
i,0x00000000,1682520040.117776,10.0.2.15,22,10.0.2.2,58415,1073725440,14600,1026,65535,65700,0,0,4,1460,1,0,0,27,33580,38,65700,0,38,0,0,0
i,0x00000000,1682520040.118883,10.0.2.15,22,10.0.2.2,58415,1073725440,14638,1026,65535,65700,0,0,4,1460,1,0,0,24,33580,0,65700,0,0,0,0,0
i,0x00000000,1682520040.118903,10.0.2.15,22,10.0.2.2,58415,1073725440,14638,1026,65535,65700,0,0,4,1460,1,0,0,24,33580,0,65700,1460,0,0,0,0
o,0x00000000,1682520040.118925,10.0.2.15,22,10.0.2.2,58415,1073725440,14638,1026,65535,65700,0,0,4,1460,1,0,1,24,33580,0,65700,1504,0,0,0,0
o,0x00000000,1682520040.120138,10.0.2.15,22,10.0.2.2,58415,1073725440,14638,1026,65535,65700,0,0,4,1460,1,0,0,24,33580,1056,65700,1504,0,0,0,0
i,0x00000000,1682520040.121069,10.0.2.15,22,10.0.2.2,58415,1073725440,14638,1026,65535,65700,0,0,4,1460,1,0,0,24,33580,1056,65700,0,1056,0,0,0
i,0x00000000,1682520040.123537,10.0.2.15,22,10.0.2.2,58415,1073725440,15694,1026,65535,65700,0,0,4,1460,1,0,0,24,33580,0,65700,0,0,0,0,0
o,0x00000000,1682520040.127504,10.0.2.15,22,10.0.2.2,58415,1073725440,15694,1026,65535,65700,0,0,4,1460,1,0,0,24,33580,484,65700,0,0,0,0,0
i,0x00000000,1682520040.128797,10.0.2.15,22,10.0.2.2,58415,1073725440,15694,1026,65535,65700,0,0,4,1460,1,0,0,24,33580,484,65700,0,484,0,0,0
i,0x00000000,1682520040.140480,10.0.2.15,22,10.0.2.2,58415,1073725440,16178,1026,65535,65700,0,0,4,1460,1,0,0,24,33580,0,65700,0,0,0,0,0
i,0x00000000,1682520040.158768,10.0.2.15,22,10.0.2.2,58415,1073725440,16178,1026,65535,65700,0,0,4,1460,1,0,0,24,33580,0,65700,0,0,0,0,0
o,0x00000000,1682520040.159044,10.0.2.15,22,10.0.2.2,58415,1073725440,16178,1026,65535,65700,0,0,4,1460,1,0,1,24,33580,0,65700,44,0,0,0,0
o,0x00000000,1682520040.159322,10.0.2.15,22,10.0.2.2,58415,1073725440,16178,1026,65535,65700,0,0,4,1460,1,0,0,24,33580,44,65700,0,0,0,0,0
i,0x00000000,1682520040.159995,10.0.2.15,22,10.0.2.2,58415,1073725440,16178,1026,65535,65700,0,0,4,1460,1,0,0,24,33580,44,65700,0,44,0,0,0
i,0x00000000,1682520040.160698,10.0.2.15,22,10.0.2.2,58415,1073725440,16222,1026,65535,65700,0,0,4,1460,1,0,0,24,33580,0,65700,0,0,0,0,0
o,0x00000000,1682520040.166407,10.0.2.15,22,10.0.2.2,58415,1073725440,16222,1026,65535,65700,0,0,4,1460,1,0,0,24,33580,68,65700,0,0,0,0,0
i,0x00000000,1682520040.167903,10.0.2.15,22,10.0.2.2,58415,1073725440,16222,1026,65535,65700,0,0,4,1460,1,0,0,24,33580,68,65700,0,68,0,0,0
i,0x00000000,1682520040.171760,10.0.2.15,22,10.0.2.2,58415,1073725440,16290,1026,65535,65700,0,0,4,1460,1,0,0,24,33580,0,65700,0,0,0,0,0
o,0x00000000,1682520040.178117,10.0.2.15,22,10.0.2.2,58415,1073725440,16290,1026,65535,65700,0,0,4,1460,1,0,0,24,33580,28,65700,0,0,0,0,0
i,0x00000000,1682520040.179628,10.0.2.15,22,10.0.2.2,58415,1073725440,16290,1026,65535,65700,0,0,4,1460,1,0,0,24,33580,28,65700,0,28,0,0,0
i,0x00000000,1682520040.180415,10.0.2.15,22,10.0.2.2,58415,1073725440,16318,1026,65535,65700,0,0,4,1460,1,0,0,24,33580,0,65700,0,0,0,0,0
o,0x00000000,1682520040.181865,10.0.2.15,22,10.0.2.2,58415,1073725440,16318,1026,65535,65700,0,0,4,1460,1,0,0,24,33580,768,65700,112,0,0,0,0
i,0x00000000,1682520040.182980,10.0.2.15,22,10.0.2.2,58415,1073725440,16318,1026,65535,65700,0,0,4,1460,1,0,0,24,33580,812,65700,0,768,0,0,0
o,0x00000000,1682520040.183013,10.0.2.15,22,10.0.2.2,58415,1073725440,17086,1026,65535,65700,0,0,4,1460,1,0,0,24,33580,44,65700,0,0,0,0,0
i,0x00000000,1682520040.185128,10.0.2.15,22,10.0.2.2,58415,1073725440,17086,1026,65535,65700,0,0,4,1460,1,0,0,24,33580,44,65700,0,44,0,0,0
i,0x00000000,1682520040.186468,10.0.2.15,22,10.0.2.2,58415,1073725440,17130,1026,65535,65700,0,0,4,1460,1,0,0,24,33580,0,65700,0,0,0,0,0
o,0x00000000,1682520040.188003,10.0.2.15,22,10.0.2.2,58415,1073725440,17130,1026,65535,65700,0,0,4,1460,1,0,4,24,33580,72,65700,0,0,0,0,0
i,0x00000000,1682520040.189744,10.0.2.15,22,10.0.2.2,58415,1073725440,17130,1026,65535,65700,0,0,4,1460,1,0,4,24,33580,72,65700,0,72,0,0,0
i,0x00000000,1682520040.189794,10.0.2.15,22,10.0.2.2,58415,1073725440,17202,1026,65535,65700,0,0,4,1460,1,0,4,24,33580,0,65700,0,0,0,0,0
o,0x00000000,1682520040.217868,172.16.1.2,61139,172.16.3.2,5101,1073725440,1073725440,2,0,0,0,0,2,536,0,1,672,100,32768,0,65536,0,0,0,0,0
o,0x00000000,1682520040.228959,10.0.2.15,22,10.0.2.2,58415,1073725440,17202,1026,65535,65700,0,0,4,1460,1,0,5,24,33580,0,65700,0,0,0,0,0
i,0x00000000,1682520040.342517,172.16.1.2,61139,172.16.3.2,5101,1073725440,1073725440,2,0,0,0,0,2,536,0,1,672,100,32768,0,65536,0,1,0,0,0
o,0x00000000,1682520040.342673,172.16.1.2,61139,172.16.3.2,5101,17196,14480,2,65535,65700,6,6,4,1460,524,1,993,59,33580,0,65700,0,0,0,0,0
o,0x00000000,1682520040.343091,172.16.1.2,61139,172.16.3.2,5101,17196,14480,2,65535,65700,6,6,4,1460,524,1,996,59,33580,37,65700,0,0,0,0,0
i,0x00000000,1682520040.479433,172.16.1.2,61139,172.16.3.2,5101,17196,14480,2,65535,65700,6,6,4,1460,524,1,996,59,33580,37,65700,0,37,0,0,0
o,0x00000000,1682520040.480334,172.16.1.2,61139,172.16.3.2,5101,17196,14517,1026,65728,65728,6,6,4,1460,515,1,996,55,33580,4,65700,0,0,0,0,0
o,0x00000000,1682520040.480916,172.16.1.2,61139,172.16.3.2,5101,17196,14517,1026,65728,65728,6,6,4,1460,515,1,996,55,33580,128,65700,0,4,0,0,0
i,0x00000000,1682520040.592900,172.16.1.2,61139,172.16.3.2,5101,17196,14517,1026,65728,65728,6,6,4,1460,515,1,996,55,33580,128,65700,0,128,0,0,0
i,0x00000000,1682520040.592923,172.16.1.2,61139,172.16.3.2,5101,17196,14645,1026,65600,65728,6,6,4,1460,495,1,996,55,33580,0,65700,0,0,0,0,0
o,0x00000000,1682520040.594643,172.16.1.2,60529,172.16.3.2,5101,1073725440,1073725440,2,0,0,0,0,2,536,0,1,672,100,32768,0,65536,0,0,0,0,0
o,0x00000000,1682520040.643945,172.16.1.2,61139,172.16.3.2,5101,17196,14645,1026,65728,65728,6,6,4,1460,495,1,997,55,33580,0,65700,0,0,0,0,0
i,0x00000000,1682520040.708238,172.16.1.2,60529,172.16.3.2,5101,1073725440,1073725440,2,0,0,0,0,2,536,0,1,672,100,32768,0,65536,0,1,0,0,0
o,0x00000000,1682520040.708326,172.16.1.2,60529,172.16.3.2,5101,17196,14480,2,65535,65700,6,6,4,1460,520,1,993,60,33580,0,65700,0,0,0,0,0
o,0x00000000,1682520040.708762,172.16.1.2,60529,172.16.3.2,5101,17196,14480,2,65535,65700,6,6,4,1460,520,1,992,60,33580,37,65700,0,0,0,0,0
i,0x00000000,1682520040.830357,172.16.1.2,61139,172.16.3.2,5101,17196,14645,1026,65728,65728,6,6,4,1460,495,1,996,55,33580,0,65700,0,0,0,0,0
i,0x00000000,1682520040.830404,172.16.1.2,61139,172.16.3.2,5101,17196,14645,1026,65728,65728,6,6,4,1460,495,1,996,55,33580,0,65700,1,0,0,0,0
o,0x00000000,1682520040.830424,172.16.1.2,61139,172.16.3.2,5101,17196,14645,1026,65728,65728,6,6,4,1460,495,1,997,55,33580,0,65700,2,0,0,0,0
o,0x00000000,1682520040.830689,172.16.1.2,60529,172.16.3.2,5101,17196,14480,6,65535,65700,6,6,4,1460,520,1,992,60,33580,33580,65700,0,37,0,0,0
o,0x00000000,1682520040.830793,172.16.1.2,60529,172.16.3.2,5101,17196,14480,6,65535,65700,6,6,4,1460,520,1,992,60,33580,33580,65700,0,1485,0,0,0
o,0x00000000,1682520040.830902,172.16.1.2,60529,172.16.3.2,5101,17196,14480,6,65535,65700,6,6,4,1460,520,1,992,60,33580,33580,65700,0,2933,0,0,0
o,0x00000000,1682520040.831009,172.16.1.2,60529,172.16.3.2,5101,17196,14480,6,65535,65700,6,6,4,1460,520,1,992,60,33580,33580,65700,0,4381,0,0,0
o,0x00000000,1682520040.831123,172.16.1.2,60529,172.16.3.2,5101,17196,14480,6,65535,65700,6,6,4,1460,520,1,992,60,33580,33580,65700,0,5829,0,0,0
o,0x00000000,1682520040.831218,172.16.1.2,60529,172.16.3.2,5101,17196,14480,6,65535,65700,6,6,4,1460,520,1,992,60,33580,33580,65700,0,7277,0,0,0
o,0x00000000,1682520040.831331,172.16.1.2,60529,172.16.3.2,5101,17196,14480,6,65535,65700,6,6,4,1460,520,1,992,60,33580,33580,65700,0,8725,0,0,0
o,0x00000000,1682520040.831444,172.16.1.2,60529,172.16.3.2,5101,17196,14480,6,65535,65700,6,6,4,1460,520,1,992,60,33580,33580,65700,0,10173,0,0,0
o,0x00000000,1682520040.831616,172.16.1.2,60529,172.16.3.2,5101,17196,14480,6,65535,65700,6,6,4,1460,520,1,992,60,33580,33580,65700,0,11621,0,0,0
i,0x00000000,1682520040.860793,172.16.1.2,60529,172.16.3.2,5101,17196,14480,6,65535,65700,6,6,4,1460,520,1,992,60,33580,33580,65700,0,13069,0,0,0
o,0x00000000,1682520040.860831,172.16.1.2,60529,172.16.3.2,5101,17196,14517,6,65728,65728,6,6,4,1460,515,1,992,55,33580,33543,65700,0,13032,0,0,0
i,0x00000000,1682520041.140872,172.16.1.2,60529,172.16.3.2,5101,17196,14517,6,65728,65728,6,6,4,1460,515,1,992,55,33580,33543,65700,0,14480,0,0,0
o,0x00000000,1682520041.140909,172.16.1.2,60529,172.16.3.2,5101,17196,17413,6,64256,65728,6,6,4,1460,575,1,992,67,33580,30647,65700,0,11584,0,0,0
o,0x00000000,1682520041.141038,172.16.1.2,60529,172.16.3.2,5101,17196,17413,6,64256,65728,6,6,4,1460,575,1,992,67,33580,30647,65700,0,13032,0,0,0
o,0x00000000,1682520041.141171,172.16.1.2,60529,172.16.3.2,5101,17196,17413,6,64256,65728,6,6,4,1460,575,1,992,67,41772,30647,65700,0,14480,0,0,0
o,0x00000000,1682520041.141312,172.16.1.2,60529,172.16.3.2,5101,17196,17413,6,64256,65728,6,6,4,1460,575,1,992,67,41772,30647,65700,0,15928,0,0,0
i,0x00000000,1682520041.152637,172.16.1.2,60529,172.16.3.2,5101,17196,17413,6,64256,65728,6,6,4,1460,575,1,992,67,41772,41772,65700,0,17376,0,0,0
o,0x00000000,1682520041.152798,172.16.1.2,60529,172.16.3.2,5101,17196,20309,6,64256,65728,6,6,4,1460,632,1,992,76,41772,38876,65700,0,14480,0,0,0
o,0x00000000,1682520041.153544,172.16.1.2,60529,172.16.3.2,5101,17196,20309,6,64256,65728,6,6,4,1460,632,1,992,76,41772,38876,65700,0,15928,0,0,0
o,0x00000000,1682520041.154155,172.16.1.2,60529,172.16.3.2,5101,17196,20309,6,64256,65728,6,6,4,1460,632,1,992,76,41772,38876,65700,0,17376,0,0,0
o,0x00000000,1682520041.154851,172.16.1.2,60529,172.16.3.2,5101,17196,20309,6,64256,65728,6,6,4,1460,632,1,992,76,49964,38876,65700,0,18824,0,0,0
i,0x00000000,1682520041.155438,172.16.1.2,60529,172.16.3.2,5101,17196,20309,6,64256,65728,6,6,4,1460,632,1,992,76,49964,38876,65700,0,20272,0,0,0
o,0x00000000,1682520041.155546,172.16.1.2,60529,172.16.3.2,5101,17196,23205,6,64256,65728,6,6,4,1460,681,1,992,81,49964,35980,65700,0,17376,0,0,0
o,0x00000000,1682520041.156144,172.16.1.2,60529,172.16.3.2,5101,17196,23205,6,64256,65728,6,6,4,1460,681,1,992,81,49964,35980,65700,0,18824,0,0,0
o,0x00000000,1682520041.157596,172.16.1.2,60529,172.16.3.2,5101,17196,23205,6,64256,65728,6,6,4,1460,681,1,992,81,49964,35980,65700,0,20272,0,0,0
o,0x00000000,1682520041.158253,172.16.1.2,60529,172.16.3.2,5101,17196,23205,6,64256,65728,6,6,4,1460,681,1,992,81,49964,35980,65700,0,21720,0,0,0
i,0x00000000,1682520041.158395,172.16.1.2,60529,172.16.3.2,5101,17196,23205,6,64256,65728,6,6,4,1460,681,1,992,81,49964,35980,65700,0,23168,0,0,0
o,0x00000000,1682520041.158395,172.16.1.2,60529,172.16.3.2,5101,17196,26101,6,64256,65728,6,6,4,1460,728,1,992,84,49964,33084,65700,0,20272,0,0,0
o,0x00000000,1682520041.160219,172.16.1.2,60529,172.16.3.2,5101,17196,26101,6,64256,65728,6,6,4,1460,728,1,992,84,49964,33084,65700,0,21720,0,0,0
o,0x00000000,1682520041.160816,172.16.1.2,60529,172.16.3.2,5101,17196,26101,6,64256,65728,6,6,4,1460,728,1,992,84,49964,33084,65700,0,23168,0,0,0
o,0x00000000,1682520041.161502,172.16.1.2,60529,172.16.3.2,5101,17196,26101,6,64256,65728,6,6,4,1460,728,1,992,84,49964,33084,65700,0,24616,0,0,0
i,0x00000000,1682520041.211379,172.16.1.2,60529,172.16.3.2,5101,17196,26101,6,64256,65728,6,6,4,1460,728,1,992,84,58156,58156,65700,0,26064,0,0,0
o,0x00000000,1682520041.211432,172.16.1.2,60529,172.16.3.2,5101,17196,27549,6,65728,65728,6,6,4,1460,789,1,992,91,58156,56708,65700,0,24616,0,0,0
o,0x00000000,1682520041.211660,172.16.1.2,60529,172.16.3.2,5101,17196,27549,6,65728,65728,6,6,4,1460,789,1,992,91,58156,56708,65700,0,26064,0,0,0
i,0x00000000,1682520041.481095,172.16.1.2,60529,172.16.3.2,5101,17196,27549,6,65728,65728,6,6,4,1460,789,1,992,91,58156,56708,65700,0,27512,0,0,0
o,0x00000000,1682520041.481095,172.16.1.2,60529,172.16.3.2,5101,17196,27549,6,65728,65728,6,6,4,1460,939,1,992,122,58156,55260,65700,0,26064,0,0,0
i,0x00000000,1682520041.634578,172.16.1.2,60529,172.16.3.2,5101,17196,27549,6,65728,65728,6,6,4,1460,939,1,992,122,58156,58156,65700,0,27512,0,0,0
o,0x00000000,1682520041.634663,172.16.1.2,60529,172.16.3.2,5101,17196,27549,6,64256,65728,6,6,4,1460,1018,1,992,126,58156,52364,65700,0,21720,0,0,0
o,0x00000000,1682520041.635165,172.16.1.2,60529,172.16.3.2,5101,17196,27549,6,64256,65728,6,6,4,1460,1018,1,992,126,58156,52364,65700,0,23168,0,0,0
o,0x00000000,1682520041.635590,172.16.1.2,60529,172.16.3.2,5101,17196,27549,6,64256,65728,6,6,4,1460,1018,1,992,126,58156,52364,65700,0,24616,0,0,0
o,0x00000000,1682520041.636019,172.16.1.2,60529,172.16.3.2,5101,17196,27549,6,64256,65728,6,6,4,1460,1018,1,992,126,66348,52364,65700,0,26064,0,0,0
i,0x00000000,1682520041.636391,172.16.1.2,60529,172.16.3.2,5101,17196,27549,6,64256,65728,6,6,4,1460,1018,1,992,126,66348,52364,65700,0,27512,0,0,0
o,0x00000000,1682520041.636457,172.16.1.2,60529,172.16.3.2,5101,17196,27549,6,64256,65728,6,6,4,1460,1083,1,992,126,66348,49468,65700,0,24616,0,0,0
o,0x00000000,1682520041.637430,172.16.1.2,60529,172.16.3.2,5101,17196,27549,6,64256,65728,6,6,4,1460,1083,1,992,126,66348,49468,65700,0,26064,0,0,0
i,0x00000000,1682520041.637805,172.16.1.2,60529,172.16.3.2,5101,17196,27549,6,64256,65728,6,6,4,1460,1083,1,992,126,66348,49468,65700,0,27512,0,0,0
o,0x00000000,1682520041.637877,172.16.1.2,60529,172.16.3.2,5101,17196,27549,6,64256,65728,6,6,4,1460,1140,1,992,124,66348,46572,65700,0,24616,0,0,0
o,0x00000000,1682520041.638285,172.16.1.2,60529,172.16.3.2,5101,17196,27549,6,64256,65728,6,6,4,1460,1140,1,992,124,66348,46572,65700,0,26064,0,0,0
i,0x00000000,1682520041.660845,172.16.1.2,60529,172.16.3.2,5101,17196,27549,6,64256,65728,6,6,4,1460,1140,1,992,124,66348,66348,65700,0,27512,0,0,0
o,0x00000000,1682520041.660941,172.16.1.2,60529,172.16.3.2,5101,17196,27549,6,64256,65728,6,6,4,1460,1198,1,992,123,66348,63452,65700,0,24616,0,0,0
o,0x00000000,1682520041.661043,172.16.1.2,60529,172.16.3.2,5101,17196,27549,6,64256,65728,6,6,4,1460,1198,1,992,123,66348,63452,65700,0,26064,0,0,0
i,0x00000000,1682520041.661145,172.16.1.2,60529,172.16.3.2,5101,17196,27549,6,64256,65728,6,6,4,1460,1198,1,992,123,66348,63452,65700,0,27512,0,0,0
o,0x00000000,1682520041.661167,172.16.1.2,60529,172.16.3.2,5101,17196,27549,6,64256,65728,6,6,4,1460,1249,1,992,121,66348,60556,65700,0,24616,0,0,0
o,0x00000000,1682520041.661261,172.16.1.2,60529,172.16.3.2,5101,17196,27549,6,64256,65728,6,6,4,1460,1249,1,992,121,66348,60556,65700,0,26064,0,0,0
i,0x00000000,1682520041.661654,172.16.1.2,60529,172.16.3.2,5101,17196,27549,6,64256,65728,6,6,4,1460,1249,1,992,121,66348,60556,65700,0,27512,0,0,0
o,0x00000000,1682520041.661747,172.16.1.2,60529,172.16.3.2,5101,17196,27549,6,64256,65728,6,6,4,1460,1293,1,992,118,66348,57660,65700,0,24616,0,0,0
o,0x00000000,1682520041.662147,172.16.1.2,60529,172.16.3.2,5101,17196,27549,6,64256,65728,6,6,4,1460,1293,1,992,118,66348,57660,65700,0,26064,0,0,0
i,0x00000000,1682520041.662545,172.16.1.2,60529,172.16.3.2,5101,17196,27549,6,64256,65728,6,6,4,1460,1293,1,992,118,66348,57660,65700,0,27512,0,0,0
o,0x00000000,1682520041.662620,172.16.1.2,60529,172.16.3.2,5101,17196,27549,6,64256,65728,6,6,4,1460,1332,1,992,114,66348,54764,65700,0,24616,0,0,0
o,0x00000000,1682520041.662791,172.16.1.2,60529,172.16.3.2,5101,17196,27549,6,64256,65728,6,6,4,1460,1332,1,992,114,66348,54764,65700,0,26064,0,0,0
i,0x00000000,1682520041.663286,172.16.1.2,60529,172.16.3.2,5101,17196,27549,6,64256,65728,6,6,4,1460,1332,1,992,114,66348,54764,65700,0,27512,0,0,0
o,0x00000000,1682520041.663321,172.16.1.2,60529,172.16.3.2,5101,17196,27549,6,62848,65728,6,6,4,1460,1346,1,992,105,66348,51868,65700,0,24616,0,0,0
o,0x00000000,1682520041.663517,172.16.1.2,60529,172.16.3.2,5101,17196,27549,6,62848,65728,6,6,4,1460,1346,1,992,105,66348,51868,65700,0,26064,0,0,0
i,0x00000000,1682520042.091240,172.16.1.2,60529,172.16.3.2,5101,17196,27549,6,62848,65728,6,6,4,1460,1346,1,992,105,66348,66348,65700,0,27512,0,0,0
o,0x00000000,1682520042.091477,172.16.1.2,60529,172.16.3.2,5101,17196,27549,6,65728,65728,6,6,4,1460,1422,1,992,116,66348,64900,65700,0,26064,0,0,0
i,0x00000000,1682520042.121351,172.16.1.2,60529,172.16.3.2,5101,17196,27549,6,65728,65728,6,6,4,1460,1422,1,992,116,66348,64900,65700,0,27512,0,0,0
o,0x00000000,1682520042.121488,172.16.1.2,60529,172.16.3.2,5101,17196,27549,6,64256,65728,6,6,4,1460,1441,1,992,108,66348,62004,65700,0,24616,0,0,0
o,0x00000000,1682520042.121763,172.16.1.2,60529,172.16.3.2,5101,17196,27549,6,64256,65728,6,6,4,1460,1441,1,992,108,66348,62004,65700,0,26064,0,0,0
i,0x00000000,1682520042.121915,172.16.1.2,60529,172.16.3.2,5101,17196,27549,6,64256,65728,6,6,4,1460,1441,1,992,108,66348,62004,65700,0,27512,0,0,0
o,0x00000000,1682520042.121939,172.16.1.2,60529,172.16.3.2,5101,17196,27549,6,64256,65728,6,6,4,1460,1457,1,992,102,66348,59108,65700,0,24616,0,0,0
o,0x00000000,1682520042.122062,172.16.1.2,60529,172.16.3.2,5101,17196,27549,6,64256,65728,6,6,4,1460,1457,1,992,102,66348,59108,65700,0,26064,0,0,0
i,0x00000000,1682520042.122166,172.16.1.2,60529,172.16.3.2,5101,17196,27549,6,64256,65728,6,6,4,1460,1457,1,992,102,66348,59108,65700,0,27512,0,0,0
o,0x00000000,1682520042.122189,172.16.1.2,60529,172.16.3.2,5101,17196,27549,6,64256,65728,6,6,4,1460,1471,1,992,97,66348,56212,65700,0,24616,0,0,0
o,0x00000000,1682520042.122346,172.16.1.2,60529,172.16.3.2,5101,17196,27549,6,64256,65728,6,6,4,1460,1471,1,992,97,66348,56212,65700,0,26064,0,0,0
i,0x00000000,1682520042.122462,172.16.1.2,60529,172.16.3.2,5101,17196,27549,6,64256,65728,6,6,4,1460,1471,1,992,97,66348,56212,65700,0,27512,0,0,0
o,0x00000000,1682520042.122487,172.16.1.2,60529,172.16.3.2,5101,17196,27549,6,64256,65728,6,6,4,1460,1480,1,992,92,66348,53316,65700,0,24616,0,0,0
o,0x00000000,1682520042.122587,172.16.1.2,60529,172.16.3.2,5101,17196,27549,6,64256,65728,6,6,4,1460,1480,1,992,92,66348,53316,65700,0,26064,0,0,0
i,0x00000000,1682520042.122767,172.16.1.2,60529,172.16.3.2,5101,17196,27549,6,64256,65728,6,6,4,1460,1480,1,992,92,66348,53316,65700,0,27512,0,0,0
o,0x00000000,1682520042.122788,172.16.1.2,60529,172.16.3.2,5101,17196,27549,6,64256,65728,6,6,4,1460,1479,1,992,85,66348,50420,65700,0,24616,0,0,0
o,0x00000000,1682520042.122899,172.16.1.2,60529,172.16.3.2,5101,17196,27549,6,64256,65728,6,6,4,1460,1479,1,992,85,66348,50420,65700,0,26064,0,0,0
i,0x00000000,1682520042.122989,172.16.1.2,60529,172.16.3.2,5101,17196,27549,6,64256,65728,6,6,4,1460,1479,1,992,85,66348,50420,65700,0,27512,0,0,0
o,0x00000000,1682520042.123009,172.16.1.2,60529,172.16.3.2,5101,17196,27549,6,64256,65728,6,6,4,1460,1479,1,992,81,66348,47524,65700,0,24616,0,0,0
o,0x00000000,1682520042.123334,172.16.1.2,60529,172.16.3.2,5101,17196,27549,6,64256,65728,6,6,4,1460,1479,1,992,81,66348,47524,65700,0,26064,0,0,0
i,0x00000000,1682520042.123466,172.16.1.2,60529,172.16.3.2,5101,17196,27549,6,64256,65728,6,6,4,1460,1479,1,992,81,66348,47524,65700,0,27512,0,0,0
o,0x00000000,1682520042.123490,172.16.1.2,60529,172.16.3.2,5101,17196,27549,6,64256,65728,6,6,4,1460,1479,1,992,77,66348,44628,65700,0,24616,0,0,0
o,0x00000000,1682520042.123586,172.16.1.2,60529,172.16.3.2,5101,17196,27549,6,64256,65728,6,6,4,1460,1479,1,992,77,66348,44628,65700,0,26064,0,0,0
i,0x00000000,1682520042.123744,172.16.1.2,60529,172.16.3.2,5101,17196,27549,6,64256,65728,6,6,4,1460,1479,1,992,77,66348,44628,65700,0,27512,0,0,0
o,0x00000000,1682520042.123767,172.16.1.2,60529,172.16.3.2,5101,17196,27549,6,64256,65728,6,6,4,1460,1479,1,992,74,66348,41732,65700,0,24616,0,0,0
o,0x00000000,1682520042.123890,172.16.1.2,60529,172.16.3.2,5101,17196,27549,6,64256,65728,6,6,4,1460,1479,1,992,74,66348,41732,65700,0,26064,0,0,0
i,0x00000000,1682520042.212835,172.16.1.2,60529,172.16.3.2,5101,17196,27549,6,64256,65728,6,6,4,1460,1479,1,992,74,66348,65912,65700,0,27512,0,0,0
o,0x00000000,1682520042.213030,172.16.1.2,60529,172.16.3.2,5101,17196,27549,6,64256,65728,6,6,4,1460,1515,1,992,82,66348,63016,65700,0,24616,0,0,0
o,0x00000000,1682520042.213395,172.16.1.2,60529,172.16.3.2,5101,17196,27549,6,64256,65728,6,6,4,1460,1515,1,992,82,66348,63016,65700,0,26064,0,0,0
i,0x00000000,1682520042.590945,172.16.1.2,60529,172.16.3.2,5101,17196,27549,6,64256,65728,6,6,4,1460,1515,1,992,82,66348,66348,65700,0,27512,0,0,0
o,0x00000000,1682520042.591025,172.16.1.2,60529,172.16.3.2,5101,17196,27549,6,64256,65728,6,6,4,1460,1522,1,992,81,66348,63452,65700,0,24616,0,0,0
o,0x00000000,1682520042.591823,172.16.1.2,60529,172.16.3.2,5101,17196,27549,6,64256,65728,6,6,4,1460,1522,1,992,81,66348,63452,65700,0,26064,0,0,0
i,0x00000000,1682520042.593246,172.16.1.2,60529,172.16.3.2,5101,17196,27549,6,64256,65728,6,6,4,1460,1522,1,992,81,66348,63452,65700,0,27512,0,0,0
o,0x00000000,1682520042.593357,172.16.1.2,60529,172.16.3.2,5101,17196,27549,6,64256,65728,6,6,4,1460,1516,1,992,79,66348,60556,65700,0,24616,0,0,0
o,0x00000000,1682520042.593992,172.16.1.2,60529,172.16.3.2,5101,17196,27549,6,64256,65728,6,6,4,1460,1516,1,992,79,66348,60556,65700,0,26064,0,0,0
i,0x00000000,1682520042.594594,172.16.1.2,60529,172.16.3.2,5101,17196,27549,6,64256,65728,6,6,4,1460,1516,1,992,79,66348,60556,65700,0,27512,0,0,0
o,0x00000000,1682520042.594700,172.16.1.2,60529,172.16.3.2,5101,17196,27549,6,64256,65728,6,6,4,1460,1511,1,992,77,66348,57660,65700,0,24616,0,0,0
o,0x00000000,1682520042.595390,172.16.1.2,60529,172.16.3.2,5101,17196,27549,6,64256,65728,6,6,4,1460,1511,1,992,77,66348,57660,65700,0,26064,0,0,0
i,0x00000000,1682520042.618821,172.16.1.2,60529,172.16.3.2,5101,17196,27549,6,64256,65728,6,6,4,1460,1511,1,992,77,66348,66348,65700,0,27512,0,0,0
o,0x00000000,1682520042.618905,172.16.1.2,60529,172.16.3.2,5101,17196,27549,6,64256,65728,6,6,4,1460,1519,1,992,77,66348,63452,65700,0,24616,0,0,0
o,0x00000000,1682520042.618972,172.16.1.2,60529,172.16.3.2,5101,17196,27549,6,64256,65728,6,6,4,1460,1519,1,992,77,66348,63452,65700,0,26064,0,0,0
i,0x00000000,1682520042.618972,172.16.1.2,60529,172.16.3.2,5101,17196,27549,6,64256,65728,6,6,4,1460,1519,1,992,77,66348,63452,65700,0,27512,0,0,0
o,0x00000000,1682520042.618972,172.16.1.2,60529,172.16.3.2,5101,17196,27549,6,64256,65728,6,6,4,1460,1526,1,992,76,66348,60556,65700,0,24616,0,0,0
o,0x00000000,1682520042.619818,172.16.1.2,60529,172.16.3.2,5101,17196,27549,6,64256,65728,6,6,4,1460,1526,1,992,76,66348,60556,65700,0,26064,0,0,0
i,0x00000000,1682520042.620155,172.16.1.2,60529,172.16.3.2,5101,17196,27549,6,64256,65728,6,6,4,1460,1526,1,992,76,66348,60556,65700,0,27512,0,0,0
o,0x00000000,1682520042.620212,172.16.1.2,60529,172.16.3.2,5101,17196,27549,6,64256,65728,6,6,4,1460,1532,1,992,76,66348,57660,65700,0,24616,0,0,0
o,0x00000000,1682520042.620565,172.16.1.2,60529,172.16.3.2,5101,17196,27549,6,64256,65728,6,6,4,1460,1532,1,992,76,66348,57660,65700,0,26064,0,0,0
i,0x00000000,1682520042.621055,172.16.1.2,60529,172.16.3.2,5101,17196,27549,6,64256,65728,6,6,4,1460,1532,1,992,76,66348,57660,65700,0,27512,0,0,0
o,0x00000000,1682520042.621120,172.16.1.2,60529,172.16.3.2,5101,17196,27549,6,64256,65728,6,6,4,1460,1537,1,992,75,66348,54764,65700,0,24616,0,0,0
o,0x00000000,1682520042.621499,172.16.1.2,60529,172.16.3.2,5101,17196,27549,6,64256,65728,6,6,4,1460,1537,1,992,75,66348,54764,65700,0,26064,0,0,0
i,0x00000000,1682520042.681293,172.16.1.2,60529,172.16.3.2,5101,17196,27549,6,64256,65728,6,6,4,1460,1537,1,992,75,66348,66348,65700,0,27512,0,0,0
o,0x00000000,1682520042.681420,172.16.1.2,60529,172.16.3.2,5101,17196,27549,6,64256,65728,6,6,4,1460,1565,1,992,81,66348,60556,65700,0,21720,0,0,0
o,0x00000000,1682520042.681633,172.16.1.2,60529,172.16.3.2,5101,17196,27549,6,64256,65728,6,6,4,1460,1565,1,992,81,66348,60556,65700,0,23168,0,0,0
o,0x00000000,1682520042.681752,172.16.1.2,60529,172.16.3.2,5101,17196,27549,6,64256,65728,6,6,4,1460,1565,1,992,81,66348,60556,65700,0,24616,0,0,0
o,0x00000000,1682520042.681864,172.16.1.2,60529,172.16.3.2,5101,17196,27549,6,64256,65728,6,6,4,1460,1565,1,992,81,66348,60556,65700,0,26064,0,0,0
i,0x00000000,1682520042.992507,172.16.1.2,60529,172.16.3.2,5101,17196,27549,6,64256,65728,6,6,4,1460,1565,1,992,81,66348,66348,65700,0,27512,0,0,0
o,0x00000000,1682520042.992548,172.16.1.2,60529,172.16.3.2,5101,17196,27549,6,65728,65728,6,6,4,1460,1682,1,992,111,66348,64900,65700,0,26064,0,0,0
i,0x00000000,1682520043.043004,172.16.1.2,60529,172.16.3.2,5101,17196,27549,6,65728,65728,6,6,4,1460,1682,1,992,111,66348,64900,65700,0,27512,0,0,0
o,0x00000000,1682520043.043029,172.16.1.2,60529,172.16.3.2,5101,17196,27549,6,64256,65728,6,6,4,1460,1652,1,992,108,66348,62004,65700,0,24616,0,0,0
o,0x00000000,1682520043.043355,172.16.1.2,60529,172.16.3.2,5101,17196,27549,6,64256,65728,6,6,4,1460,1652,1,992,108,66348,62004,65700,0,26064,0,0,0
i,0x00000000,1682520043.043729,172.16.1.2,60529,172.16.3.2,5101,17196,27549,6,64256,65728,6,6,4,1460,1652,1,992,108,66348,62004,65700,0,27512,0,0,0
o,0x00000000,1682520043.043791,172.16.1.2,60529,172.16.3.2,5101,17196,27549,6,64256,65728,6,6,4,1460,1626,1,992,105,66348,59108,65700,0,24616,0,0,0
o,0x00000000,1682520043.044285,172.16.1.2,60529,172.16.3.2,5101,17196,27549,6,64256,65728,6,6,4,1460,1626,1,992,105,66348,59108,65700,0,26064,0,0,0
i,0x00000000,1682520043.044618,172.16.1.2,60529,172.16.3.2,5101,17196,27549,6,64256,65728,6,6,4,1460,1626,1,992,105,66348,59108,65700,0,27512,0,0,0
o,0x00000000,1682520043.044691,172.16.1.2,60529,172.16.3.2,5101,17196,27549,6,64256,65728,6,6,4,1460,1603,1,992,101,66348,56212,65700,0,24616,0,0,0
o,0x00000000,1682520043.045049,172.16.1.2,60529,172.16.3.2,5101,17196,27549,6,64256,65728,6,6,4,1460,1603,1,992,101,66348,56212,65700,0,26064,0,0,0
i,0x00000000,1682520043.062953,172.16.1.2,60529,172.16.3.2,5101,17196,27549,6,64256,65728,6,6,4,1460,1603,1,992,101,66348,66348,65700,0,27512,0,0,0
o,0x00000000,1682520043.063120,172.16.1.2,60529,172.16.3.2,5101,17196,27549,6,64256,65728,6,6,4,1460,1579,1,992,99,66348,63452,65700,0,24616,0,0,0
o,0x00000000,1682520043.063790,172.16.1.2,60529,172.16.3.2,5101,17196,27549,6,64256,65728,6,6,4,1460,1579,1,992,99,66348,63452,65700,0,26064,0,0,0
i,0x00000000,1682520043.064045,172.16.1.2,60529,172.16.3.2,5101,17196,27549,6,64256,65728,6,6,4,1460,1579,1,992,99,66348,63452,65700,0,27512,0,0,0
o,0x00000000,1682520043.064074,172.16.1.2,60529,172.16.3.2,5101,17196,27549,6,64256,65728,6,6,4,1460,1558,1,992,96,66348,60556,65700,0,24616,0,0,0
o,0x00000000,1682520043.064179,172.16.1.2,60529,172.16.3.2,5101,17196,27549,6,64256,65728,6,6,4,1460,1558,1,992,96,66348,60556,65700,0,26064,0,0,0
i,0x00000000,1682520043.064278,172.16.1.2,60529,172.16.3.2,5101,17196,27549,6,64256,65728,6,6,4,1460,1558,1,992,96,66348,60556,65700,0,27512,0,0,0
o,0x00000000,1682520043.064301,172.16.1.2,60529,172.16.3.2,5101,17196,27549,6,64256,65728,6,6,4,1460,1540,1,992,93,66348,57660,65700,0,24616,0,0,0
o,0x00000000,1682520043.064399,172.16.1.2,60529,172.16.3.2,5101,17196,27549,6,64256,65728,6,6,4,1460,1540,1,992,93,66348,57660,65700,0,26064,0,0,0
i,0x00000000,1682520043.141978,172.16.1.2,60529,172.16.3.2,5101,17196,27549,6,64256,65728,6,6,4,1460,1540,1,992,93,66348,66348,65700,0,27512,0,0,0
o,0x00000000,1682520043.142124,172.16.1.2,60529,172.16.3.2,5101,17196,27549,6,64256,65728,6,6,4,1460,1556,1,992,91,66348,63452,65700,0,24616,0,0,0
o,0x00000000,1682520043.142784,172.16.1.2,60529,172.16.3.2,5101,17196,27549,6,64256,65728,6,6,4,1460,1556,1,992,91,66348,63452,65700,0,26064,0,0,0
i,0x00000000,1682520043.143369,172.16.1.2,60529,172.16.3.2,5101,17196,27549,6,64256,65728,6,6,4,1460,1556,1,992,91,66348,63452,65700,0,27512,0,0,0
o,0x00000000,1682520043.143413,172.16.1.2,60529,172.16.3.2,5101,17196,27549,6,64256,65728,6,6,4,1460,1546,1,992,88,66348,60556,65700,0,24616,0,0,0
o,0x00000000,1682520043.144804,172.16.1.2,60529,172.16.3.2,5101,17196,27549,6,64256,65728,6,6,4,1460,1546,1,992,88,66348,60556,65700,0,26064,0,0,0
i,0x00000000,1682520043.145440,172.16.1.2,60529,172.16.3.2,5101,17196,27549,6,64256,65728,6,6,4,1460,1546,1,992,88,66348,60556,65700,0,27512,0,0,0
o,0x00000000,1682520043.145549,172.16.1.2,60529,172.16.3.2,5101,17196,27549,6,64256,65728,6,6,4,1460,1537,1,992,85,66348,57660,65700,0,24616,0,0,0
o,0x00000000,1682520043.146134,172.16.1.2,60529,172.16.3.2,5101,17196,27549,6,64256,65728,6,6,4,1460,1537,1,992,85,66348,57660,65700,0,26064,0,0,0
i,0x00000000,1682520043.510694,172.16.1.2,60529,172.16.3.2,5101,17196,27549,6,64256,65728,6,6,4,1460,1537,1,992,85,66348,66348,65700,0,27512,0,0,0
o,0x00000000,1682520043.510805,172.16.1.2,60529,172.16.3.2,5101,17196,27549,6,65728,65728,6,6,4,1460,1553,1,992,85,66348,64900,65700,0,26064,0,0,0
i,0x00000000,1682520043.511055,172.16.1.2,60529,172.16.3.2,5101,17196,27549,6,65728,65728,6,6,4,1460,1553,1,992,85,66348,64900,65700,0,27512,0,0,0
o,0x00000000,1682520043.511127,172.16.1.2,60529,172.16.3.2,5101,17196,27549,6,64256,65728,6,6,4,1460,1547,1,992,82,66348,62004,65700,0,24616,0,0,0
o,0x00000000,1682520043.511294,172.16.1.2,60529,172.16.3.2,5101,17196,27549,6,64256,65728,6,6,4,1460,1547,1,992,82,66348,62004,65700,0,26064,0,0,0
i,0x00000000,1682520043.511452,172.16.1.2,60529,172.16.3.2,5101,17196,27549,6,64256,65728,6,6,4,1460,1547,1,992,82,66348,62004,65700,0,27512,0,0,0
o,0x00000000,1682520043.511509,172.16.1.2,60529,172.16.3.2,5101,17196,27549,6,64256,65728,6,6,4,1460,1542,1,992,80,66348,56212,65700,0,21720,0,0,0
o,0x00000000,1682520043.511770,172.16.1.2,60529,172.16.3.2,5101,17196,27549,6,64256,65728,6,6,4,1460,1542,1,992,80,66348,56212,65700,0,23168,0,0,0
o,0x00000000,1682520043.512109,172.16.1.2,60529,172.16.3.2,5101,17196,27549,6,64256,65728,6,6,4,1460,1542,1,992,80,66348,56212,65700,0,24616,0,0,0
o,0x00000000,1682520043.512399,172.16.1.2,60529,172.16.3.2,5101,17196,27549,6,64256,65728,6,6,4,1460,1542,1,992,80,66348,56212,65700,0,26064,0,0,0
i,0x00000000,1682520043.540502,172.16.1.2,60529,172.16.3.2,5101,17196,27549,6,64256,65728,6,6,4,1460,1542,1,992,80,66348,66348,65700,0,27512,0,0,0
o,0x00000000,1682520043.540583,172.16.1.2,60529,172.16.3.2,5101,17196,27549,6,64256,65728,6,6,4,1460,1538,1,992,78,66348,63452,65700,0,24616,0,0,0
o,0x00000000,1682520043.541046,172.16.1.2,60529,172.16.3.2,5101,17196,27549,6,64256,65728,6,6,4,1460,1538,1,992,78,66348,63452,65700,0,26064,0,0,0
i,0x00000000,1682520043.541431,172.16.1.2,60529,172.16.3.2,5101,17196,27549,6,64256,65728,6,6,4,1460,1538,1,992,78,66348,63452,65700,0,27512,0,0,0
o,0x00000000,1682520043.541513,172.16.1.2,60529,172.16.3.2,5101,17196,27549,6,64256,65728,6,6,4,1460,1534,1,992,76,66348,60556,65700,0,24616,0,0,0
o,0x00000000,1682520043.541858,172.16.1.2,60529,172.16.3.2,5101,17196,27549,6,64256,65728,6,6,4,1460,1534,1,992,76,66348,60556,65700,0,26064,0,0,0
i,0x00000000,1682520043.542339,172.16.1.2,60529,172.16.3.2,5101,17196,27549,6,64256,65728,6,6,4,1460,1534,1,992,76,66348,60556,65700,0,27512,0,0,0
o,0x00000000,1682520043.542436,172.16.1.2,60529,172.16.3.2,5101,17196,27549,6,64256,65728,6,6,4,1460,1531,1,992,75,66348,57660,65700,0,24616,0,0,0
o,0x00000000,1682520043.542905,172.16.1.2,60529,172.16.3.2,5101,17196,27549,6,64256,65728,6,6,4,1460,1531,1,992,75,66348,57660,65700,0,26064,0,0,0
i,0x00000000,1682520043.543403,172.16.1.2,60529,172.16.3.2,5101,17196,27549,6,64256,65728,6,6,4,1460,1531,1,992,75,66348,66348,65700,0,27512,0,0,0
o,0x00000000,1682520043.543528,172.16.1.2,60529,172.16.3.2,5101,17196,27549,6,64256,65728,6,6,4,1460,1496,1,992,81,66348,63452,65700,0,24616,0,0,0
o,0x00000000,1682520043.543939,172.16.1.2,60529,172.16.3.2,5101,17196,27549,6,64256,65728,6,6,4,1460,1496,1,992,81,66348,63452,65700,0,26064,0,0,0
i,0x00000000,1682520043.544491,172.16.1.2,60529,172.16.3.2,5101,17196,27549,6,64256,65728,6,6,4,1460,1496,1,992,81,66348,63452,65700,0,27512,0,0,0
o,0x00000000,1682520043.544562,172.16.1.2,60529,172.16.3.2,5101,17196,27549,6,64256,65728,6,6,4,1460,1465,1,992,84,66348,60556,65700,0,24616,0,0,0
o,0x00000000,1682520043.545534,172.16.1.2,60529,172.16.3.2,5101,17196,27549,6,64256,65728,6,6,4,1460,1465,1,992,84,66348,60556,65700,0,26064,0,0,0
i,0x00000000,1682520043.620674,172.16.1.2,60529,172.16.3.2,5101,17196,27549,6,64256,65728,6,6,4,1460,1465,1,992,84,66348,66348,65700,0,27512,0,0,0
o,0x00000000,1682520043.620710,172.16.1.2,60529,172.16.3.2,5101,17196,27549,6,64256,65728,6,6,4,1460,1470,1,992,81,66348,63452,65700,0,24616,0,0,0
o,0x00000000,1682520043.620838,172.16.1.2,60529,172.16.3.2,5101,17196,27549,6,64256,65728,6,6,4,1460,1470,1,992,81,66348,63452,65700,0,26064,0,0,0
i,0x00000000,1682520044.000706,172.16.1.2,60529,172.16.3.2,5101,17196,27549,6,64256,65728,6,6,4,1460,1470,1,992,81,66348,66348,65700,0,27512,0,0,0
o,0x00000000,1682520044.000741,172.16.1.2,60529,172.16.3.2,5101,17196,27549,6,64256,65728,6,6,4,1460,1483,1,992,81,66348,63452,65700,0,24616,0,0,0
o,0x00000000,1682520044.000891,172.16.1.2,60529,172.16.3.2,5101,17196,27549,6,64256,65728,6,6,4,1460,1483,1,992,81,66348,63452,65700,0,26064,0,0,0
i,0x00000000,1682520044.001081,172.16.1.2,60529,172.16.3.2,5101,17196,27549,6,64256,65728,6,6,4,1460,1483,1,992,81,66348,63452,65700,0,27512,0,0,0
o,0x00000000,1682520044.001103,172.16.1.2,60529,172.16.3.2,5101,17196,27549,6,64256,65728,6,6,4,1460,1494,1,992,80,66348,60556,65700,0,24616,0,0,0
o,0x00000000,1682520044.001195,172.16.1.2,60529,172.16.3.2,5101,17196,27549,6,64256,65728,6,6,4,1460,1494,1,992,80,66348,60556,65700,0,26064,0,0,0
i,0x00000000,1682520044.001286,172.16.1.2,60529,172.16.3.2,5101,17196,27549,6,64256,65728,6,6,4,1460,1494,1,992,80,66348,60556,65700,0,27512,0,0,0
o,0x00000000,1682520044.001302,172.16.1.2,60529,172.16.3.2,5101,17196,27549,6,64256,65728,6,6,4,1460,1504,1,992,80,66348,57660,65700,0,24616,0,0,0
o,0x00000000,1682520044.001407,172.16.1.2,60529,172.16.3.2,5101,17196,27549,6,64256,65728,6,6,4,1460,1504,1,992,80,66348,57660,65700,0,26064,0,0,0
i,0x00000000,1682520044.029555,172.16.1.2,60529,172.16.3.2,5101,17196,27549,6,64256,65728,6,6,4,1460,1504,1,992,80,66348,66348,65700,0,27512,0,0,0
o,0x00000000,1682520044.029826,172.16.1.2,60529,172.16.3.2,5101,17196,27549,6,64256,65728,6,6,4,1460,1520,1,992,81,66348,63452,65700,0,24616,0,0,0
o,0x00000000,1682520044.030169,172.16.1.2,60529,172.16.3.2,5101,17196,27549,6,64256,65728,6,6,4,1460,1520,1,992,81,66348,63452,65700,0,26064,0,0,0
i,0x00000000,1682520044.030472,172.16.1.2,60529,172.16.3.2,5101,17196,27549,6,64256,65728,6,6,4,1460,1520,1,992,81,66348,63452,65700,0,27512,0,0,0
o,0x00000000,1682520044.030650,172.16.1.2,60529,172.16.3.2,5101,17196,27549,6,64256,65728,6,6,4,1460,1526,1,992,79,66348,60556,65700,0,24616,0,0,0
o,0x00000000,1682520044.030964,172.16.1.2,60529,172.16.3.2,5101,17196,27549,6,64256,65728,6,6,4,1460,1526,1,992,79,66348,60556,65700,0,26064,0,0,0
i,0x00000000,1682520044.031249,172.16.1.2,60529,172.16.3.2,5101,17196,27549,6,64256,65728,6,6,4,1460,1526,1,992,79,66348,60556,65700,0,27512,0,0,0
o,0x00000000,1682520044.031398,172.16.1.2,60529,172.16.3.2,5101,17196,27549,6,64256,65728,6,6,4,1460,1532,1,992,78,66348,57660,65700,0,24616,0,0,0
o,0x00000000,1682520044.031675,172.16.1.2,60529,172.16.3.2,5101,17196,27549,6,64256,65728,6,6,4,1460,1532,1,992,78,66348,57660,65700,0,26064,0,0,0
i,0x00000000,1682520044.032013,172.16.1.2,60529,172.16.3.2,5101,17196,27549,6,64256,65728,6,6,4,1460,1532,1,992,78,66348,57660,65700,0,27512,0,0,0
o,0x00000000,1682520044.032141,172.16.1.2,60529,172.16.3.2,5101,17196,27549,6,64256,65728,6,6,4,1460,1537,1,992,77,66348,54764,65700,0,24616,0,0,0
o,0x00000000,1682520044.032437,172.16.1.2,60529,172.16.3.2,5101,17196,27549,6,64256,65728,6,6,4,1460,1537,1,992,77,66348,54764,65700,0,26064,0,0,0
i,0x00000000,1682520044.032869,172.16.1.2,60529,172.16.3.2,5101,17196,27549,6,64256,65728,6,6,4,1460,1537,1,992,77,66348,54764,65700,0,27512,0,0,0
o,0x00000000,1682520044.032978,172.16.1.2,60529,172.16.3.2,5101,17196,27549,6,64256,65728,6,6,4,1460,1541,1,992,76,66348,51868,65700,0,24616,0,0,0
o,0x00000000,1682520044.033672,172.16.1.2,60529,172.16.3.2,5101,17196,27549,6,64256,65728,6,6,4,1460,1541,1,992,76,66348,51868,65700,0,26064,0,0,0
i,0x00000000,1682520044.033991,172.16.1.2,60529,172.16.3.2,5101,17196,27549,6,64256,65728,6,6,4,1460,1541,1,992,76,66348,51868,65700,0,27512,0,0,0
o,0x00000000,1682520044.034044,172.16.1.2,60529,172.16.3.2,5101,17196,27549,6,64256,65728,6,6,4,1460,1545,1,992,75,66348,48972,65700,0,24616,0,0,0
o,0x00000000,1682520044.034320,172.16.1.2,60529,172.16.3.2,5101,17196,27549,6,64256,65728,6,6,4,1460,1545,1,992,75,66348,48972,65700,0,26064,0,0,0
i,0x00000000,1682520044.462301,172.16.1.2,60529,172.16.3.2,5101,17196,27549,6,64256,65728,6,6,4,1460,1545,1,992,75,66348,66348,65700,0,27512,0,0,0
o,0x00000000,1682520044.462395,172.16.1.2,60529,172.16.3.2,5101,17196,27549,6,65728,65728,6,6,4,1460,1688,1,992,113,66348,64900,65700,0,26064,0,0,0
i,0x00000000,1682520044.491567,172.16.1.2,60529,172.16.3.2,5101,17196,27549,6,65728,65728,6,6,4,1460,1688,1,992,113,66348,64900,65700,0,27512,0,0,0
o,0x00000000,1682520044.491611,172.16.1.2,60529,172.16.3.2,5101,17196,27549,6,64256,65728,6,6,4,1460,1669,1,992,107,66348,62004,65700,0,24616,0,0,0
o,0x00000000,1682520044.491722,172.16.1.2,60529,172.16.3.2,5101,17196,27549,6,64256,65728,6,6,4,1460,1669,1,992,107,66348,62004,65700,0,26064,0,0,0
i,0x00000000,1682520044.491813,172.16.1.2,60529,172.16.3.2,5101,17196,27549,6,64256,65728,6,6,4,1460,1669,1,992,107,66348,62004,65700,0,27512,0,0,0
o,0x00000000,1682520044.491834,172.16.1.2,60529,172.16.3.2,5101,17196,27549,6,64256,65728,6,6,4,1460,1653,1,992,102,66348,59108,65700,0,24616,0,0,0
o,0x00000000,1682520044.491941,172.16.1.2,60529,172.16.3.2,5101,17196,27549,6,64256,65728,6,6,4,1460,1653,1,992,102,66348,59108,65700,0,26064,0,0,0
i,0x00000000,1682520044.492040,172.16.1.2,60529,172.16.3.2,5101,17196,27549,6,64256,65728,6,6,4,1460,1653,1,992,102,66348,59108,65700,0,27512,0,0,0
o,0x00000000,1682520044.492059,172.16.1.2,60529,172.16.3.2,5101,17196,27549,6,64256,65728,6,6,4,1460,1639,1,992,97,66348,56212,65700,0,24616,0,0,0
o,0x00000000,1682520044.492163,172.16.1.2,60529,172.16.3.2,5101,17196,27549,6,64256,65728,6,6,4,1460,1639,1,992,97,66348,56212,65700,0,26064,0,0,0
i,0x00000000,1682520044.492281,172.16.1.2,60529,172.16.3.2,5101,17196,27549,6,64256,65728,6,6,4,1460,1639,1,992,97,66348,56212,65700,0,27512,0,0,0
o,0x00000000,1682520044.492305,172.16.1.2,60529,172.16.3.2,5101,17196,27549,6,64256,65728,6,6,4,1460,1615,1,992,96,66348,53316,65700,0,24616,0,0,0
o,0x00000000,1682520044.492491,172.16.1.2,60529,172.16.3.2,5101,17196,27549,6,64256,65728,6,6,4,1460,1615,1,992,96,66348,53316,65700,0,26064,0,0,0
i,0x00000000,1682520044.492605,172.16.1.2,60529,172.16.3.2,5101,17196,27549,6,64256,65728,6,6,4,1460,1615,1,992,96,66348,53316,65700,0,27512,0,0,0
o,0x00000000,1682520044.492627,172.16.1.2,60529,172.16.3.2,5101,17196,27549,6,64256,65728,6,6,4,1460,1594,1,992,94,66348,50420,65700,0,24616,0,0,0
o,0x00000000,1682520044.492744,172.16.1.2,60529,172.16.3.2,5101,17196,27549,6,64256,65728,6,6,4,1460,1594,1,992,94,66348,50420,65700,0,26064,0,0,0
i,0x00000000,1682520044.492856,172.16.1.2,60529,172.16.3.2,5101,17196,27549,6,64256,65728,6,6,4,1460,1594,1,992,94,66348,50420,65700,0,27512,0,0,0
o,0x00000000,1682520044.492903,172.16.1.2,60529,172.16.3.2,5101,17196,27549,6,64256,65728,6,6,4,1460,1575,1,992,92,66348,44628,65700,0,21720,0,0,0
o,0x00000000,1682520044.493031,172.16.1.2,60529,172.16.3.2,5101,17196,27549,6,64256,65728,6,6,4,1460,1575,1,992,92,66348,44628,65700,0,23168,0,0,0
o,0x00000000,1682520044.493153,172.16.1.2,60529,172.16.3.2,5101,17196,27549,6,64256,65728,6,6,4,1460,1575,1,992,92,66348,44628,65700,0,24616,0,0,0
o,0x00000000,1682520044.493267,172.16.1.2,60529,172.16.3.2,5101,17196,27549,6,64256,65728,6,6,4,1460,1575,1,992,92,66348,44628,65700,0,26064,0,0,0
i,0x00000000,1682520044.493410,172.16.1.2,60529,172.16.3.2,5101,17196,27549,6,64256,65728,6,6,4,1460,1575,1,992,92,66348,44628,65700,0,27512,0,0,0
o,0x00000000,1682520044.493439,172.16.1.2,60529,172.16.3.2,5101,17196,27549,6,64256,65728,6,6,4,1460,1559,1,992,90,66348,41732,65700,0,24616,0,0,0
o,0x00000000,1682520044.493555,172.16.1.2,60529,172.16.3.2,5101,17196,27549,6,64256,65728,6,6,4,1460,1559,1,992,90,66348,41732,65700,0,26064,0,0,0
i,0x00000000,1682520044.727586,172.16.1.2,60529,172.16.3.2,5101,17196,27549,6,64256,65728,6,6,4,1460,1559,1,992,90,66348,66348,65700,0,27512,0,0,0
o,0x00000000,1682520044.727651,172.16.1.2,60529,172.16.3.2,5101,17196,27951,6,64256,65728,6,6,4,1460,1641,1,992,108,66348,63452,65700,0,24616,0,0,0
o,0x00000000,1682520044.727979,172.16.1.2,60529,172.16.3.2,5101,17196,27951,6,64256,65728,6,6,4,1460,1641,1,992,108,66348,63452,65700,0,26064,0,0,0
i,0x00000000,1682520044.980911,172.16.1.2,60529,172.16.3.2,5101,17196,27951,6,64256,65728,6,6,4,1460,1641,1,992,108,66348,66348,65700,0,27512,0,0,0
o,0x00000000,1682520044.980971,172.16.1.2,60529,172.16.3.2,5101,17196,29411,6,64256,65728,6,6,4,1460,1644,1,992,99,66348,63452,65700,0,24616,0,0,0
o,0x00000000,1682520044.981107,172.16.1.2,60529,172.16.3.2,5101,17196,29411,6,64256,65728,6,6,4,1460,1644,1,992,99,66348,63452,65700,0,26064,0,0,0
o,0x00000000,1682520044.981196,172.16.1.2,60529,172.16.3.2,5101,17196,29411,6,64256,65728,6,6,4,1460,1644,1,992,99,66348,63452,65700,0,27512,0,0,0
i,0x00000000,1682520044.981324,172.16.1.2,60529,172.16.3.2,5101,17196,29411,6,64256,65728,6,6,4,1460,1644,1,992,99,66348,63452,65700,0,28960,0,0,0
o,0x00000000,1682520044.981350,172.16.1.2,60529,172.16.3.2,5101,17196,29921,6,64256,65728,6,6,4,1460,1635,1,992,94,66348,60556,65700,0,26064,0,0,0
o,0x00000000,1682520044.981461,172.16.1.2,60529,172.16.3.2,5101,17196,29921,6,64256,65728,6,6,4,1460,1635,1,992,94,66348,60556,65700,0,27512,0,0,0
i,0x00000000,1682520044.981565,172.16.1.2,60529,172.16.3.2,5101,17196,29921,6,64256,65728,6,6,4,1460,1635,1,992,94,66348,60556,65700,0,28960,0,0,0
o,0x00000000,1682520044.981585,172.16.1.2,60529,172.16.3.2,5101,17196,30278,6,64256,65728,6,6,4,1460,1627,1,992,90,66348,57660,65700,0,26064,0,0,0
o,0x00000000,1682520044.981701,172.16.1.2,60529,172.16.3.2,5101,17196,30278,6,64256,65728,6,6,4,1460,1627,1,992,90,66348,57660,65700,0,27512,0,0,0
i,0x00000000,1682520044.981931,172.16.1.2,60529,172.16.3.2,5101,17196,30278,6,64256,65728,6,6,4,1460,1627,1,992,90,66348,57660,65700,0,28960,0,0,0
o,0x00000000,1682520044.981960,172.16.1.2,60529,172.16.3.2,5101,17196,30528,6,64256,65728,6,6,4,1460,1620,1,992,87,66348,54764,65700,0,26064,0,0,0
o,0x00000000,1682520044.982073,172.16.1.2,60529,172.16.3.2,5101,17196,30528,6,64256,65728,6,6,4,1460,1620,1,992,87,66348,54764,65700,0,27512,0,0,0
o,0x00000000,1682520044.982175,172.16.1.2,60529,172.16.3.2,5101,17196,30528,6,64256,65728,6,6,4,1460,1620,1,992,87,66348,54764,65700,0,28960,0,0,0
i,0x00000000,1682520044.982266,172.16.1.2,60529,172.16.3.2,5101,17196,30528,6,64256,65728,6,6,4,1460,1620,1,992,87,66348,54764,65700,0,30408,0,0,0
o,0x00000000,1682520044.982285,172.16.1.2,60529,172.16.3.2,5101,17196,30702,6,64256,65728,6,6,4,1460,1614,1,992,84,66348,51868,65700,0,27512,0,0,0
o,0x00000000,1682520044.982378,172.16.1.2,60529,172.16.3.2,5101,17196,30702,6,64256,65728,6,6,4,1460,1614,1,992,84,66348,51868,65700,0,28960,0,0,0
i,0x00000000,1682520044.982505,172.16.1.2,60529,172.16.3.2,5101,17196,30702,6,64256,65728,6,6,4,1460,1614,1,992,84,66348,51868,65700,0,30408,0,0,0
o,0x00000000,1682520044.982534,172.16.1.2,60529,172.16.3.2,5101,17196,30824,6,64256,65728,6,6,4,1460,1609,1,992,82,66348,48972,65700,0,27512,0,0,0
o,0x00000000,1682520044.982654,172.16.1.2,60529,172.16.3.2,5101,17196,30824,6,64256,65728,6,6,4,1460,1609,1,992,82,66348,48972,65700,0,28960,0,0,0
i,0x00000000,1682520044.982839,172.16.1.2,60529,172.16.3.2,5101,17196,30824,6,64256,65728,6,6,4,1460,1609,1,992,82,66348,48972,65700,0,30408,0,0,0
o,0x00000000,1682520044.982861,172.16.1.2,60529,172.16.3.2,5101,17196,30909,6,64256,65728,6,6,4,1460,1604,1,992,80,66348,46076,65700,0,27512,0,0,0
o,0x00000000,1682520044.982953,172.16.1.2,60529,172.16.3.2,5101,17196,30909,6,64256,65728,6,6,4,1460,1604,1,992,80,66348,46076,65700,0,28960,0,0,0
i,0x00000000,1682520044.983065,172.16.1.2,60529,172.16.3.2,5101,17196,30909,6,64256,65728,6,6,4,1460,1604,1,992,80,66348,46076,65700,0,30408,0,0,0
o,0x00000000,1682520044.983084,172.16.1.2,60529,172.16.3.2,5101,17196,30969,6,64256,65728,6,6,4,1460,1600,1,992,78,66348,43180,65700,0,27512,0,0,0
o,0x00000000,1682520044.983213,172.16.1.2,60529,172.16.3.2,5101,17196,30969,6,64256,65728,6,6,4,1460,1600,1,992,78,66348,43180,65700,0,28960,0,0,0
i,0x00000000,1682520045.080272,172.16.1.2,60529,172.16.3.2,5101,17196,30969,6,64256,65728,6,6,4,1460,1600,1,992,78,66348,66348,65700,0,30408,0,0,0
o,0x00000000,1682520045.080315,172.16.1.2,60529,172.16.3.2,5101,17196,32429,6,65728,65728,6,6,4,1460,1636,1,992,86,66348,64900,65700,0,28960,0,0,0
o,0x00000000,1682520045.080463,172.16.1.2,60529,172.16.3.2,5101,17196,32429,6,65728,65728,6,6,4,1460,1636,1,992,86,66348,64900,65700,0,30408,0,0,0
i,0x00000000,1682520045.280855,172.16.1.2,60529,172.16.3.2,5101,17196,32429,6,65728,65728,6,6,4,1460,1636,1,992,86,66348,64900,65700,0,31856,0,0,0
o,0x00000000,1682520045.281141,172.16.1.2,60529,172.16.3.2,5101,17196,33889,6,64256,65728,6,6,4,1460,1652,1,992,87,74540,62004,65700,0,28960,0,0,0
o,0x00000000,1682520045.281574,172.16.1.2,60529,172.16.3.2,5101,17196,33889,6,64256,65728,6,6,4,1460,1652,1,992,87,74540,62004,65700,0,30408,0,0,0
o,0x00000000,1682520045.281920,172.16.1.2,60529,172.16.3.2,5101,17196,33889,6,64256,65728,6,6,4,1460,1652,1,992,87,74540,62004,65700,0,31856,0,0,0
i,0x00000000,1682520045.522136,172.16.1.2,60529,172.16.3.2,5101,17196,33889,6,64256,65728,6,6,4,1460,1652,1,992,87,74540,74540,65700,0,33304,0,0,0
o,0x00000000,1682520045.524253,172.16.1.2,60529,172.16.3.2,5101,17196,36809,6,64256,65728,6,6,4,1460,1662,1,992,86,74540,71644,65700,0,30408,0,0,0
o,0x00000000,1682520045.525232,172.16.1.2,60529,172.16.3.2,5101,17196,36809,6,64256,65728,6,6,4,1460,1662,1,992,86,74540,71644,65700,0,31856,0,0,0
o,0x00000000,1682520045.525894,172.16.1.2,60529,172.16.3.2,5101,17196,36809,6,64256,65728,6,6,4,1460,1662,1,992,86,74540,71644,65700,0,33304,0,0,0
o,0x00000000,1682520045.526537,172.16.1.2,60529,172.16.3.2,5101,17196,36809,6,64256,65728,6,6,4,1460,1662,1,992,86,74540,71644,65700,0,34752,0,0,0
i,0x00000000,1682520045.552019,172.16.1.2,60529,172.16.3.2,5101,17196,36809,6,64256,65728,6,6,4,1460,1662,1,992,86,82732,82732,65700,0,36200,0,0,0
o,0x00000000,1682520045.552019,172.16.1.2,60529,172.16.3.2,5101,17196,39729,6,64256,65728,6,6,4,1460,1683,1,992,88,82732,76940,65700,0,30408,0,0,0
o,0x00000000,1682520045.553493,172.16.1.2,60529,172.16.3.2,5101,17196,39729,6,64256,65728,6,6,4,1460,1683,1,992,88,82732,76940,65700,0,31856,0,0,0
o,0x00000000,1682520045.553860,172.16.1.2,60529,172.16.3.2,5101,17196,39729,6,64256,65728,6,6,4,1460,1683,1,992,88,82732,76940,65700,0,33304,0,0,0
o,0x00000000,1682520045.553976,172.16.1.2,60529,172.16.3.2,5101,17196,39729,6,64256,65728,6,6,4,1460,1683,1,992,88,82732,76940,65700,0,34752,0,0,0
o,0x00000000,1682520045.554082,172.16.1.2,60529,172.16.3.2,5101,17196,39729,6,64256,65728,6,6,4,1460,1683,1,992,88,82732,76940,65700,0,36200,0,0,0
o,0x00000000,1682520045.554170,172.16.1.2,60529,172.16.3.2,5101,17196,39729,6,64256,65728,6,6,4,1460,1683,1,992,88,82732,76940,65700,0,37648,0,0,0
i,0x00000000,1682520045.554267,172.16.1.2,60529,172.16.3.2,5101,17196,39729,6,64256,65728,6,6,4,1460,1683,1,992,88,82732,76940,65700,0,39096,0,0,0
o,0x00000000,1682520045.554288,172.16.1.2,60529,172.16.3.2,5101,17196,41189,6,64256,65728,6,6,4,1460,1701,1,992,89,82732,74044,65700,0,36200,0,0,0
o,0x00000000,1682520045.554400,172.16.1.2,60529,172.16.3.2,5101,17196,41189,6,64256,65728,6,6,4,1460,1701,1,992,89,82732,74044,65700,0,37648,0,0,0
o,0x00000000,1682520045.554488,172.16.1.2,60529,172.16.3.2,5101,17196,41189,6,64256,65728,6,6,4,1460,1701,1,992,89,82732,74044,65700,0,39096,0,0,0
i,0x00000000,1682520045.554591,172.16.1.2,60529,172.16.3.2,5101,17196,41189,6,64256,65728,6,6,4,1460,1701,1,992,89,82732,74044,65700,0,40544,0,0,0
o,0x00000000,1682520045.554608,172.16.1.2,60529,172.16.3.2,5101,17196,42649,6,64256,65728,6,6,4,1460,1717,1,992,90,82732,71148,65700,0,37648,0,0,0
o,0x00000000,1682520045.554696,172.16.1.2,60529,172.16.3.2,5101,17196,42649,6,64256,65728,6,6,4,1460,1717,1,992,90,82732,71148,65700,0,39096,0,0,0
o,0x00000000,1682520045.554785,172.16.1.2,60529,172.16.3.2,5101,17196,42649,6,64256,65728,6,6,4,1460,1717,1,992,90,82732,71148,65700,0,40544,0,0,0
i,0x00000000,1682520045.554897,172.16.1.2,60529,172.16.3.2,5101,17196,42649,6,64256,65728,6,6,4,1460,1717,1,992,90,82732,71148,65700,0,41992,0,0,0
o,0x00000000,1682520045.554931,172.16.1.2,60529,172.16.3.2,5101,17196,44109,6,64256,65728,6,6,4,1460,1731,1,992,90,82732,68252,65700,0,39096,0,0,0
o,0x00000000,1682520045.555269,172.16.1.2,60529,172.16.3.2,5101,17196,44109,6,64256,65728,6,6,4,1460,1731,1,992,90,82732,68252,65700,0,40544,0,0,0
o,0x00000000,1682520045.555547,172.16.1.2,60529,172.16.3.2,5101,17196,44109,6,64256,65728,6,6,4,1460,1731,1,992,90,82732,68252,65700,0,41992,0,0,0
i,0x00000000,1682520045.555813,172.16.1.2,60529,172.16.3.2,5101,17196,44109,6,64256,65728,6,6,4,1460,1731,1,992,90,82732,68252,65700,0,43440,0,0,0
o,0x00000000,1682520045.555835,172.16.1.2,60529,172.16.3.2,5101,17196,45569,6,64256,65728,6,6,4,1460,1743,1,992,89,82732,65356,65700,0,40544,0,0,0
o,0x00000000,1682520045.556134,172.16.1.2,60529,172.16.3.2,5101,17196,45569,6,64256,65728,6,6,4,1460,1743,1,992,89,82732,65356,65700,0,41992,0,0,0
o,0x00000000,1682520045.556251,172.16.1.2,60529,172.16.3.2,5101,17196,45569,6,64256,65728,6,6,4,1460,1743,1,992,89,82732,65356,65700,0,43440,0,0,0
i,0x00000000,1682520045.556372,172.16.1.2,60529,172.16.3.2,5101,17196,45569,6,64256,65728,6,6,4,1460,1743,1,992,89,82732,65356,65700,0,44888,0,0,0
o,0x00000000,1682520045.556390,172.16.1.2,60529,172.16.3.2,5101,17196,47029,6,64256,65728,6,6,4,1460,1754,1,992,89,82732,59564,65700,0,39096,0,0,0
o,0x00000000,1682520045.556520,172.16.1.2,60529,172.16.3.2,5101,17196,47029,6,64256,65728,6,6,4,1460,1754,1,992,89,82732,59564,65700,0,40544,0,0,0
o,0x00000000,1682520045.556756,172.16.1.2,60529,172.16.3.2,5101,17196,47029,6,64256,65728,6,6,4,1460,1754,1,992,89,82732,59564,65700,0,41992,0,0,0
o,0x00000000,1682520045.556880,172.16.1.2,60529,172.16.3.2,5101,17196,47029,6,64256,65728,6,6,4,1460,1754,1,992,89,82732,59564,65700,0,43440,0,0,0
o,0x00000000,1682520045.556986,172.16.1.2,60529,172.16.3.2,5101,17196,47029,6,64256,65728,6,6,4,1460,1754,1,992,89,82732,59564,65700,0,44888,0,0,0
i,0x00000000,1682520045.891316,172.16.1.2,60529,172.16.3.2,5101,17196,47029,6,64256,65728,6,6,4,1460,1754,1,992,89,82732,82732,65700,0,46336,0,0,0
o,0x00000000,1682520045.892060,172.16.1.2,60529,172.16.3.2,5101,17196,49949,6,65728,65728,6,6,4,1460,1859,1,992,115,82732,81284,65700,0,44888,0,0,0
o,0x00000000,1682520045.892458,172.16.1.2,60529,172.16.3.2,5101,17196,49949,6,65728,65728,6,6,4,1460,1859,1,992,115,82732,81284,65700,0,46336,0,0,0
o,0x00000000,1682520045.892796,172.16.1.2,60529,172.16.3.2,5101,17196,49949,6,65728,65728,6,6,4,1460,1859,1,992,115,82732,81284,65700,0,47784,0,0,0
i,0x00000000,1682520045.893272,172.16.1.2,60529,172.16.3.2,5101,17196,49949,6,65728,65728,6,6,4,1460,1859,1,992,115,82732,81284,65700,0,49232,0,0,0
o,0x00000000,1682520045.893329,172.16.1.2,60529,172.16.3.2,5101,17196,52128,6,65728,65728,6,6,4,1460,1859,1,992,115,82732,81284,65700,0,49232,0,0,0
o,0x00000000,1682520045.893693,172.16.1.2,60529,172.16.3.2,5101,17196,52128,2,65728,65728,6,6,4,1460,1859,1,992,115,82732,81284,65700,0,50680,0,0,0
i,0x00000000,1682520045.894085,172.16.1.2,60529,172.16.3.2,5101,17196,49949,2,65728,65728,6,6,4,1460,1859,1,992,115,82732,81284,65700,0,52128,0,0,0
o,0x00000000,1682520045.894231,172.16.1.2,60529,172.16.3.2,5101,24974,1448,2,65728,65728,6,6,4,1460,1859,1,537920480,115,82732,81284,65700,0,52128,0,0,0
i,0x00000000,1682520046.163249,172.16.1.2,60529,172.16.3.2,5101,24974,1448,2,65728,65728,6,6,4,1460,1859,1,537920480,115,82732,81284,65700,0,52128,0,0,0
o,0x00000000,1682520046.163494,172.16.1.2,60529,172.16.3.2,5101,24974,2896,2,65728,65728,6,6,4,1460,1859,1,537920480,115,82732,81284,65700,0,52128,0,0,0
i,0x00000000,1682520046.200966,172.16.1.2,60529,172.16.3.2,5101,24974,2896,2,65728,65728,6,6,4,1460,1859,1,537920480,115,82732,81284,65700,0,52128,0,0,0
o,0x00000000,1682520046.201199,172.16.1.2,60529,172.16.3.2,5101,24974,4344,2,65728,65728,6,6,4,1460,1859,1,537920480,115,82732,81284,65700,0,52128,0,0,0
i,0x00000000,1682520046.203299,172.16.1.2,60529,172.16.3.2,5101,24974,4344,2,65728,65728,6,6,4,1460,1859,1,537920480,115,82732,81284,65700,0,52128,0,0,0
o,0x00000000,1682520046.203585,172.16.1.2,60529,172.16.3.2,5101,24974,5792,2,65728,65728,6,6,4,1460,1859,1,537920480,115,82732,81284,65700,0,52128,0,0,0
i,0x00000000,1682520046.204281,172.16.1.2,60529,172.16.3.2,5101,24974,5792,2,65728,65728,6,6,4,1460,1859,1,537920480,115,82732,81284,65700,0,53576,0,0,0
o,0x00000000,1682520046.204443,172.16.1.2,60529,172.16.3.2,5101,24974,7240,2,65728,65728,6,6,4,1460,1859,1,537920480,115,82732,81284,65700,0,53576,0,0,0
i,0x00000000,1682520046.205035,172.16.1.2,60529,172.16.3.2,5101,24974,7240,2,65728,65728,6,6,4,1460,1859,1,537920480,115,82732,81284,65700,0,53576,0,0,0
i,0x00000000,1682520046.205132,172.16.1.2,60529,172.16.3.2,5101,24974,7240,2,65728,65728,6,6,4,1460,1859,1,537920480,115,82732,81284,65700,0,53576,0,0,0
o,0x00000000,1682520046.205225,172.16.1.2,60529,172.16.3.2,5101,24974,8688,2,65728,65728,6,6,4,1460,1859,1,537920480,115,82732,81284,65700,0,53576,0,0,0
i,0x00000000,1682520046.210991,172.16.1.2,60529,172.16.3.2,5101,24974,8688,2,65728,65728,6,6,4,1460,1859,1,537920480,115,82732,81284,65700,0,55024,0,0,0
o,0x00000000,1682520046.211020,172.16.1.2,60529,172.16.3.2,5101,24974,10136,2,65728,65728,6,6,4,1460,1859,1,537920480,115,82732,81284,65700,0,55024,0,0,0
i,0x00000000,1682520046.211136,172.16.1.2,60529,172.16.3.2,5101,24974,10136,2,65728,65728,6,6,4,1460,1859,1,537920480,115,82732,81284,65700,0,55024,0,0,0
o,0x00000000,1682520046.211157,172.16.1.2,60529,172.16.3.2,5101,24974,11584,2,65728,65728,6,6,4,1460,1859,1,537920480,115,82732,81284,65700,0,55024,0,0,0
i,0x00000000,1682520046.211362,172.16.1.2,60529,172.16.3.2,5101,24974,11584,2,65728,65728,6,6,4,1460,1859,1,537920480,115,82732,81284,65700,0,55024,0,0,0
o,0x00000000,1682520046.211386,172.16.1.2,60529,172.16.3.2,5101,24974,13032,2,65728,65728,6,6,4,1460,1859,1,537920480,115,82732,81284,65700,0,55024,0,0,0
i,0x00000000,1682520046.211535,172.16.1.2,60529,172.16.3.2,5101,24974,13032,2,65728,65728,6,6,4,1460,1859,1,537920480,115,82732,81284,65700,0,56472,0,0,0
o,0x00000000,1682520046.211556,172.16.1.2,60529,172.16.3.2,5101,24974,14480,2,65728,65728,6,6,4,1460,1859,1,537920480,115,82732,81284,65700,0,56472,0,0,0
i,0x00000000,1682520046.211672,172.16.1.2,60529,172.16.3.2,5101,24974,14480,2,65728,65728,6,6,4,1460,1859,1,537920480,115,82732,81284,65700,0,57920,0,0,0
o,0x00000000,1682520046.211715,172.16.1.2,60529,172.16.3.2,5101,24974,15928,2,65728,65728,6,6,4,1460,1859,1,537920480,115,82732,81284,65700,0,57920,0,0,0
i,0x00000000,1682520046.341886,172.16.1.2,60529,172.16.3.2,5101,24974,15928,2,65728,65728,6,6,4,1460,1859,1,537920480,115,82732,81284,65700,0,59368,0,0,0
o,0x00000000,1682520046.342023,172.16.1.2,60529,172.16.3.2,5101,24974,15928,2,65728,65728,6,6,4,1460,1859,1,537920480,115,82732,81284,65700,0,59368,0,0,0
i,0x00000000,1682520046.342642,172.16.1.2,60529,172.16.3.2,5101,24974,15928,2,65728,65728,6,6,4,1460,1859,1,537920480,115,82732,81284,65700,0,59368,0,0,0
o,0x00000000,1682520046.342747,172.16.1.2,60529,172.16.3.2,5101,24974,17376,6,65728,65728,6,6,4,1460,1859,1,537920480,115,82732,81284,65700,0,59368,0,0,0
o,0x00000000,1682520046.343339,172.16.1.2,60529,172.16.3.2,5101,24974,17376,2,65728,65728,6,6,4,1460,1859,1,537920480,115,82732,81284,65700,0,59368,0,0,0
i,0x00000000,1682520046.343870,172.16.1.2,60529,172.16.3.2,5101,24974,17376,2,65728,65728,6,6,4,1460,1859,1,537920480,115,82732,81284,65700,0,59368,0,0,0
i,0x00000000,1682520046.493291,172.16.1.2,60529,172.16.3.2,5101,24974,20272,2,65728,65728,6,6,4,1460,1859,1,537920480,115,82732,81284,65700,0,59368,0,0,0
i,0x00000000,1682520046.530986,172.16.1.2,60529,172.16.3.2,5101,24974,18824,2,65728,65728,6,6,4,1460,1859,1,537920480,115,82732,81284,65700,0,59368,0,0,0
i,0x00000000,1682520046.531019,172.16.1.2,60529,172.16.3.2,5101,24974,17376,2,65728,65728,6,6,4,1460,1859,1,537920480,115,82732,81284,65700,0,59368,0,0,0
i,0x00000000,1682520046.531040,172.16.1.2,60529,172.16.3.2,5101,24974,17376,2,65728,65728,6,6,4,1460,1859,1,537920480,115,82732,81284,65700,0,59368,0,0,0
o,0x00000000,1682520046.531084,172.16.1.2,60529,172.16.3.2,5101,24974,17376,2,65728,65728,6,6,4,1460,1859,1,537920480,115,82732,81284,65700,0,59368,0,0,0
i,0x00000000,1682520046.531280,172.16.1.2,60529,172.16.3.2,5101,24974,17376,2,65728,65728,6,6,4,1460,1859,1,537920480,115,82732,81284,65700,0,60816,0,0,0
o,0x00000000,1682520046.531305,172.16.1.2,60529,172.16.3.2,5101,24974,18824,2,65728,65728,6,6,4,1460,1859,1,537920480,115,82732,81284,65700,0,60816,0,0,0
i,0x00000000,1682520046.532662,172.16.1.2,60529,172.16.3.2,5101,24974,18824,2,65728,65728,6,6,4,1460,1859,1,537920480,115,82732,81284,65700,0,62264,0,0,0
o,0x00000000,1682520046.532727,172.16.1.2,60529,172.16.3.2,5101,24974,20272,6,65728,65728,6,6,4,1460,1859,1,537920480,115,82732,81284,65700,0,62264,0,0,0
o,0x00000000,1682520046.532894,172.16.1.2,60529,172.16.3.2,5101,24974,20272,2,65728,65728,6,6,4,1460,1859,1,537920480,115,82732,81284,65700,0,63712,0,0,0
i,0x00000000,1682520046.533039,172.16.1.2,60529,172.16.3.2,5101,24974,20272,2,65728,65728,6,6,4,1460,1859,1,537920480,115,82732,81284,65700,0,65160,0,0,0
i,0x00000000,1682520046.541299,172.16.1.2,60529,172.16.3.2,5101,24974,21720,2,65728,65728,6,6,4,1460,1859,1,537920480,115,82732,81284,65700,0,65160,0,0,0
i,0x00000000,1682520046.541328,172.16.1.2,60529,172.16.3.2,5101,24974,23168,2,65728,65728,6,6,4,1460,1859,1,537920480,115,82732,81284,65700,0,65160,0,0,0
i,0x00000000,1682520046.541348,172.16.1.2,60529,172.16.3.2,5101,24974,24616,2,65728,65728,6,6,4,1460,1859,1,537920480,115,82732,81284,65700,0,65160,0,0,0
