enable_time_secs=1680090703	enable_time_usecs=262373	siftrver=1.2.4	hz=100	tcp_rtt_scale=32	sysname=FreeBSD	sysver=1400084	ipmode=4
o,0x00000000,1680090703.262829,10.0.2.15,22,10.0.2.2,59409,1073725440,17202,1026,65535,65700,0,0,4,1460,1,0,4,24,33580,68,65700,0,0,0,0,0
o,0x00000000,1680090703.263021,10.0.2.15,22,10.0.2.2,59409,1073725440,17202,1026,65535,65700,0,0,4,1460,1,0,4,24,33580,244,65700,0,68,0,0,0
i,0x00000000,1680090703.263704,10.0.2.15,22,10.0.2.2,59409,1073725440,17202,1026,65535,65700,0,0,4,1460,1,0,4,24,33580,244,65700,0,244,0,0,0
i,0x00000000,1680090703.263704,10.0.2.15,22,10.0.2.2,59409,1073725440,17270,1026,65535,65700,0,0,4,1460,1,0,4,24,33580,176,65700,0,176,0,0,0
i,0x00000000,1680090703.264743,10.0.2.15,22,10.0.2.2,59409,1073725440,17446,1026,65535,65700,0,0,4,1460,1,0,4,24,33580,0,65700,0,0,0,0,0
i,0x00000000,1680090703.264784,10.0.2.15,22,10.0.2.2,59409,1073725440,17446,1026,65535,65700,0,0,4,1460,1,0,4,24,33580,0,65700,36,0,0,0,0
o,0x00000000,1680090703.264803,10.0.2.15,22,10.0.2.2,59409,1073725440,17446,1026,65535,65700,0,0,4,1460,1,0,5,24,33580,0,65700,96,0,0,0,0
i,0x00000000,1680090703.264910,10.0.2.15,22,10.0.2.2,59409,1073725440,17446,1026,65535,65700,0,0,4,1460,1,0,4,24,33580,0,65700,96,0,0,0,0
o,0x00000000,1680090703.264930,10.0.2.15,22,10.0.2.2,59409,1073725440,17446,1026,65535,65604,0,0,5,1460,1,0,7,24,33580,0,65700,96,0,0,0,0
o,0x00000000,1680090703.265745,10.0.2.15,22,10.0.2.2,59409,1073725440,17446,1026,65535,65604,0,0,8,1460,1,0,4,24,33580,0,65700,0,0,0,0,0
i,0x00000000,1680090703.266511,10.0.2.15,22,10.0.2.2,59409,1073725440,17446,1026,65535,65604,0,0,8,1460,1,0,67108884,24,33580,0,65700,0,1,0,0,0
i,0x00000000,1680090704.563382,10.0.2.15,22,10.0.2.2,59414,1073725440,14600,0,65535,65700,0,0,4,1460,1,0,0,27,33580,0,65700,0,0,0,0,0
o,0x00000000,1680090704.577656,10.0.2.15,22,10.0.2.2,59414,1073725440,14600,1026,65535,65700,0,0,4,1460,1,0,0,27,33580,38,65700,41,0,0,0,0
i,0x00000000,1680090704.578393,10.0.2.15,22,10.0.2.2,59414,1073725440,14600,1026,65535,65700,0,0,4,1460,1,0,0,27,33580,38,65700,0,38,0,0,0
i,0x00000000,1680090704.579824,10.0.2.15,22,10.0.2.2,59414,1073725440,14638,1026,65535,65700,0,0,4,1460,1,0,0,24,33580,0,65700,0,0,0,0,0
i,0x00000000,1680090704.579852,10.0.2.15,22,10.0.2.2,59414,1073725440,14638,1026,65535,65700,0,0,4,1460,1,0,0,24,33580,0,65700,1460,0,0,0,0
o,0x00000000,1680090704.579880,10.0.2.15,22,10.0.2.2,59414,1073725440,14638,1026,65535,65700,0,0,4,1460,1,0,1,24,33580,0,65700,1504,0,0,0,0
o,0x00000000,1680090704.580888,10.0.2.15,22,10.0.2.2,59414,1073725440,14638,1026,65535,65700,0,0,4,1460,1,0,0,24,33580,1056,65700,1504,0,0,0,0
i,0x00000000,1680090704.581800,10.0.2.15,22,10.0.2.2,59414,1073725440,14638,1026,65535,65700,0,0,4,1460,1,0,0,24,33580,1056,65700,0,1056,0,0,0
i,0x00000000,1680090704.583294,10.0.2.15,22,10.0.2.2,59414,1073725440,15694,1026,65535,65700,0,0,4,1460,1,0,0,24,33580,0,65700,0,0,0,0,0
o,0x00000000,1680090704.586465,10.0.2.15,22,10.0.2.2,59414,1073725440,15694,1026,65535,65700,0,0,4,1460,1,0,0,24,33580,484,65700,0,0,0,0,0
i,0x00000000,1680090704.586937,10.0.2.15,22,10.0.2.2,59414,1073725440,15694,1026,65535,65700,0,0,4,1460,1,0,0,24,33580,484,65700,0,484,0,0,0
i,0x00000000,1680090704.592044,10.0.2.15,22,10.0.2.2,59414,1073725440,16178,1026,65535,65700,0,0,4,1460,1,0,0,24,33580,0,65700,0,0,0,0,0
i,0x00000000,1680090704.595943,10.0.2.15,22,10.0.2.2,59414,1073725440,16178,1026,65535,65700,0,0,4,1460,1,0,0,24,33580,0,65700,0,0,0,0,0
o,0x00000000,1680090704.595963,10.0.2.15,22,10.0.2.2,59414,1073725440,16178,1026,65535,65700,0,0,4,1460,1,0,1,24,33580,0,65700,44,0,0,0,0
o,0x00000000,1680090704.596109,10.0.2.15,22,10.0.2.2,59414,1073725440,16178,1026,65535,65700,0,0,4,1460,1,0,0,24,33580,44,65700,0,0,0,0,0
i,0x00000000,1680090704.597037,10.0.2.15,22,10.0.2.2,59414,1073725440,16178,1026,65535,65700,0,0,4,1460,1,0,0,24,33580,44,65700,0,44,0,0,0
i,0x00000000,1680090704.597458,10.0.2.15,22,10.0.2.2,59414,1073725440,16222,1026,65535,65700,0,0,4,1460,1,0,0,24,33580,0,65700,0,0,0,0,0
o,0x00000000,1680090704.603083,10.0.2.15,22,10.0.2.2,59414,1073725440,16222,1026,65535,65700,0,0,4,1460,1,0,0,24,33580,68,65700,0,0,0,0,0
i,0x00000000,1680090704.603628,10.0.2.15,22,10.0.2.2,59414,1073725440,16222,1026,65535,65700,0,0,4,1460,1,0,0,24,33580,68,65700,0,68,0,0,0
i,0x00000000,1680090704.609097,10.0.2.15,22,10.0.2.2,59414,1073725440,16290,1026,65535,65700,0,0,4,1460,1,0,0,24,33580,0,65700,0,0,0,0,0
o,0x00000000,1680090704.618116,10.0.2.15,22,10.0.2.2,59414,1073725440,16290,1026,65535,65700,0,0,4,1460,1,0,0,24,33580,28,65700,0,0,0,0,0
i,0x00000000,1680090704.618614,10.0.2.15,22,10.0.2.2,59414,1073725440,16290,1026,65535,65700,0,0,4,1460,1,0,0,24,33580,28,65700,0,28,0,0,0
i,0x00000000,1680090704.619093,10.0.2.15,22,10.0.2.2,59414,1073725440,16318,1026,65535,65700,0,0,4,1460,1,0,0,24,33580,0,65700,0,0,0,0,0
o,0x00000000,1680090704.620491,10.0.2.15,22,10.0.2.2,59414,1073725440,16318,1026,65535,65700,0,0,4,1460,1,0,0,24,33580,768,65700,112,0,0,0,0
i,0x00000000,1680090704.621536,10.0.2.15,22,10.0.2.2,59414,1073725440,16318,1026,65535,65700,0,0,4,1460,1,0,0,24,33580,768,65700,112,768,0,0,0
o,0x00000000,1680090704.621638,10.0.2.15,22,10.0.2.2,59414,1073725440,17086,1026,65535,65700,0,0,4,1460,1,0,0,24,33580,44,65700,0,0,0,0,0
i,0x00000000,1680090704.622698,10.0.2.15,22,10.0.2.2,59414,1073725440,17086,1026,65535,65700,0,0,4,1460,1,0,0,24,33580,44,65700,0,44,0,0,0
i,0x00000000,1680090704.625112,10.0.2.15,22,10.0.2.2,59414,1073725440,17130,1026,65535,65700,0,0,4,1460,1,0,0,24,33580,0,65700,0,0,0,0,0
o,0x00000000,1680090704.626023,10.0.2.15,22,10.0.2.2,59414,1073725440,17130,1026,65535,65700,0,0,4,1460,1,0,4,24,33580,72,65700,0,0,0,0,0
i,0x00000000,1680090704.626738,10.0.2.15,22,10.0.2.2,59414,1073725440,17130,1026,65535,65700,0,0,4,1460,1,0,4,24,33580,72,65700,0,72,0,0,0
o,0x00000000,1680090704.638462,172.16.1.2,38229,172.16.3.2,5201,1073725440,1073725440,2,0,0,0,0,2,536,0,1,672,100,32768,0,65536,0,0,0,0,0
i,0x00000000,1680090704.688481,172.16.1.2,38229,172.16.3.2,5201,1073725440,1073725440,2,0,0,0,0,2,536,0,1,672,100,32768,0,65536,0,1,0,0,0
o,0x00000000,1680090704.688607,172.16.1.2,38229,172.16.3.2,5201,48000,14480,2,65535,65700,6,6,4,1460,375,1,993,46,33580,0,65700,0,0,0,0,0
o,0x00000000,1680090704.688945,172.16.1.2,38229,172.16.3.2,5201,48000,14480,2,65535,65700,6,6,4,1460,375,1,996,46,33580,37,65700,0,0,0,0,0
i,0x00000000,1680090704.738325,172.16.1.2,38229,172.16.3.2,5201,48000,14480,2,65535,65700,6,6,4,1460,375,1,996,46,33580,37,65700,0,37,0,0,0
o,0x00000000,1680090704.738547,172.16.1.2,38229,172.16.3.2,5201,48000,14517,1026,65728,65728,6,6,4,1460,349,1,996,48,33580,4,65700,0,0,0,0,0
o,0x00000000,1680090704.738664,172.16.1.2,38229,172.16.3.2,5201,48000,14517,1026,65728,65728,6,6,4,1460,349,1,996,48,33580,128,65700,0,4,0,0,0
i,0x00000000,1680090704.777315,172.16.1.2,38229,172.16.3.2,5201,48000,14517,1026,65728,65728,6,6,4,1460,349,1,996,48,33580,128,65700,0,128,0,0,0
i,0x00000000,1680090704.777352,172.16.1.2,38229,172.16.3.2,5201,48000,14645,1026,65600,65728,6,6,4,1460,322,1,996,50,33580,0,65700,0,0,0,0,0
o,0x00000000,1680090704.777870,172.16.1.2,18300,172.16.3.2,5201,1073725440,1073725440,2,0,0,0,0,2,536,0,1,672,100,32768,0,65536,0,0,0,0,0
o,0x00000000,1680090704.812294,172.16.1.2,38229,172.16.3.2,5201,48000,14645,1026,65728,65728,6,6,4,1460,322,1,997,50,33580,0,65700,0,0,0,0,0
i,0x00000000,1680090704.817124,172.16.1.2,18300,172.16.3.2,5201,1073725440,1073725440,2,0,0,0,0,2,536,0,1,672,100,32768,0,65536,0,1,0,0,0
o,0x00000000,1680090704.817149,172.16.1.2,18300,172.16.3.2,5201,48000,14480,2,65535,65700,6,6,4,1460,367,1,993,48,33580,0,65700,0,0,0,0,0
o,0x00000000,1680090704.817255,172.16.1.2,18300,172.16.3.2,5201,48000,14480,2,65535,65700,6,6,4,1460,367,1,992,48,33580,37,65700,0,0,0,0,0
i,0x00000000,1680090704.851932,172.16.1.2,38229,172.16.3.2,5201,48000,14645,1026,65728,65728,6,6,4,1460,322,1,996,50,33580,0,65700,0,0,0,0,0
i,0x00000000,1680090704.851955,172.16.1.2,38229,172.16.3.2,5201,48000,14645,1026,65728,65728,6,6,4,1460,322,1,996,50,33580,0,65700,1,0,0,0,0
o,0x00000000,1680090704.851977,172.16.1.2,38229,172.16.3.2,5201,48000,14645,1026,65728,65728,6,6,4,1460,322,1,997,50,33580,0,65700,2,0,0,0,0
o,0x00000000,1680090704.852285,172.16.1.2,18300,172.16.3.2,5201,48000,14480,6,65535,65700,6,6,4,1460,367,1,992,48,33580,33580,65700,0,37,0,0,0
o,0x00000000,1680090704.852687,172.16.1.2,18300,172.16.3.2,5201,48000,14480,6,65535,65700,6,6,4,1460,367,1,992,48,33580,33580,65700,0,1485,0,0,0
o,0x00000000,1680090704.853114,172.16.1.2,18300,172.16.3.2,5201,48000,14480,6,65535,65700,6,6,4,1460,367,1,992,48,33580,33580,65700,0,2933,0,0,0
o,0x00000000,1680090704.853624,172.16.1.2,18300,172.16.3.2,5201,48000,14480,6,65535,65700,6,6,4,1460,367,1,992,48,33580,33580,65700,0,4381,0,0,0
o,0x00000000,1680090704.854084,172.16.1.2,18300,172.16.3.2,5201,48000,14480,6,65535,65700,6,6,4,1460,367,1,992,48,33580,33580,65700,0,5829,0,0,0
o,0x00000000,1680090704.854370,172.16.1.2,18300,172.16.3.2,5201,48000,14480,6,65535,65700,6,6,4,1460,367,1,992,48,33580,33580,65700,0,7277,0,0,0
o,0x00000000,1680090704.854962,172.16.1.2,18300,172.16.3.2,5201,48000,14480,6,65535,65700,6,6,4,1460,367,1,992,48,33580,33580,65700,0,8725,0,0,0
o,0x00000000,1680090704.855439,172.16.1.2,18300,172.16.3.2,5201,48000,14480,6,65535,65700,6,6,4,1460,367,1,992,48,33580,33580,65700,0,10173,0,0,0
o,0x00000000,1680090704.855899,172.16.1.2,18300,172.16.3.2,5201,48000,14480,6,65535,65700,6,6,4,1460,367,1,992,48,33580,33580,65700,0,11621,0,0,0
i,0x00000000,1680090704.894179,172.16.1.2,18300,172.16.3.2,5201,48000,14480,6,65535,65700,6,6,4,1460,367,1,992,48,33580,33580,65700,0,13069,0,0,0
o,0x00000000,1680090704.894328,172.16.1.2,18300,172.16.3.2,5201,48000,14517,6,65728,65728,6,6,4,1460,354,1,992,47,33580,33543,65700,0,13032,0,0,0
i,0x00000000,1680090704.894459,172.16.1.2,18300,172.16.3.2,5201,48000,14517,6,65728,65728,6,6,4,1460,354,1,992,47,33580,33543,65700,0,14480,0,0,0
o,0x00000000,1680090704.894482,172.16.1.2,18300,172.16.3.2,5201,48000,17413,6,64256,65728,6,6,4,1460,326,1,992,49,33580,30647,65700,0,11584,0,0,0
o,0x00000000,1680090704.894696,172.16.1.2,18300,172.16.3.2,5201,48000,17413,6,64256,65728,6,6,4,1460,326,1,992,49,33580,30647,65700,0,13032,0,0,0
o,0x00000000,1680090704.894850,172.16.1.2,18300,172.16.3.2,5201,48000,17413,6,64256,65728,6,6,4,1460,326,1,992,49,41772,30647,65700,0,14480,0,0,0
o,0x00000000,1680090704.894966,172.16.1.2,18300,172.16.3.2,5201,48000,17413,6,64256,65728,6,6,4,1460,326,1,992,49,41772,30647,65700,0,15928,0,0,0
i,0x00000000,1680090704.906848,172.16.1.2,18300,172.16.3.2,5201,48000,17413,6,64256,65728,6,6,4,1460,326,1,992,49,41772,41772,65700,0,17376,0,0,0
o,0x00000000,1680090704.906919,172.16.1.2,18300,172.16.3.2,5201,48000,20309,6,64256,65728,6,6,4,1460,306,1,992,49,41772,38876,65700,0,14480,0,0,0
o,0x00000000,1680090704.907095,172.16.1.2,18300,172.16.3.2,5201,48000,20309,6,64256,65728,6,6,4,1460,306,1,992,49,41772,38876,65700,0,15928,0,0,0
o,0x00000000,1680090704.907223,172.16.1.2,18300,172.16.3.2,5201,48000,20309,6,64256,65728,6,6,4,1460,306,1,992,49,41772,38876,65700,0,17376,0,0,0
o,0x00000000,1680090704.907372,172.16.1.2,18300,172.16.3.2,5201,48000,20309,6,64256,65728,6,6,4,1460,306,1,992,49,49964,38876,65700,0,18824,0,0,0
i,0x00000000,1680090704.907505,172.16.1.2,18300,172.16.3.2,5201,48000,20309,6,64256,65728,6,6,4,1460,306,1,992,49,49964,38876,65700,0,20272,0,0,0
o,0x00000000,1680090704.907536,172.16.1.2,18300,172.16.3.2,5201,48000,23205,6,62848,65728,6,6,4,1460,288,1,992,48,49964,35980,65700,0,17376,0,0,0
o,0x00000000,1680090704.907648,172.16.1.2,18300,172.16.3.2,5201,48000,23205,6,62848,65728,6,6,4,1460,288,1,992,48,49964,35980,65700,0,18824,0,0,0
o,0x00000000,1680090704.907759,172.16.1.2,18300,172.16.3.2,5201,48000,23205,6,62848,65728,6,6,4,1460,288,1,992,48,49964,35980,65700,0,20272,0,0,0
o,0x00000000,1680090704.907892,172.16.1.2,18300,172.16.3.2,5201,48000,23205,6,62848,65728,6,6,4,1460,288,1,992,48,49964,35980,65700,0,21720,0,0,0
i,0x00000000,1680090704.926946,172.16.1.2,18300,172.16.3.2,5201,48000,23205,6,62848,65728,6,6,4,1460,288,1,992,48,49964,49964,65700,0,23168,0,0,0
o,0x00000000,1680090704.926993,172.16.1.2,18300,172.16.3.2,5201,48000,26101,6,62848,65728,6,6,4,1460,280,1,992,45,49964,47068,65700,0,20272,0,0,0
o,0x00000000,1680090704.927177,172.16.1.2,18300,172.16.3.2,5201,48000,26101,6,62848,65728,6,6,4,1460,280,1,992,45,58156,47068,65700,0,21720,0,0,0
o,0x00000000,1680090704.927335,172.16.1.2,18300,172.16.3.2,5201,48000,26101,6,62848,65728,6,6,4,1460,280,1,992,45,58156,47068,65700,0,23168,0,0,0
o,0x00000000,1680090704.927468,172.16.1.2,18300,172.16.3.2,5201,48000,26101,6,62848,65728,6,6,4,1460,280,1,992,45,58156,47068,65700,0,24616,0,0,0
i,0x00000000,1680090704.947343,172.16.1.2,18300,172.16.3.2,5201,48000,26101,6,62848,65728,6,6,4,1460,280,1,992,45,58156,58156,65700,0,26064,0,0,0
o,0x00000000,1680090704.947367,172.16.1.2,18300,172.16.3.2,5201,48000,28997,6,64256,65728,6,6,4,1460,281,1,992,41,58156,55260,65700,0,23168,0,0,0
o,0x00000000,1680090704.947547,172.16.1.2,18300,172.16.3.2,5201,48000,28997,6,64256,65728,6,6,4,1460,281,1,992,41,58156,55260,65700,0,24616,0,0,0
o,0x00000000,1680090704.947709,172.16.1.2,18300,172.16.3.2,5201,48000,28997,6,64256,65728,6,6,4,1460,281,1,992,41,58156,55260,65700,0,26064,0,0,0
o,0x00000000,1680090704.947809,172.16.1.2,18300,172.16.3.2,5201,48000,28997,6,64256,65728,6,6,4,1460,281,1,992,41,66348,55260,65700,0,27512,0,0,0
i,0x00000000,1680090704.947916,172.16.1.2,18300,172.16.3.2,5201,48000,28997,6,64256,65728,6,6,4,1460,281,1,992,41,66348,55260,65700,0,28960,0,0,0
o,0x00000000,1680090704.947947,172.16.1.2,18300,172.16.3.2,5201,48000,31893,6,64256,65728,6,6,4,1460,266,1,992,41,66348,52364,65700,0,26064,0,0,0
o,0x00000000,1680090704.948072,172.16.1.2,18300,172.16.3.2,5201,48000,31893,6,64256,65728,6,6,4,1460,266,1,992,41,66348,52364,65700,0,27512,0,0,0
o,0x00000000,1680090704.948172,172.16.1.2,18300,172.16.3.2,5201,48000,31893,6,64256,65728,6,6,4,1460,266,1,992,41,66348,52364,65700,0,28960,0,0,0
o,0x00000000,1680090704.948266,172.16.1.2,18300,172.16.3.2,5201,48000,31893,6,64256,65728,6,6,4,1460,266,1,992,41,66348,52364,65700,0,30408,0,0,0
i,0x00000000,1680090704.968637,172.16.1.2,18300,172.16.3.2,5201,48000,31893,6,64256,65728,6,6,4,1460,266,1,992,41,66348,66348,65700,0,31856,0,0,0
o,0x00000000,1680090704.968742,172.16.1.2,18300,172.16.3.2,5201,48000,34789,6,64256,65728,6,6,4,1460,261,1,992,39,74540,63452,65700,0,28960,0,0,0
o,0x00000000,1680090704.968847,172.16.1.2,18300,172.16.3.2,5201,48000,34789,6,64256,65728,6,6,4,1460,261,1,992,39,74540,63452,65700,0,30408,0,0,0
o,0x00000000,1680090704.968979,172.16.1.2,18300,172.16.3.2,5201,48000,34789,6,64256,65728,6,6,4,1460,261,1,992,39,74540,63452,65700,0,31856,0,0,0
o,0x00000000,1680090704.969099,172.16.1.2,18300,172.16.3.2,5201,48000,34789,6,64256,65728,6,6,4,1460,261,1,992,39,74540,63452,65700,0,33304,0,0,0
i,0x00000000,1680090704.969235,172.16.1.2,18300,172.16.3.2,5201,48000,34789,6,64256,65728,6,6,4,1460,261,1,992,39,74540,63452,65700,0,34752,0,0,0
o,0x00000000,1680090704.969256,172.16.1.2,18300,172.16.3.2,5201,48000,37685,6,62848,65728,6,6,4,1460,253,1,992,38,74540,60556,65700,0,31856,0,0,0
o,0x00000000,1680090704.969355,172.16.1.2,18300,172.16.3.2,5201,48000,37685,6,62848,65728,6,6,4,1460,253,1,992,38,74540,60556,65700,0,33304,0,0,0
o,0x00000000,1680090704.969451,172.16.1.2,18300,172.16.3.2,5201,48000,37685,6,62848,65728,6,6,4,1460,253,1,992,38,74540,60556,65700,0,34752,0,0,0
o,0x00000000,1680090704.969552,172.16.1.2,18300,172.16.3.2,5201,48000,37685,6,62848,65728,6,6,4,1460,253,1,992,38,74540,60556,65700,0,36200,0,0,0
i,0x00000000,1680090704.987452,172.16.1.2,18300,172.16.3.2,5201,48000,37685,6,62848,65728,6,6,4,1460,253,1,992,38,82732,82732,65700,0,37648,0,0,0
o,0x00000000,1680090704.987581,172.16.1.2,18300,172.16.3.2,5201,48000,40581,6,62848,65728,6,6,4,1460,254,1,992,36,82732,79836,65700,0,34752,0,0,0
o,0x00000000,1680090704.987724,172.16.1.2,18300,172.16.3.2,5201,48000,40581,6,62848,65728,6,6,4,1460,254,1,992,36,82732,79836,65700,0,36200,0,0,0
o,0x00000000,1680090704.987832,172.16.1.2,18300,172.16.3.2,5201,48000,40581,6,62848,65728,6,6,4,1460,254,1,992,36,82732,79836,65700,0,37648,0,0,0
o,0x00000000,1680090704.987952,172.16.1.2,18300,172.16.3.2,5201,48000,40581,6,62848,65728,6,6,4,1460,254,1,992,36,82732,79836,65700,0,39096,0,0,0
i,0x00000000,1680090705.007913,172.16.1.2,18300,172.16.3.2,5201,48000,40581,6,62848,65728,6,6,4,1460,254,1,992,36,82732,82732,65700,0,40544,0,0,0
o,0x00000000,1680090705.008223,172.16.1.2,18300,172.16.3.2,5201,48000,43477,6,64256,65728,6,6,4,1460,263,1,992,36,82732,79836,65700,0,37648,0,0,0
o,0x00000000,1680090705.008525,172.16.1.2,18300,172.16.3.2,5201,48000,43477,6,64256,65728,6,6,4,1460,263,1,992,36,82732,79836,65700,0,39096,0,0,0
o,0x00000000,1680090705.008829,172.16.1.2,18300,172.16.3.2,5201,48000,43477,6,64256,65728,6,6,4,1460,263,1,992,36,82732,79836,65700,0,40544,0,0,0
o,0x00000000,1680090705.009183,172.16.1.2,18300,172.16.3.2,5201,48000,43477,6,64256,65728,6,6,4,1460,263,1,992,36,82732,79836,65700,0,41992,0,0,0
i,0x00000000,1680090705.009419,172.16.1.2,18300,172.16.3.2,5201,48000,43477,6,64256,65728,6,6,4,1460,263,1,992,36,82732,79836,65700,0,43440,0,0,0
o,0x00000000,1680090705.009464,172.16.1.2,18300,172.16.3.2,5201,48000,46373,6,64256,65728,6,6,4,1460,271,1,992,37,82732,76940,65700,0,40544,0,0,0
o,0x00000000,1680090705.009713,172.16.1.2,18300,172.16.3.2,5201,48000,46373,6,64256,65728,6,6,4,1460,271,1,992,37,82732,76940,65700,0,41992,0,0,0
o,0x00000000,1680090705.009934,172.16.1.2,18300,172.16.3.2,5201,48000,46373,6,64256,65728,6,6,4,1460,271,1,992,37,82732,76940,65700,0,43440,0,0,0
o,0x00000000,1680090705.010188,172.16.1.2,18300,172.16.3.2,5201,48000,46373,6,64256,65728,6,6,4,1460,271,1,992,37,82732,76940,65700,0,44888,0,0,0
i,0x00000000,1680090705.027021,172.16.1.2,18300,172.16.3.2,5201,48000,46373,6,64256,65728,6,6,4,1460,271,1,992,37,82732,82732,65700,0,46336,0,0,0
o,0x00000000,1680090705.027083,172.16.1.2,18300,172.16.3.2,5201,48000,49269,6,64256,65728,6,6,4,1460,274,1,992,36,82732,79836,65700,0,43440,0,0,0
o,0x00000000,1680090705.027253,172.16.1.2,18300,172.16.3.2,5201,48000,49269,6,64256,65728,6,6,4,1460,274,1,992,36,82732,79836,65700,0,44888,0,0,0
o,0x00000000,1680090705.027377,172.16.1.2,18300,172.16.3.2,5201,48000,49269,6,64256,65728,6,6,4,1460,274,1,992,36,82732,79836,65700,0,46336,0,0,0
o,0x00000000,1680090705.027525,172.16.1.2,18300,172.16.3.2,5201,48000,49269,6,64256,65728,6,6,4,1460,274,1,992,36,82732,79836,65700,0,47784,0,0,0
i,0x00000000,1680090705.027807,172.16.1.2,18300,172.16.3.2,5201,48000,49269,6,64256,65728,6,6,4,1460,274,1,992,36,82732,79836,65700,0,49232,0,0,0
o,0x00000000,1680090705.027826,172.16.1.2,18300,172.16.3.2,5201,48000,49269,6,62848,65728,6,6,4,1460,276,1,992,34,82732,76940,65700,0,46336,0,0,0
o,0x00000000,1680090705.027927,172.16.1.2,18300,172.16.3.2,5201,48000,49269,6,62848,65728,6,6,4,1460,276,1,992,34,82732,76940,65700,0,47784,0,0,0
i,0x00000000,1680090705.049779,172.16.1.2,18300,172.16.3.2,5201,48000,49269,6,62848,65728,6,6,4,1460,276,1,992,34,82732,82732,65700,0,49232,0,0,0
o,0x00000000,1680090705.049817,172.16.1.2,18300,172.16.3.2,5201,48000,49269,6,62848,65728,6,6,4,1460,278,1,992,33,82732,79836,65700,0,46336,0,0,0
o,0x00000000,1680090705.049934,172.16.1.2,18300,172.16.3.2,5201,48000,49269,6,62848,65728,6,6,4,1460,278,1,992,33,82732,79836,65700,0,47784,0,0,0
i,0x00000000,1680090705.067555,172.16.1.2,18300,172.16.3.2,5201,48000,49269,6,62848,65728,6,6,4,1460,278,1,992,33,82732,82732,65700,0,49232,0,0,0
o,0x00000000,1680090705.067587,172.16.1.2,18300,172.16.3.2,5201,48000,49269,6,64256,65728,6,6,4,1460,288,1,992,35,82732,79836,65700,0,46336,0,0,0
o,0x00000000,1680090705.067691,172.16.1.2,18300,172.16.3.2,5201,48000,49269,6,64256,65728,6,6,4,1460,288,1,992,35,82732,79836,65700,0,47784,0,0,0
i,0x00000000,1680090705.067785,172.16.1.2,18300,172.16.3.2,5201,48000,49269,6,64256,65728,6,6,4,1460,288,1,992,35,82732,79836,65700,0,49232,0,0,0
o,0x00000000,1680090705.067804,172.16.1.2,18300,172.16.3.2,5201,48000,49269,6,64256,65728,6,6,4,1460,296,1,992,36,82732,76940,65700,0,46336,0,0,0
o,0x00000000,1680090705.067901,172.16.1.2,18300,172.16.3.2,5201,48000,49269,6,64256,65728,6,6,4,1460,296,1,992,36,82732,76940,65700,0,47784,0,0,0
i,0x00000000,1680090705.087429,172.16.1.2,18300,172.16.3.2,5201,48000,49269,6,64256,65728,6,6,4,1460,296,1,992,36,82732,82732,65700,0,49232,0,0,0
o,0x00000000,1680090705.087466,172.16.1.2,18300,172.16.3.2,5201,48000,49269,6,64256,65728,6,6,4,1460,311,1,992,38,82732,79836,65700,0,46336,0,0,0
o,0x00000000,1680090705.087574,172.16.1.2,18300,172.16.3.2,5201,48000,49269,6,64256,65728,6,6,4,1460,311,1,992,38,82732,79836,65700,0,47784,0,0,0
i,0x00000000,1680090705.087669,172.16.1.2,18300,172.16.3.2,5201,48000,49269,6,64256,65728,6,6,4,1460,311,1,992,38,82732,79836,65700,0,49232,0,0,0
o,0x00000000,1680090705.087687,172.16.1.2,18300,172.16.3.2,5201,48000,49269,6,62848,65728,6,6,4,1460,317,1,992,38,82732,76940,65700,0,46336,0,0,0
o,0x00000000,1680090705.087782,172.16.1.2,18300,172.16.3.2,5201,48000,49269,6,62848,65728,6,6,4,1460,317,1,992,38,82732,76940,65700,0,47784,0,0,0
i,0x00000000,1680090705.106647,172.16.1.2,18300,172.16.3.2,5201,48000,49269,6,62848,65728,6,6,4,1460,317,1,992,38,82732,82732,65700,0,49232,0,0,0
o,0x00000000,1680090705.106792,172.16.1.2,18300,172.16.3.2,5201,48000,49269,6,62848,65728,6,6,4,1460,330,1,992,39,82732,79836,65700,0,46336,0,0,0
o,0x00000000,1680090705.106943,172.16.1.2,18300,172.16.3.2,5201,48000,49269,6,62848,65728,6,6,4,1460,330,1,992,39,82732,79836,65700,0,47784,0,0,0
i,0x00000000,1680090705.126851,172.16.1.2,18300,172.16.3.2,5201,48000,49269,6,62848,65728,6,6,4,1460,330,1,992,39,82732,82732,65700,0,49232,0,0,0
o,0x00000000,1680090705.126902,172.16.1.2,18300,172.16.3.2,5201,48000,49269,6,64256,65728,6,6,4,1460,349,1,992,42,82732,79836,65700,0,46336,0,0,0
o,0x00000000,1680090705.127020,172.16.1.2,18300,172.16.3.2,5201,48000,49269,6,64256,65728,6,6,4,1460,349,1,992,42,82732,79836,65700,0,47784,0,0,0
i,0x00000000,1680090705.127159,172.16.1.2,18300,172.16.3.2,5201,48000,49269,6,64256,65728,6,6,4,1460,349,1,992,42,82732,79836,65700,0,49232,0,0,0
o,0x00000000,1680090705.127189,172.16.1.2,18300,172.16.3.2,5201,48000,49269,6,64256,65728,6,6,4,1460,366,1,992,44,82732,76940,65700,0,46336,0,0,0
o,0x00000000,1680090705.127300,172.16.1.2,18300,172.16.3.2,5201,48000,49269,6,64256,65728,6,6,4,1460,366,1,992,44,82732,76940,65700,0,47784,0,0,0
i,0x00000000,1680090705.147670,172.16.1.2,18300,172.16.3.2,5201,48000,49269,6,64256,65728,6,6,4,1460,366,1,992,44,82732,82732,65700,0,49232,0,0,0
o,0x00000000,1680090705.147725,172.16.1.2,18300,172.16.3.2,5201,48000,49269,6,64256,65728,6,6,4,1460,381,1,992,45,82732,79836,65700,0,46336,0,0,0
o,0x00000000,1680090705.147842,172.16.1.2,18300,172.16.3.2,5201,48000,49269,6,64256,65728,6,6,4,1460,381,1,992,45,82732,79836,65700,0,47784,0,0,0
i,0x00000000,1680090705.147946,172.16.1.2,18300,172.16.3.2,5201,48000,49269,6,64256,65728,6,6,4,1460,381,1,992,45,82732,79836,65700,0,49232,0,0,0
o,0x00000000,1680090705.147962,172.16.1.2,18300,172.16.3.2,5201,48000,49269,6,62848,65728,6,6,4,1460,394,1,992,46,82732,76940,65700,0,46336,0,0,0
o,0x00000000,1680090705.148066,172.16.1.2,18300,172.16.3.2,5201,48000,49269,6,62848,65728,6,6,4,1460,394,1,992,46,82732,76940,65700,0,47784,0,0,0
i,0x00000000,1680090705.167095,172.16.1.2,18300,172.16.3.2,5201,48000,49269,6,62848,65728,6,6,4,1460,394,1,992,46,82732,82732,65700,0,49232,0,0,0
o,0x00000000,1680090705.167124,172.16.1.2,18300,172.16.3.2,5201,48000,49269,6,62848,65728,6,6,4,1460,405,1,992,45,82732,79836,65700,0,46336,0,0,0
o,0x00000000,1680090705.167230,172.16.1.2,18300,172.16.3.2,5201,48000,49269,6,62848,65728,6,6,4,1460,405,1,992,45,82732,79836,65700,0,47784,0,0,0
i,0x00000000,1680090705.187346,172.16.1.2,18300,172.16.3.2,5201,48000,49269,6,62848,65728,6,6,4,1460,405,1,992,45,82732,82732,65700,0,49232,0,0,0
o,0x00000000,1680090705.187387,172.16.1.2,18300,172.16.3.2,5201,48000,49269,6,64256,65728,6,6,4,1460,423,1,992,47,82732,79836,65700,0,46336,0,0,0
o,0x00000000,1680090705.187489,172.16.1.2,18300,172.16.3.2,5201,48000,49269,6,64256,65728,6,6,4,1460,423,1,992,47,82732,79836,65700,0,47784,0,0,0
i,0x00000000,1680090705.187577,172.16.1.2,18300,172.16.3.2,5201,48000,49269,6,64256,65728,6,6,4,1460,423,1,992,47,82732,79836,65700,0,49232,0,0,0
o,0x00000000,1680090705.187594,172.16.1.2,18300,172.16.3.2,5201,48000,49269,6,64256,65728,6,6,4,1460,439,1,992,48,82732,76940,65700,0,46336,0,0,0
o,0x00000000,1680090705.187683,172.16.1.2,18300,172.16.3.2,5201,48000,49269,6,64256,65728,6,6,4,1460,439,1,992,48,82732,76940,65700,0,47784,0,0,0
i,0x00000000,1680090705.207008,172.16.1.2,18300,172.16.3.2,5201,48000,49269,6,64256,65728,6,6,4,1460,439,1,992,48,82732,82732,65700,0,49232,0,0,0
o,0x00000000,1680090705.207028,172.16.1.2,18300,172.16.3.2,5201,48000,49269,6,64256,65728,6,6,4,1460,465,1,992,52,82732,79836,65700,0,46336,0,0,0
o,0x00000000,1680090705.207130,172.16.1.2,18300,172.16.3.2,5201,48000,49269,6,64256,65728,6,6,4,1460,465,1,992,52,82732,79836,65700,0,47784,0,0,0
i,0x00000000,1680090705.207232,172.16.1.2,18300,172.16.3.2,5201,48000,49269,6,64256,65728,6,6,4,1460,465,1,992,52,82732,79836,65700,0,49232,0,0,0
o,0x00000000,1680090705.207249,172.16.1.2,18300,172.16.3.2,5201,48000,49269,6,62848,65728,6,6,4,1460,479,1,992,51,82732,76940,65700,0,46336,0,0,0
o,0x00000000,1680090705.207347,172.16.1.2,18300,172.16.3.2,5201,48000,49269,6,62848,65728,6,6,4,1460,479,1,992,51,82732,76940,65700,0,47784,0,0,0
i,0x00000000,1680090705.227304,172.16.1.2,18300,172.16.3.2,5201,48000,49269,6,62848,65728,6,6,4,1460,479,1,992,51,82732,82732,65700,0,49232,0,0,0
o,0x00000000,1680090705.227402,172.16.1.2,18300,172.16.3.2,5201,48000,49269,6,62848,65728,6,6,4,1460,500,1,992,53,82732,79836,65700,0,46336,0,0,0
o,0x00000000,1680090705.227505,172.16.1.2,18300,172.16.3.2,5201,48000,49269,6,62848,65728,6,6,4,1460,500,1,992,53,82732,79836,65700,0,47784,0,0,0
i,0x00000000,1680090705.248377,172.16.1.2,18300,172.16.3.2,5201,48000,49269,6,62848,65728,6,6,4,1460,500,1,992,53,82732,82732,65700,0,49232,0,0,0
o,0x00000000,1680090705.248480,172.16.1.2,18300,172.16.3.2,5201,48000,49269,6,64256,65728,6,6,4,1460,526,1,992,56,82732,79836,65700,0,46336,0,0,0
o,0x00000000,1680090705.248582,172.16.1.2,18300,172.16.3.2,5201,48000,49269,6,64256,65728,6,6,4,1460,526,1,992,56,82732,79836,65700,0,47784,0,0,0
i,0x00000000,1680090705.248696,172.16.1.2,18300,172.16.3.2,5201,48000,49269,6,64256,65728,6,6,4,1460,526,1,992,56,82732,79836,65700,0,49232,0,0,0
o,0x00000000,1680090705.248714,172.16.1.2,18300,172.16.3.2,5201,48000,49269,6,64256,65728,6,6,4,1460,541,1,992,55,82732,76940,65700,0,46336,0,0,0
o,0x00000000,1680090705.248816,172.16.1.2,18300,172.16.3.2,5201,48000,49269,6,64256,65728,6,6,4,1460,541,1,992,55,82732,76940,65700,0,47784,0,0,0
i,0x00000000,1680090705.267414,172.16.1.2,18300,172.16.3.2,5201,48000,49269,6,64256,65728,6,6,4,1460,541,1,992,55,82732,82732,65700,0,49232,0,0,0
o,0x00000000,1680090705.267548,172.16.1.2,18300,172.16.3.2,5201,48000,49269,6,64256,65728,6,6,4,1460,554,1,992,54,82732,79836,65700,0,46336,0,0,0
o,0x00000000,1680090705.267683,172.16.1.2,18300,172.16.3.2,5201,48000,49269,6,64256,65728,6,6,4,1460,554,1,992,54,82732,79836,65700,0,47784,0,0,0
i,0x00000000,1680090705.267816,172.16.1.2,18300,172.16.3.2,5201,48000,49269,6,64256,65728,6,6,4,1460,554,1,992,54,82732,79836,65700,0,49232,0,0,0
o,0x00000000,1680090705.267837,172.16.1.2,18300,172.16.3.2,5201,48000,49269,6,62848,65728,6,6,4,1460,565,1,992,53,82732,76940,65700,0,46336,0,0,0
o,0x00000000,1680090705.267964,172.16.1.2,18300,172.16.3.2,5201,48000,49269,6,62848,65728,6,6,4,1460,565,1,992,53,82732,76940,65700,0,47784,0,0,0
i,0x00000000,1680090705.289178,172.16.1.2,18300,172.16.3.2,5201,48000,49269,6,62848,65728,6,6,4,1460,565,1,992,53,82732,82732,65700,0,49232,0,0,0
o,0x00000000,1680090705.289293,172.16.1.2,18300,172.16.3.2,5201,48000,49269,6,62848,65728,6,6,4,1460,575,1,992,52,82732,79836,65700,0,46336,0,0,0
o,0x00000000,1680090705.289426,172.16.1.2,18300,172.16.3.2,5201,48000,49269,6,62848,65728,6,6,4,1460,575,1,992,52,82732,79836,65700,0,47784,0,0,0
i,0x00000000,1680090705.307026,172.16.1.2,18300,172.16.3.2,5201,48000,49269,6,62848,65728,6,6,4,1460,575,1,992,52,82732,82732,65700,0,49232,0,0,0
o,0x00000000,1680090705.307054,172.16.1.2,18300,172.16.3.2,5201,48000,49269,6,64256,65728,6,6,4,1460,592,1,992,53,82732,79836,65700,0,46336,0,0,0
o,0x00000000,1680090705.307174,172.16.1.2,18300,172.16.3.2,5201,48000,49269,6,64256,65728,6,6,4,1460,592,1,992,53,82732,79836,65700,0,47784,0,0,0
i,0x00000000,1680090705.307302,172.16.1.2,18300,172.16.3.2,5201,48000,49269,6,64256,65728,6,6,4,1460,592,1,992,53,82732,79836,65700,0,49232,0,0,0
o,0x00000000,1680090705.307319,172.16.1.2,18300,172.16.3.2,5201,48000,49269,6,64256,65728,6,6,4,1460,598,1,992,51,82732,76940,65700,0,46336,0,0,0
o,0x00000000,1680090705.307409,172.16.1.2,18300,172.16.3.2,5201,48000,49269,6,64256,65728,6,6,4,1460,598,1,992,51,82732,76940,65700,0,47784,0,0,0
i,0x00000000,1680090705.329397,172.16.1.2,18300,172.16.3.2,5201,48000,49269,6,64256,65728,6,6,4,1460,598,1,992,51,82732,82732,65700,0,49232,0,0,0
o,0x00000000,1680090705.329687,172.16.1.2,18300,172.16.3.2,5201,48000,49269,6,64256,65728,6,6,4,1460,604,1,992,50,82732,79836,65700,0,46336,0,0,0
o,0x00000000,1680090705.330134,172.16.1.2,18300,172.16.3.2,5201,48000,49269,6,64256,65728,6,6,4,1460,604,1,992,50,82732,79836,65700,0,47784,0,0,0
i,0x00000000,1680090705.330507,172.16.1.2,18300,172.16.3.2,5201,48000,49269,6,64256,65728,6,6,4,1460,604,1,992,50,82732,79836,65700,0,49232,0,0,0
o,0x00000000,1680090705.330560,172.16.1.2,18300,172.16.3.2,5201,48000,49269,6,62848,65728,6,6,4,1460,609,1,992,48,82732,76940,65700,0,46336,0,0,0
o,0x00000000,1680090705.330851,172.16.1.2,18300,172.16.3.2,5201,48000,49269,6,62848,65728,6,6,4,1460,609,1,992,48,82732,76940,65700,0,47784,0,0,0
i,0x00000000,1680090705.349478,172.16.1.2,18300,172.16.3.2,5201,48000,49269,6,62848,65728,6,6,4,1460,609,1,992,48,82732,82732,65700,0,49232,0,0,0
o,0x00000000,1680090705.349511,172.16.1.2,18300,172.16.3.2,5201,48000,49269,6,62848,65728,6,6,4,1460,613,1,992,47,82732,79836,65700,0,46336,0,0,0
o,0x00000000,1680090705.349715,172.16.1.2,18300,172.16.3.2,5201,48000,49269,6,62848,65728,6,6,4,1460,613,1,992,47,82732,79836,65700,0,47784,0,0,0
i,0x00000000,1680090705.371533,172.16.1.2,18300,172.16.3.2,5201,48000,49269,6,62848,65728,6,6,4,1460,613,1,992,47,82732,82732,65700,0,49232,0,0,0
o,0x00000000,1680090705.371632,172.16.1.2,18300,172.16.3.2,5201,48000,49269,6,64256,65728,6,6,4,1460,629,1,992,50,82732,79836,65700,0,46336,0,0,0
o,0x00000000,1680090705.371727,172.16.1.2,18300,172.16.3.2,5201,48000,49269,6,64256,65728,6,6,4,1460,629,1,992,50,82732,79836,65700,0,47784,0,0,0
i,0x00000000,1680090705.371814,172.16.1.2,18300,172.16.3.2,5201,48000,49269,6,64256,65728,6,6,4,1460,629,1,992,50,82732,79836,65700,0,49232,0,0,0
o,0x00000000,1680090705.371832,172.16.1.2,18300,172.16.3.2,5201,48000,49269,6,64256,65728,6,6,4,1460,635,1,992,49,82732,76940,65700,0,46336,0,0,0
o,0x00000000,1680090705.371921,172.16.1.2,18300,172.16.3.2,5201,48000,49269,6,64256,65728,6,6,4,1460,635,1,992,49,82732,76940,65700,0,47784,0,0,0
i,0x00000000,1680090705.387467,172.16.1.2,18300,172.16.3.2,5201,48000,49269,6,64256,65728,6,6,4,1460,635,1,992,49,82732,82732,65700,0,49232,0,0,0
o,0x00000000,1680090705.387561,172.16.1.2,18300,172.16.3.2,5201,48000,49269,6,64256,65728,6,6,4,1460,636,1,992,47,82732,79836,65700,0,46336,0,0,0
o,0x00000000,1680090705.387662,172.16.1.2,18300,172.16.3.2,5201,48000,49269,6,64256,65728,6,6,4,1460,636,1,992,47,82732,79836,65700,0,47784,0,0,0
i,0x00000000,1680090705.387750,172.16.1.2,18300,172.16.3.2,5201,48000,49269,6,64256,65728,6,6,4,1460,636,1,992,47,82732,79836,65700,0,49232,0,0,0
o,0x00000000,1680090705.387769,172.16.1.2,18300,172.16.3.2,5201,48000,49269,6,62848,65728,6,6,4,1460,637,1,992,45,82732,76940,65700,0,46336,0,0,0
o,0x00000000,1680090705.387857,172.16.1.2,18300,172.16.3.2,5201,48000,49269,6,62848,65728,6,6,4,1460,637,1,992,45,82732,76940,65700,0,47784,0,0,0
i,0x00000000,1680090705.407245,172.16.1.2,18300,172.16.3.2,5201,48000,49269,6,62848,65728,6,6,4,1460,637,1,992,45,82732,82732,65700,0,49232,0,0,0
o,0x00000000,1680090705.407356,172.16.1.2,18300,172.16.3.2,5201,48000,49269,6,62848,65728,6,6,4,1460,634,1,992,45,82732,79836,65700,0,46336,0,0,0
o,0x00000000,1680090705.407473,172.16.1.2,18300,172.16.3.2,5201,48000,49269,6,62848,65728,6,6,4,1460,634,1,992,45,82732,79836,65700,0,47784,0,0,0
i,0x00000000,1680090705.427934,172.16.1.2,18300,172.16.3.2,5201,48000,49269,6,62848,65728,6,6,4,1460,634,1,992,45,82732,82732,65700,0,49232,0,0,0
o,0x00000000,1680090705.427956,172.16.1.2,18300,172.16.3.2,5201,48000,49269,6,64256,65728,6,6,4,1460,639,1,992,45,82732,79836,65700,0,46336,0,0,0
o,0x00000000,1680090705.428130,172.16.1.2,18300,172.16.3.2,5201,48000,49269,6,64256,65728,6,6,4,1460,639,1,992,45,82732,79836,65700,0,47784,0,0,0
i,0x00000000,1680090705.428225,172.16.1.2,18300,172.16.3.2,5201,48000,49269,6,64256,65728,6,6,4,1460,639,1,992,45,82732,79836,65700,0,49232,0,0,0
o,0x00000000,1680090705.428256,172.16.1.2,18300,172.16.3.2,5201,48000,49269,6,64256,65728,6,6,4,1460,636,1,992,44,82732,76940,65700,0,46336,0,0,0
o,0x00000000,1680090705.428362,172.16.1.2,18300,172.16.3.2,5201,48000,49269,6,64256,65728,6,6,4,1460,636,1,992,44,82732,76940,65700,0,47784,0,0,0
i,0x00000000,1680090705.447285,172.16.1.2,18300,172.16.3.2,5201,48000,49269,6,64256,65728,6,6,4,1460,636,1,992,44,82732,82732,65700,0,49232,0,0,0
o,0x00000000,1680090705.447309,172.16.1.2,18300,172.16.3.2,5201,48000,49269,6,64256,65728,6,6,4,1460,633,1,992,44,82732,79836,65700,0,46336,0,0,0
o,0x00000000,1680090705.447411,172.16.1.2,18300,172.16.3.2,5201,48000,49269,6,64256,65728,6,6,4,1460,633,1,992,44,82732,79836,65700,0,47784,0,0,0
i,0x00000000,1680090705.447499,172.16.1.2,18300,172.16.3.2,5201,48000,49269,6,64256,65728,6,6,4,1460,633,1,992,44,82732,79836,65700,0,49232,0,0,0
o,0x00000000,1680090705.447533,172.16.1.2,18300,172.16.3.2,5201,48000,49269,6,62848,65728,6,6,4,1460,630,1,992,43,82732,76940,65700,0,46336,0,0,0
o,0x00000000,1680090705.447622,172.16.1.2,18300,172.16.3.2,5201,48000,49269,6,62848,65728,6,6,4,1460,630,1,992,43,82732,76940,65700,0,47784,0,0,0
i,0x00000000,1680090705.467518,172.16.1.2,18300,172.16.3.2,5201,48000,49269,6,62848,65728,6,6,4,1460,630,1,992,43,82732,82732,65700,0,49232,0,0,0
o,0x00000000,1680090705.467660,172.16.1.2,18300,172.16.3.2,5201,48000,49269,6,62848,65728,6,6,4,1460,628,1,992,43,82732,79836,65700,0,46336,0,0,0
o,0x00000000,1680090705.467823,172.16.1.2,18300,172.16.3.2,5201,48000,49269,6,62848,65728,6,6,4,1460,628,1,992,43,82732,79836,65700,0,47784,0,0,0
i,0x00000000,1680090705.487502,172.16.1.2,18300,172.16.3.2,5201,48000,49269,6,62848,65728,6,6,4,1460,628,1,992,43,82732,82732,65700,0,49232,0,0,0
o,0x00000000,1680090705.487622,172.16.1.2,18300,172.16.3.2,5201,48000,49269,6,64256,65728,6,6,4,1460,634,1,992,44,82732,79836,65700,0,46336,0,0,0
o,0x00000000,1680090705.487750,172.16.1.2,18300,172.16.3.2,5201,48000,49269,6,64256,65728,6,6,4,1460,634,1,992,44,82732,79836,65700,0,47784,0,0,0
i,0x00000000,1680090705.487842,172.16.1.2,18300,172.16.3.2,5201,48000,49269,6,64256,65728,6,6,4,1460,634,1,992,44,82732,79836,65700,0,49232,0,0,0
o,0x00000000,1680090705.487870,172.16.1.2,18300,172.16.3.2,5201,48000,49269,6,64256,65728,6,6,4,1460,631,1,992,43,82732,76940,65700,0,46336,0,0,0
o,0x00000000,1680090705.487989,172.16.1.2,18300,172.16.3.2,5201,48000,49269,6,64256,65728,6,6,4,1460,631,1,992,43,82732,76940,65700,0,47784,0,0,0
i,0x00000000,1680090705.506963,172.16.1.2,18300,172.16.3.2,5201,48000,49269,6,64256,65728,6,6,4,1460,631,1,992,43,82732,82732,65700,0,49232,0,0,0
o,0x00000000,1680090705.506985,172.16.1.2,18300,172.16.3.2,5201,48000,49269,6,64256,65728,6,6,4,1460,629,1,992,43,82732,79836,65700,0,46336,0,0,0
o,0x00000000,1680090705.507114,172.16.1.2,18300,172.16.3.2,5201,48000,49269,6,64256,65728,6,6,4,1460,629,1,992,43,82732,79836,65700,0,47784,0,0,0
i,0x00000000,1680090705.507201,172.16.1.2,18300,172.16.3.2,5201,48000,49269,6,64256,65728,6,6,4,1460,629,1,992,43,82732,79836,65700,0,49232,0,0,0
o,0x00000000,1680090705.507218,172.16.1.2,18300,172.16.3.2,5201,48000,49269,6,62848,65728,6,6,4,1460,627,1,992,43,82732,76940,65700,0,46336,0,0,0
o,0x00000000,1680090705.507306,172.16.1.2,18300,172.16.3.2,5201,48000,49269,6,62848,65728,6,6,4,1460,627,1,992,43,82732,76940,65700,0,47784,0,0,0
i,0x00000000,1680090705.537519,172.16.1.2,18300,172.16.3.2,5201,48000,49269,6,62848,65728,6,6,4,1460,627,1,992,43,82732,82732,65700,0,49232,0,0,0
o,0x00000000,1680090705.537626,172.16.1.2,18300,172.16.3.2,5201,48000,49269,6,62848,65728,6,6,4,1460,629,1,992,42,82732,79836,65700,0,46336,0,0,0
o,0x00000000,1680090705.537755,172.16.1.2,18300,172.16.3.2,5201,48000,49269,6,62848,65728,6,6,4,1460,629,1,992,42,82732,79836,65700,0,47784,0,0,0
i,0x00000000,1680090705.546742,172.16.1.2,18300,172.16.3.2,5201,48000,49269,6,62848,65728,6,6,4,1460,629,1,992,42,82732,82732,65700,0,49232,0,0,0
o,0x00000000,1680090705.546763,172.16.1.2,18300,172.16.3.2,5201,48000,49269,6,64256,65728,6,6,4,1460,635,1,992,43,82732,79836,65700,0,46336,0,0,0
o,0x00000000,1680090705.546856,172.16.1.2,18300,172.16.3.2,5201,48000,49269,6,64256,65728,6,6,4,1460,635,1,992,43,82732,79836,65700,0,47784,0,0,0
i,0x00000000,1680090705.567389,172.16.1.2,18300,172.16.3.2,5201,48000,49269,6,64256,65728,6,6,4,1460,635,1,992,43,82732,82732,65700,0,49232,0,0,0
o,0x00000000,1680090705.567413,172.16.1.2,18300,172.16.3.2,5201,48000,49269,6,64256,65728,6,6,4,1460,640,1,992,44,82732,79836,65700,0,46336,0,0,0
o,0x00000000,1680090705.567556,172.16.1.2,18300,172.16.3.2,5201,48000,49269,6,64256,65728,6,6,4,1460,640,1,992,44,82732,79836,65700,0,47784,0,0,0
i,0x00000000,1680090705.567643,172.16.1.2,18300,172.16.3.2,5201,48000,49269,6,64256,65728,6,6,4,1460,640,1,992,44,82732,79836,65700,0,49232,0,0,0
o,0x00000000,1680090705.567661,172.16.1.2,18300,172.16.3.2,5201,48000,49269,6,64256,65728,6,6,4,1460,636,1,992,44,82732,76940,65700,0,46336,0,0,0
o,0x00000000,1680090705.567749,172.16.1.2,18300,172.16.3.2,5201,48000,49269,6,64256,65728,6,6,4,1460,636,1,992,44,82732,76940,65700,0,47784,0,0,0
i,0x00000000,1680090705.567838,172.16.1.2,18300,172.16.3.2,5201,48000,49269,6,64256,65728,6,6,4,1460,636,1,992,44,82732,76940,65700,0,49232,0,0,0
o,0x00000000,1680090705.567856,172.16.1.2,18300,172.16.3.2,5201,48000,49269,6,62848,65728,6,6,4,1460,633,1,992,43,82732,74044,65700,0,46336,0,0,0
o,0x00000000,1680090705.567988,172.16.1.2,18300,172.16.3.2,5201,48000,49269,6,62848,65728,6,6,4,1460,633,1,992,43,82732,74044,65700,0,47784,0,0,0
i,0x00000000,1680090705.587853,172.16.1.2,18300,172.16.3.2,5201,48000,49269,6,62848,65728,6,6,4,1460,633,1,992,43,82732,82732,65700,0,49232,0,0,0
o,0x00000000,1680090705.587958,172.16.1.2,18300,172.16.3.2,5201,48000,49269,6,62848,65728,6,6,4,1460,634,1,992,43,82732,79836,65700,0,46336,0,0,0
o,0x00000000,1680090705.588072,172.16.1.2,18300,172.16.3.2,5201,48000,49269,6,62848,65728,6,6,4,1460,634,1,992,43,82732,79836,65700,0,47784,0,0,0
i,0x00000000,1680090705.607544,172.16.1.2,18300,172.16.3.2,5201,48000,49269,6,62848,65728,6,6,4,1460,634,1,992,43,82732,82732,65700,0,49232,0,0,0
o,0x00000000,1680090705.607641,172.16.1.2,18300,172.16.3.2,5201,48000,49269,6,64256,65728,6,6,4,1460,643,1,992,44,82732,79836,65700,0,46336,0,0,0
o,0x00000000,1680090705.607741,172.16.1.2,18300,172.16.3.2,5201,48000,49269,6,64256,65728,6,6,4,1460,643,1,992,44,82732,79836,65700,0,47784,0,0,0
i,0x00000000,1680090705.607826,172.16.1.2,18300,172.16.3.2,5201,48000,49269,6,64256,65728,6,6,4,1460,643,1,992,44,82732,79836,65700,0,49232,0,0,0
o,0x00000000,1680090705.607844,172.16.1.2,18300,172.16.3.2,5201,48000,49269,6,64256,65728,6,6,4,1460,643,1,992,43,82732,76940,65700,0,46336,0,0,0
o,0x00000000,1680090705.607931,172.16.1.2,18300,172.16.3.2,5201,48000,49269,6,64256,65728,6,6,4,1460,643,1,992,43,82732,76940,65700,0,47784,0,0,0
i,0x00000000,1680090705.627139,172.16.1.2,18300,172.16.3.2,5201,48000,49269,6,64256,65728,6,6,4,1460,643,1,992,43,82732,82732,65700,0,49232,0,0,0
o,0x00000000,1680090705.627163,172.16.1.2,18300,172.16.3.2,5201,48000,49269,6,64256,65728,6,6,4,1460,643,1,992,43,82732,79836,65700,0,46336,0,0,0
o,0x00000000,1680090705.627388,172.16.1.2,18300,172.16.3.2,5201,48000,49269,6,64256,65728,6,6,4,1460,643,1,992,43,82732,79836,65700,0,47784,0,0,0
i,0x00000000,1680090705.627511,172.16.1.2,18300,172.16.3.2,5201,48000,49269,6,64256,65728,6,6,4,1460,643,1,992,43,82732,79836,65700,0,49232,0,0,0
o,0x00000000,1680090705.627536,172.16.1.2,18300,172.16.3.2,5201,48000,49269,6,62848,65728,6,6,4,1460,643,1,992,42,82732,76940,65700,0,46336,0,0,0
o,0x00000000,1680090705.627681,172.16.1.2,18300,172.16.3.2,5201,48000,49269,6,62848,65728,6,6,4,1460,643,1,992,42,82732,76940,65700,0,47784,0,0,0
i,0x00000000,1680090705.646870,172.16.1.2,18300,172.16.3.2,5201,48000,49269,6,62848,65728,6,6,4,1460,643,1,992,42,82732,82732,65700,0,49232,0,0,0
o,0x00000000,1680090705.647011,172.16.1.2,18300,172.16.3.2,5201,48000,49269,6,62848,65728,6,6,4,1460,643,1,992,41,82732,79836,65700,0,46336,0,0,0
o,0x00000000,1680090705.647154,172.16.1.2,18300,172.16.3.2,5201,48000,49269,6,62848,65728,6,6,4,1460,643,1,992,41,82732,79836,65700,0,47784,0,0,0
i,0x00000000,1680090705.667508,172.16.1.2,18300,172.16.3.2,5201,48000,49269,6,62848,65728,6,6,4,1460,643,1,992,41,82732,82732,65700,0,49232,0,0,0
o,0x00000000,1680090705.667535,172.16.1.2,18300,172.16.3.2,5201,48000,49269,6,64256,65728,6,6,4,1460,651,1,992,43,82732,79836,65700,0,46336,0,0,0
o,0x00000000,1680090705.667652,172.16.1.2,18300,172.16.3.2,5201,48000,49269,6,64256,65728,6,6,4,1460,651,1,992,43,82732,79836,65700,0,47784,0,0,0
i,0x00000000,1680090705.667748,172.16.1.2,18300,172.16.3.2,5201,48000,49269,6,64256,65728,6,6,4,1460,651,1,992,43,82732,79836,65700,0,49232,0,0,0
o,0x00000000,1680090705.667766,172.16.1.2,18300,172.16.3.2,5201,48000,49269,6,64256,65728,6,6,4,1460,650,1,992,43,82732,76940,65700,0,46336,0,0,0
o,0x00000000,1680090705.667855,172.16.1.2,18300,172.16.3.2,5201,48000,49269,6,64256,65728,6,6,4,1460,650,1,992,43,82732,76940,65700,0,47784,0,0,0
i,0x00000000,1680090705.692757,172.16.1.2,18300,172.16.3.2,5201,48000,49269,6,64256,65728,6,6,4,1460,650,1,992,43,82732,82732,65700,0,49232,0,0,0
o,0x00000000,1680090705.692785,172.16.1.2,18300,172.16.3.2,5201,48000,49269,6,64256,65728,6,6,4,1460,653,1,992,43,82732,79836,65700,0,46336,0,0,0
o,0x00000000,1680090705.692899,172.16.1.2,18300,172.16.3.2,5201,48000,49269,6,64256,65728,6,6,4,1460,653,1,992,43,82732,79836,65700,0,47784,0,0,0
i,0x00000000,1680090705.692988,172.16.1.2,18300,172.16.3.2,5201,48000,49269,6,64256,65728,6,6,4,1460,653,1,992,43,82732,79836,65700,0,49232,0,0,0
o,0x00000000,1680090705.693006,172.16.1.2,18300,172.16.3.2,5201,48000,49269,6,62848,65728,6,6,4,1460,656,1,992,43,82732,76940,65700,0,46336,0,0,0
o,0x00000000,1680090705.693096,172.16.1.2,18300,172.16.3.2,5201,48000,49269,6,62848,65728,6,6,4,1460,656,1,992,43,82732,76940,65700,0,47784,0,0,0
i,0x00000000,1680090705.707288,172.16.1.2,18300,172.16.3.2,5201,48000,49269,6,62848,65728,6,6,4,1460,656,1,992,43,82732,82732,65700,0,49232,0,0,0
o,0x00000000,1680090705.707313,172.16.1.2,18300,172.16.3.2,5201,48000,49269,6,62848,65728,6,6,4,1460,650,1,992,44,82732,79836,65700,0,46336,0,0,0
o,0x00000000,1680090705.707413,172.16.1.2,18300,172.16.3.2,5201,48000,49269,6,62848,65728,6,6,4,1460,650,1,992,44,82732,79836,65700,0,47784,0,0,0
i,0x00000000,1680090705.727195,172.16.1.2,18300,172.16.3.2,5201,48000,49269,6,62848,65728,6,6,4,1460,650,1,992,44,82732,82732,65700,0,49232,0,0,0
o,0x00000000,1680090705.727272,172.16.1.2,18300,172.16.3.2,5201,48000,49269,6,64256,65728,6,6,4,1460,653,1,992,44,82732,79836,65700,0,46336,0,0,0
o,0x00000000,1680090705.727385,172.16.1.2,18300,172.16.3.2,5201,48000,49269,6,64256,65728,6,6,4,1460,653,1,992,44,82732,79836,65700,0,47784,0,0,0
i,0x00000000,1680090705.727481,172.16.1.2,18300,172.16.3.2,5201,48000,49269,6,64256,65728,6,6,4,1460,653,1,992,44,82732,79836,65700,0,49232,0,0,0
o,0x00000000,1680090705.727498,172.16.1.2,18300,172.16.3.2,5201,48000,49269,6,64256,65728,6,6,4,1460,644,1,992,45,82732,76940,65700,0,46336,0,0,0
o,0x00000000,1680090705.727587,172.16.1.2,18300,172.16.3.2,5201,48000,49269,6,64256,65728,6,6,4,1460,644,1,992,45,82732,76940,65700,0,47784,0,0,0
i,0x00000000,1680090705.747771,172.16.1.2,18300,172.16.3.2,5201,48000,49269,6,64256,65728,6,6,4,1460,644,1,992,45,82732,82732,65700,0,49232,0,0,0
o,0x00000000,1680090705.747893,172.16.1.2,18300,172.16.3.2,5201,48000,49269,6,64256,65728,6,6,4,1460,644,1,992,44,82732,79836,65700,0,46336,0,0,0
o,0x00000000,1680090705.747994,172.16.1.2,18300,172.16.3.2,5201,48000,49269,6,64256,65728,6,6,4,1460,644,1,992,44,82732,79836,65700,0,47784,0,0,0
i,0x00000000,1680090705.748120,172.16.1.2,18300,172.16.3.2,5201,48000,49269,6,64256,65728,6,6,4,1460,644,1,992,44,82732,79836,65700,0,49232,0,0,0
o,0x00000000,1680090705.748137,172.16.1.2,18300,172.16.3.2,5201,48000,49269,6,62848,65728,6,6,4,1460,636,1,992,44,82732,76940,65700,0,46336,0,0,0
o,0x00000000,1680090705.748238,172.16.1.2,18300,172.16.3.2,5201,48000,49269,6,62848,65728,6,6,4,1460,636,1,992,44,82732,76940,65700,0,47784,0,0,0
i,0x00000000,1680090705.767479,172.16.1.2,18300,172.16.3.2,5201,48000,49269,6,62848,65728,6,6,4,1460,636,1,992,44,82732,82732,65700,0,49232,0,0,0
o,0x00000000,1680090705.767580,172.16.1.2,18300,172.16.3.2,5201,48000,49269,6,62848,65728,6,6,4,1460,637,1,992,43,82732,79836,65700,0,46336,0,0,0
o,0x00000000,1680090705.767675,172.16.1.2,18300,172.16.3.2,5201,48000,49269,6,62848,65728,6,6,4,1460,637,1,992,43,82732,79836,65700,0,47784,0,0,0
i,0x00000000,1680090705.786953,172.16.1.2,18300,172.16.3.2,5201,48000,49269,6,62848,65728,6,6,4,1460,637,1,992,43,82732,82732,65700,0,49232,0,0,0
o,0x00000000,1680090705.786999,172.16.1.2,18300,172.16.3.2,5201,48000,49269,6,64256,65728,6,6,4,1460,646,1,992,45,82732,79836,65700,0,46336,0,0,0
o,0x00000000,1680090705.787145,172.16.1.2,18300,172.16.3.2,5201,48000,49269,6,64256,65728,6,6,4,1460,646,1,992,45,82732,79836,65700,0,47784,0,0,0
i,0x00000000,1680090705.787254,172.16.1.2,18300,172.16.3.2,5201,48000,49269,6,64256,65728,6,6,4,1460,646,1,992,45,82732,79836,65700,0,49232,0,0,0
o,0x00000000,1680090705.787316,172.16.1.2,18300,172.16.3.2,5201,48000,49269,6,64256,65728,6,6,4,1460,646,1,992,44,82732,76940,65700,0,46336,0,0,0
o,0x00000000,1680090705.787442,172.16.1.2,18300,172.16.3.2,5201,48000,49269,6,64256,65728,6,6,4,1460,646,1,992,44,82732,76940,65700,0,47784,0,0,0
i,0x00000000,1680090705.807279,172.16.1.2,18300,172.16.3.2,5201,48000,49269,6,64256,65728,6,6,4,1460,646,1,992,44,82732,82732,65700,0,49232,0,0,0
o,0x00000000,1680090705.807303,172.16.1.2,18300,172.16.3.2,5201,48000,49269,6,64256,65728,6,6,4,1460,646,1,992,43,82732,79836,65700,0,46336,0,0,0
o,0x00000000,1680090705.807411,172.16.1.2,18300,172.16.3.2,5201,48000,49269,6,64256,65728,6,6,4,1460,646,1,992,43,82732,79836,65700,0,47784,0,0,0
i,0x00000000,1680090705.807504,172.16.1.2,18300,172.16.3.2,5201,48000,49269,6,64256,65728,6,6,4,1460,646,1,992,43,82732,79836,65700,0,49232,0,0,0
o,0x00000000,1680090705.807529,172.16.1.2,18300,172.16.3.2,5201,48000,49269,6,62848,65728,6,6,4,1460,646,1,992,42,82732,76940,65700,0,46336,0,0,0
o,0x00000000,1680090705.807624,172.16.1.2,18300,172.16.3.2,5201,48000,49269,6,62848,65728,6,6,4,1460,646,1,992,42,82732,76940,65700,0,47784,0,0,0
i,0x00000000,1680090705.826832,172.16.1.2,18300,172.16.3.2,5201,48000,49269,6,62848,65728,6,6,4,1460,646,1,992,42,82732,82732,65700,0,49232,0,0,0
o,0x00000000,1680090705.826928,172.16.1.2,18300,172.16.3.2,5201,48000,49269,6,62848,65728,6,6,4,1460,646,1,992,41,82732,79836,65700,0,46336,0,0,0
o,0x00000000,1680090705.827025,172.16.1.2,18300,172.16.3.2,5201,48000,49269,6,62848,65728,6,6,4,1460,646,1,992,41,82732,79836,65700,0,47784,0,0,0
i,0x00000000,1680090705.847709,172.16.1.2,18300,172.16.3.2,5201,48000,49269,6,62848,65728,6,6,4,1460,646,1,992,41,82732,82732,65700,0,49232,0,0,0
o,0x00000000,1680090705.847810,172.16.1.2,18300,172.16.3.2,5201,48000,49269,6,64256,65728,6,6,4,1460,654,1,992,43,82732,79836,65700,0,46336,0,0,0
o,0x00000000,1680090705.847906,172.16.1.2,18300,172.16.3.2,5201,48000,49269,6,64256,65728,6,6,4,1460,654,1,992,43,82732,79836,65700,0,47784,0,0,0
i,0x00000000,1680090705.847998,172.16.1.2,18300,172.16.3.2,5201,48000,49269,6,64256,65728,6,6,4,1460,654,1,992,43,82732,79836,65700,0,49232,0,0,0
o,0x00000000,1680090705.848025,172.16.1.2,18300,172.16.3.2,5201,48000,49269,6,64256,65728,6,6,4,1460,653,1,992,43,82732,76940,65700,0,46336,0,0,0
o,0x00000000,1680090705.848136,172.16.1.2,18300,172.16.3.2,5201,48000,49269,6,64256,65728,6,6,4,1460,653,1,992,43,82732,76940,65700,0,47784,0,0,0
i,0x00000000,1680090705.867465,172.16.1.2,18300,172.16.3.2,5201,48000,49269,6,64256,65728,6,6,4,1460,653,1,992,43,82732,82732,65700,0,49232,0,0,0
o,0x00000000,1680090705.867504,172.16.1.2,18300,172.16.3.2,5201,48000,49269,6,64256,65728,6,6,4,1460,648,1,992,43,82732,79836,65700,0,46336,0,0,0
o,0x00000000,1680090705.867660,172.16.1.2,18300,172.16.3.2,5201,48000,49269,6,64256,65728,6,6,4,1460,648,1,992,43,82732,79836,65700,0,47784,0,0,0
i,0x00000000,1680090705.867791,172.16.1.2,18300,172.16.3.2,5201,48000,49269,6,64256,65728,6,6,4,1460,648,1,992,43,82732,79836,65700,0,49232,0,0,0
o,0x00000000,1680090705.867840,172.16.1.2,18300,172.16.3.2,5201,48000,49269,6,62848,65728,6,6,4,1460,643,1,992,44,82732,76940,65700,0,46336,0,0,0
o,0x00000000,1680090705.868001,172.16.1.2,18300,172.16.3.2,5201,48000,49269,6,62848,65728,6,6,4,1460,643,1,992,44,82732,76940,65700,0,47784,0,0,0
i,0x00000000,1680090705.886889,172.16.1.2,18300,172.16.3.2,5201,48000,49269,6,62848,65728,6,6,4,1460,643,1,992,44,82732,82732,65700,0,49232,0,0,0
o,0x00000000,1680090705.886912,172.16.1.2,18300,172.16.3.2,5201,48000,49269,6,62848,65728,6,6,4,1460,639,1,992,43,82732,79836,65700,0,46336,0,0,0
o,0x00000000,1680090705.887074,172.16.1.2,18300,172.16.3.2,5201,48000,49269,6,62848,65728,6,6,4,1460,639,1,992,43,82732,79836,65700,0,47784,0,0,0
i,0x00000000,1680090705.910386,172.16.1.2,18300,172.16.3.2,5201,48000,49269,6,62848,65728,6,6,4,1460,639,1,992,43,82732,82732,65700,0,49232,0,0,0
o,0x00000000,1680090705.910411,172.16.1.2,18300,172.16.3.2,5201,48000,49269,6,64256,65728,6,6,4,1460,644,1,992,44,82732,79836,65700,0,46336,0,0,0
o,0x00000000,1680090705.910561,172.16.1.2,18300,172.16.3.2,5201,48000,49269,6,64256,65728,6,6,4,1460,644,1,992,44,82732,79836,65700,0,47784,0,0,0
i,0x00000000,1680090705.910648,172.16.1.2,18300,172.16.3.2,5201,48000,49269,6,64256,65728,6,6,4,1460,644,1,992,44,82732,79836,65700,0,49232,0,0,0
o,0x00000000,1680090705.910665,172.16.1.2,18300,172.16.3.2,5201,48000,49269,6,64256,65728,6,6,4,1460,644,1,992,43,82732,76940,65700,0,46336,0,0,0
o,0x00000000,1680090705.910755,172.16.1.2,18300,172.16.3.2,5201,48000,49269,6,64256,65728,6,6,4,1460,644,1,992,43,82732,76940,65700,0,47784,0,0,0
i,0x00000000,1680090705.926869,172.16.1.2,18300,172.16.3.2,5201,48000,49269,6,64256,65728,6,6,4,1460,644,1,992,43,82732,82732,65700,0,49232,0,0,0
o,0x00000000,1680090705.926869,172.16.1.2,18300,172.16.3.2,5201,48000,49269,6,64256,65728,6,6,4,1460,644,1,992,42,82732,79836,65700,0,46336,0,0,0
o,0x00000000,1680090705.926869,172.16.1.2,18300,172.16.3.2,5201,48000,49269,6,64256,65728,6,6,4,1460,644,1,992,42,82732,79836,65700,0,47784,0,0,0
i,0x00000000,1680090705.926869,172.16.1.2,18300,172.16.3.2,5201,48000,49269,6,64256,65728,6,6,4,1460,644,1,992,42,82732,79836,65700,0,49232,0,0,0
o,0x00000000,1680090705.927482,172.16.1.2,18300,172.16.3.2,5201,48000,49269,6,62848,65728,6,6,4,1460,644,1,992,42,82732,76940,65700,0,46336,0,0,0
o,0x00000000,1680090705.927657,172.16.1.2,18300,172.16.3.2,5201,48000,49269,6,62848,65728,6,6,4,1460,644,1,992,42,82732,76940,65700,0,47784,0,0,0
i,0x00000000,1680090705.947191,172.16.1.2,18300,172.16.3.2,5201,48000,49269,6,62848,65728,6,6,4,1460,644,1,992,42,82732,82732,65700,0,49232,0,0,0
o,0x00000000,1680090705.947292,172.16.1.2,18300,172.16.3.2,5201,48000,49269,6,62848,65728,6,6,4,1460,640,1,992,42,82732,79836,65700,0,46336,0,0,0
o,0x00000000,1680090705.947401,172.16.1.2,18300,172.16.3.2,5201,48000,49269,6,62848,65728,6,6,4,1460,640,1,992,42,82732,79836,65700,0,47784,0,0,0
i,0x00000000,1680090705.966796,172.16.1.2,18300,172.16.3.2,5201,48000,49269,6,62848,65728,6,6,4,1460,640,1,992,42,82732,82732,65700,0,49232,0,0,0
o,0x00000000,1680090705.966905,172.16.1.2,18300,172.16.3.2,5201,48000,49269,6,64256,65728,6,6,4,1460,644,1,992,43,82732,79836,65700,0,46336,0,0,0
o,0x00000000,1680090705.967034,172.16.1.2,18300,172.16.3.2,5201,48000,49269,6,64256,65728,6,6,4,1460,644,1,992,43,82732,79836,65700,0,47784,0,0,0
i,0x00000000,1680090705.967236,172.16.1.2,18300,172.16.3.2,5201,48000,49269,6,64256,65728,6,6,4,1460,644,1,992,43,82732,79836,65700,0,49232,0,0,0
o,0x00000000,1680090705.967283,172.16.1.2,18300,172.16.3.2,5201,48000,49269,6,64256,65728,6,6,4,1460,640,1,992,43,82732,76940,65700,0,46336,0,0,0
o,0x00000000,1680090705.967524,172.16.1.2,18300,172.16.3.2,5201,48000,49269,6,64256,65728,6,6,4,1460,640,1,992,43,82732,76940,65700,0,47784,0,0,0
i,0x00000000,1680090705.987603,172.16.1.2,18300,172.16.3.2,5201,48000,49269,6,64256,65728,6,6,4,1460,640,1,992,43,82732,82732,65700,0,49232,0,0,0
o,0x00000000,1680090705.987698,172.16.1.2,18300,172.16.3.2,5201,48000,49269,6,64256,65728,6,6,4,1460,636,1,992,43,82732,79836,65700,0,46336,0,0,0
o,0x00000000,1680090705.987793,172.16.1.2,18300,172.16.3.2,5201,48000,49269,6,64256,65728,6,6,4,1460,636,1,992,43,82732,79836,65700,0,47784,0,0,0
i,0x00000000,1680090705.987879,172.16.1.2,18300,172.16.3.2,5201,48000,49269,6,64256,65728,6,6,4,1460,636,1,992,43,82732,79836,65700,0,49232,0,0,0
o,0x00000000,1680090705.987897,172.16.1.2,18300,172.16.3.2,5201,48000,49269,6,62848,65728,6,6,4,1460,633,1,992,43,82732,76940,65700,0,46336,0,0,0
o,0x00000000,1680090705.987987,172.16.1.2,18300,172.16.3.2,5201,48000,49269,6,62848,65728,6,6,4,1460,633,1,992,43,82732,76940,65700,0,47784,0,0,0
i,0x00000000,1680090706.008145,172.16.1.2,18300,172.16.3.2,5201,48000,49269,6,62848,65728,6,6,4,1460,633,1,992,43,82732,82732,65700,0,49232,0,0,0
o,0x00000000,1680090706.008171,172.16.1.2,18300,172.16.3.2,5201,48000,49269,6,62848,65728,6,6,4,1460,630,1,992,43,82732,79836,65700,0,46336,0,0,0
o,0x00000000,1680090706.008266,172.16.1.2,18300,172.16.3.2,5201,48000,49269,6,62848,65728,6,6,4,1460,630,1,992,43,82732,79836,65700,0,47784,0,0,0
i,0x00000000,1680090706.026889,172.16.1.2,18300,172.16.3.2,5201,48000,49269,6,62848,65728,6,6,4,1460,630,1,992,43,82732,82732,65700,0,49232,0,0,0
o,0x00000000,1680090706.026916,172.16.1.2,18300,172.16.3.2,5201,48000,49269,6,64256,65728,6,6,4,1460,636,1,992,44,82732,79836,65700,0,46336,0,0,0
o,0x00000000,1680090706.027048,172.16.1.2,18300,172.16.3.2,5201,48000,49269,6,64256,65728,6,6,4,1460,636,1,992,44,82732,79836,65700,0,47784,0,0,0
i,0x00000000,1680090706.027158,172.16.1.2,18300,172.16.3.2,5201,48000,49269,6,64256,65728,6,6,4,1460,636,1,992,44,82732,79836,65700,0,49232,0,0,0
o,0x00000000,1680090706.027194,172.16.1.2,18300,172.16.3.2,5201,48000,49269,6,64256,65728,6,6,4,1460,633,1,992,43,82732,76940,65700,0,46336,0,0,0
o,0x00000000,1680090706.027311,172.16.1.2,18300,172.16.3.2,5201,48000,49269,6,64256,65728,6,6,4,1460,633,1,992,43,82732,76940,65700,0,47784,0,0,0
i,0x00000000,1680090706.048417,172.16.1.2,18300,172.16.3.2,5201,48000,49269,6,64256,65728,6,6,4,1460,633,1,992,43,82732,82732,65700,0,49232,0,0,0
o,0x00000000,1680090706.048443,172.16.1.2,18300,172.16.3.2,5201,48000,49269,6,64256,65728,6,6,4,1460,630,1,992,43,82732,79836,65700,0,46336,0,0,0
o,0x00000000,1680090706.048620,172.16.1.2,18300,172.16.3.2,5201,48000,49269,6,64256,65728,6,6,4,1460,630,1,992,43,82732,79836,65700,0,47784,0,0,0
i,0x00000000,1680090706.048728,172.16.1.2,18300,172.16.3.2,5201,48000,49269,6,64256,65728,6,6,4,1460,630,1,992,43,82732,79836,65700,0,49232,0,0,0
o,0x00000000,1680090706.048746,172.16.1.2,18300,172.16.3.2,5201,48000,49269,6,62848,65728,6,6,4,1460,628,1,992,43,82732,76940,65700,0,46336,0,0,0
o,0x00000000,1680090706.048840,172.16.1.2,18300,172.16.3.2,5201,48000,49269,6,62848,65728,6,6,4,1460,628,1,992,43,82732,76940,65700,0,47784,0,0,0
i,0x00000000,1680090706.075979,172.16.1.2,18300,172.16.3.2,5201,48000,49269,6,62848,65728,6,6,4,1460,628,1,992,43,82732,82732,65700,0,49232,0,0,0
o,0x00000000,1680090706.076027,172.16.1.2,18300,172.16.3.2,5201,48000,49269,6,62848,65728,6,6,4,1460,630,1,992,42,82732,79836,65700,0,46336,0,0,0
o,0x00000000,1680090706.076189,172.16.1.2,18300,172.16.3.2,5201,48000,49269,6,62848,65728,6,6,4,1460,630,1,992,42,82732,79836,65700,0,47784,0,0,0
i,0x00000000,1680090706.087032,172.16.1.2,18300,172.16.3.2,5201,48000,49269,6,62848,65728,6,6,4,1460,630,1,992,42,82732,82732,65700,0,49232,0,0,0
o,0x00000000,1680090706.087075,172.16.1.2,18300,172.16.3.2,5201,48000,49269,6,64256,65728,6,6,4,1460,636,1,992,43,82732,79836,65700,0,46336,0,0,0
o,0x00000000,1680090706.087219,172.16.1.2,18300,172.16.3.2,5201,48000,49269,6,64256,65728,6,6,4,1460,636,1,992,43,82732,79836,65700,0,47784,0,0,0
i,0x00000000,1680090706.087329,172.16.1.2,18300,172.16.3.2,5201,48000,49269,6,64256,65728,6,6,4,1460,636,1,992,43,82732,79836,65700,0,49232,0,0,0
o,0x00000000,1680090706.087353,172.16.1.2,18300,172.16.3.2,5201,48000,49269,6,64256,65728,6,6,4,1460,633,1,992,43,82732,76940,65700,0,46336,0,0,0
o,0x00000000,1680090706.087456,172.16.1.2,18300,172.16.3.2,5201,48000,49269,6,64256,65728,6,6,4,1460,633,1,992,43,82732,76940,65700,0,47784,0,0,0
i,0x00000000,1680090706.107363,172.16.1.2,18300,172.16.3.2,5201,48000,49269,6,64256,65728,6,6,4,1460,633,1,992,43,82732,82732,65700,0,49232,0,0,0
o,0x00000000,1680090706.107467,172.16.1.2,18300,172.16.3.2,5201,48000,49269,6,64256,65728,6,6,4,1460,630,1,992,43,82732,79836,65700,0,46336,0,0,0
o,0x00000000,1680090706.107565,172.16.1.2,18300,172.16.3.2,5201,48000,49269,6,64256,65728,6,6,4,1460,630,1,992,43,82732,79836,65700,0,47784,0,0,0
i,0x00000000,1680090706.107691,172.16.1.2,18300,172.16.3.2,5201,48000,49269,6,64256,65728,6,6,4,1460,630,1,992,43,82732,79836,65700,0,49232,0,0,0
o,0x00000000,1680090706.107716,172.16.1.2,18300,172.16.3.2,5201,48000,49269,6,62848,65728,6,6,4,1460,628,1,992,43,82732,76940,65700,0,46336,0,0,0
o,0x00000000,1680090706.107804,172.16.1.2,18300,172.16.3.2,5201,48000,49269,6,62848,65728,6,6,4,1460,628,1,992,43,82732,76940,65700,0,47784,0,0,0
i,0x00000000,1680090706.127200,172.16.1.2,18300,172.16.3.2,5201,48000,49269,6,62848,65728,6,6,4,1460,628,1,992,43,82732,82732,65700,0,49232,0,0,0
o,0x00000000,1680090706.127238,172.16.1.2,18300,172.16.3.2,5201,48000,49269,6,62848,65728,6,6,4,1460,630,1,992,42,82732,79836,65700,0,46336,0,0,0
o,0x00000000,1680090706.127362,172.16.1.2,18300,172.16.3.2,5201,48000,49269,6,62848,65728,6,6,4,1460,630,1,992,42,82732,79836,65700,0,47784,0,0,0
i,0x00000000,1680090706.147834,172.16.1.2,18300,172.16.3.2,5201,48000,49269,6,62848,65728,6,6,4,1460,630,1,992,42,82732,82732,65700,0,49232,0,0,0
o,0x00000000,1680090706.147860,172.16.1.2,18300,172.16.3.2,5201,48000,49269,6,64256,65728,6,6,4,1460,640,1,992,45,82732,79836,65700,0,46336,0,0,0
o,0x00000000,1680090706.148020,172.16.1.2,18300,172.16.3.2,5201,48000,49269,6,64256,65728,6,6,4,1460,640,1,992,45,82732,79836,65700,0,47784,0,0,0
i,0x00000000,1680090706.148128,172.16.1.2,18300,172.16.3.2,5201,48000,49269,6,64256,65728,6,6,4,1460,640,1,992,45,82732,79836,65700,0,49232,0,0,0
o,0x00000000,1680090706.148146,172.16.1.2,18300,172.16.3.2,5201,48000,49269,6,64256,65728,6,6,4,1460,640,1,992,43,82732,76940,65700,0,46336,0,0,0
o,0x00000000,1680090706.148247,172.16.1.2,18300,172.16.3.2,5201,48000,49269,6,64256,65728,6,6,4,1460,640,1,992,43,82732,76940,65700,0,47784,0,0,0
i,0x00000000,1680090706.167087,172.16.1.2,18300,172.16.3.2,5201,48000,49269,6,64256,65728,6,6,4,1460,640,1,992,43,82732,82732,65700,0,49232,0,0,0
