enable_time_secs=1680091434	enable_time_usecs=685541	siftrver=1.2.4	hz=100	tcp_rtt_scale=32	sysname=FreeBSD	sysver=1400084	ipmode=4
o,0x00000000,1680091434.685907,10.0.2.15,22,10.0.2.2,59767,1073725440,17202,1026,65535,65700,0,0,4,1460,1,0,4,23,33580,68,65700,0,0,0,0,0
o,0x00000000,1680091434.686155,10.0.2.15,22,10.0.2.2,59767,1073725440,17202,1026,65535,65700,0,0,4,1460,1,0,4,23,33580,244,65700,0,68,0,0,0
i,0x00000000,1680091434.686431,10.0.2.15,22,10.0.2.2,59767,1073725440,17202,1026,65535,65700,0,0,4,1460,1,0,4,23,33580,244,65700,0,244,0,0,0
i,0x00000000,1680091434.686452,10.0.2.15,22,10.0.2.2,59767,1073725440,17270,1026,65535,65700,0,0,4,1460,1,0,4,23,33580,176,65700,0,176,0,0,0
i,0x00000000,1680091434.687771,10.0.2.15,22,10.0.2.2,59767,1073725440,17446,1026,65535,65700,0,0,4,1460,1,0,4,23,33580,0,65700,0,0,0,0,0
i,0x00000000,1680091434.687795,10.0.2.15,22,10.0.2.2,59767,1073725440,17446,1026,65535,65700,0,0,4,1460,1,0,4,23,33580,0,65700,36,0,0,0,0
o,0x00000000,1680091434.687815,10.0.2.15,22,10.0.2.2,59767,1073725440,17446,1026,65535,65700,0,0,4,1460,1,0,5,23,33580,0,65700,96,0,0,0,0
i,0x00000000,1680091434.687916,10.0.2.15,22,10.0.2.2,59767,1073725440,17446,1026,65535,65700,0,0,4,1460,1,0,4,23,33580,0,65700,96,0,0,0,0
o,0x00000000,1680091434.687934,10.0.2.15,22,10.0.2.2,59767,1073725440,17446,1026,65535,65604,0,0,5,1460,1,0,7,23,33580,0,65700,96,0,0,0,0
o,0x00000000,1680091434.688565,10.0.2.15,22,10.0.2.2,59767,1073725440,17446,1026,65535,65604,0,0,8,1460,1,0,4,23,33580,0,65700,0,0,0,0,0
i,0x00000000,1680091434.689331,10.0.2.15,22,10.0.2.2,59767,1073725440,17446,1026,65535,65604,0,0,8,1460,1,0,67108884,23,33580,0,65700,0,1,0,0,0
i,0x00000000,1680091435.946880,10.0.2.15,22,10.0.2.2,59771,1073725440,14600,0,65535,65700,0,0,4,1460,1,0,0,27,33580,0,65700,0,0,0,0,0
o,0x00000000,1680091435.955509,10.0.2.15,22,10.0.2.2,59771,1073725440,14600,1026,65535,65700,0,0,4,1460,1,0,0,27,33580,38,65700,41,0,0,0,0
i,0x00000000,1680091435.956095,10.0.2.15,22,10.0.2.2,59771,1073725440,14600,1026,65535,65700,0,0,4,1460,1,0,0,27,33580,38,65700,0,38,0,0,0
i,0x00000000,1680091435.957845,10.0.2.15,22,10.0.2.2,59771,1073725440,14638,1026,65535,65700,0,0,4,1460,1,0,0,24,33580,0,65700,0,0,0,0,0
i,0x00000000,1680091435.957862,10.0.2.15,22,10.0.2.2,59771,1073725440,14638,1026,65535,65700,0,0,4,1460,1,0,0,24,33580,0,65700,1460,0,0,0,0
o,0x00000000,1680091435.957879,10.0.2.15,22,10.0.2.2,59771,1073725440,14638,1026,65535,65700,0,0,4,1460,1,0,1,24,33580,0,65700,1504,0,0,0,0
o,0x00000000,1680091435.958417,10.0.2.15,22,10.0.2.2,59771,1073725440,14638,1026,65535,65700,0,0,4,1460,1,0,0,24,33580,1056,65700,1504,0,0,0,0
i,0x00000000,1680091435.959274,10.0.2.15,22,10.0.2.2,59771,1073725440,14638,1026,65535,65700,0,0,4,1460,1,0,0,24,33580,1056,65700,0,1056,0,0,0
i,0x00000000,1680091435.960504,10.0.2.15,22,10.0.2.2,59771,1073725440,15694,1026,65535,65700,0,0,4,1460,1,0,0,24,33580,0,65700,0,0,0,0,0
o,0x00000000,1680091435.964033,10.0.2.15,22,10.0.2.2,59771,1073725440,15694,1026,65535,65700,0,0,4,1460,1,0,0,24,33580,484,65700,0,0,0,0,0
i,0x00000000,1680091435.965489,10.0.2.15,22,10.0.2.2,59771,1073725440,15694,1026,65535,65700,0,0,4,1460,1,0,0,24,33580,484,65700,0,484,0,0,0
i,0x00000000,1680091435.971301,10.0.2.15,22,10.0.2.2,59771,1073725440,16178,1026,65535,65700,0,0,4,1460,1,0,0,24,33580,0,65700,0,0,0,0,0
i,0x00000000,1680091435.977727,10.0.2.15,22,10.0.2.2,59771,1073725440,16178,1026,65535,65700,0,0,4,1460,1,0,0,24,33580,0,65700,0,0,0,0,0
o,0x00000000,1680091435.977767,10.0.2.15,22,10.0.2.2,59771,1073725440,16178,1026,65535,65700,0,0,4,1460,1,0,1,24,33580,0,65700,44,0,0,0,0
o,0x00000000,1680091435.977972,10.0.2.15,22,10.0.2.2,59771,1073725440,16178,1026,65535,65700,0,0,4,1460,1,0,0,24,33580,44,65700,0,0,0,0,0
i,0x00000000,1680091435.978792,10.0.2.15,22,10.0.2.2,59771,1073725440,16178,1026,65535,65700,0,0,4,1460,1,0,0,24,33580,44,65700,0,44,0,0,0
i,0x00000000,1680091435.978847,10.0.2.15,22,10.0.2.2,59771,1073725440,16222,1026,65535,65700,0,0,4,1460,1,0,0,24,33580,0,65700,0,0,0,0,0
o,0x00000000,1680091435.985765,10.0.2.15,22,10.0.2.2,59771,1073725440,16222,1026,65535,65700,0,0,4,1460,1,0,0,24,33580,68,65700,0,0,0,0,0
i,0x00000000,1680091435.986502,10.0.2.15,22,10.0.2.2,59771,1073725440,16222,1026,65535,65700,0,0,4,1460,1,0,0,24,33580,68,65700,0,68,0,0,0
i,0x00000000,1680091435.989626,10.0.2.15,22,10.0.2.2,59771,1073725440,16290,1026,65535,65700,0,0,4,1460,1,0,0,24,33580,0,65700,0,0,0,0,0
o,0x00000000,1680091435.996590,10.0.2.15,22,10.0.2.2,59771,1073725440,16290,1026,65535,65700,0,0,4,1460,1,0,0,24,33580,28,65700,0,0,0,0,0
i,0x00000000,1680091435.997722,10.0.2.15,22,10.0.2.2,59771,1073725440,16290,1026,65535,65700,0,0,4,1460,1,0,0,24,33580,28,65700,0,28,0,0,0
i,0x00000000,1680091435.997757,10.0.2.15,22,10.0.2.2,59771,1073725440,16318,1026,65535,65700,0,0,4,1460,1,0,0,24,33580,0,65700,0,0,0,0,0
o,0x00000000,1680091435.999329,10.0.2.15,22,10.0.2.2,59771,1073725440,16318,1026,65535,65700,0,0,4,1460,1,0,0,24,33580,768,65700,112,0,0,0,0
i,0x00000000,1680091436.000356,10.0.2.15,22,10.0.2.2,59771,1073725440,16318,1026,65535,65700,0,0,4,1460,1,0,0,24,33580,768,65700,0,768,0,0,0
o,0x00000000,1680091436.000439,10.0.2.15,22,10.0.2.2,59771,1073725440,17086,1026,65535,65700,0,0,4,1460,1,0,0,24,33580,44,65700,0,0,0,0,0
i,0x00000000,1680091436.000974,10.0.2.15,22,10.0.2.2,59771,1073725440,17086,1026,65535,65700,0,0,4,1460,1,0,0,24,33580,44,65700,0,44,0,0,0
i,0x00000000,1680091436.001811,10.0.2.15,22,10.0.2.2,59771,1073725440,17130,1026,65535,65700,0,0,4,1460,1,0,0,24,33580,0,65700,0,0,0,0,0
o,0x00000000,1680091436.002489,10.0.2.15,22,10.0.2.2,59771,1073725440,17130,1026,65535,65700,0,0,4,1460,1,0,4,24,33580,72,65700,0,0,0,0,0
i,0x00000000,1680091436.002915,10.0.2.15,22,10.0.2.2,59771,1073725440,17130,1026,65535,65700,0,0,4,1460,1,0,4,24,33580,72,65700,0,72,0,0,0
o,0x00000000,1680091436.013125,172.16.1.2,20410,172.16.3.2,5201,1073725440,1073725440,2,0,0,0,0,2,536,0,1,672,100,32768,0,65536,0,0,0,0,0
i,0x00000000,1680091436.128736,172.16.1.2,20410,172.16.3.2,5201,1073725440,1073725440,2,0,0,0,0,2,536,0,1,672,100,32768,0,65536,0,1,0,0,0
o,0x00000000,1680091436.128850,172.16.1.2,20410,172.16.3.2,5201,48000,14480,2,65535,65700,6,6,4,1460,439,1,993,47,33580,0,65700,0,0,0,0,0
o,0x00000000,1680091436.129326,172.16.1.2,20410,172.16.3.2,5201,48000,14480,2,65535,65700,6,6,4,1460,439,1,996,47,33580,37,65700,0,0,0,0,0
i,0x00000000,1680091436.248685,172.16.1.2,20410,172.16.3.2,5201,48000,14480,2,65535,65700,6,6,4,1460,439,1,996,47,33580,37,65700,0,37,0,0,0
o,0x00000000,1680091436.249074,172.16.1.2,20410,172.16.3.2,5201,48000,14517,1026,65728,65728,6,6,4,1460,433,1,996,45,33580,4,65700,0,0,0,0,0
o,0x00000000,1680091436.249482,172.16.1.2,20410,172.16.3.2,5201,48000,14517,1026,65728,65728,6,6,4,1460,433,1,996,45,33580,128,65700,0,4,0,0,0
i,0x00000000,1680091436.375826,172.16.1.2,20410,172.16.3.2,5201,48000,14517,1026,65728,65728,6,6,4,1460,433,1,996,45,33580,128,65700,0,128,0,0,0
i,0x00000000,1680091436.375854,172.16.1.2,20410,172.16.3.2,5201,48000,14645,1026,65600,65728,6,6,4,1460,431,1,996,42,33580,0,65700,0,0,0,0,0
o,0x00000000,1680091436.376055,172.16.1.2,37185,172.16.3.2,5201,1073725440,1073725440,2,0,0,0,0,2,536,0,1,672,100,32768,0,65536,0,0,0,0,0
o,0x00000000,1680091436.423749,172.16.1.2,20410,172.16.3.2,5201,48000,14645,1026,65728,65728,6,6,4,1460,431,1,997,42,33580,0,65700,0,0,0,0,0
i,0x00000000,1680091436.500213,172.16.1.2,37185,172.16.3.2,5201,1073725440,1073725440,2,0,0,0,0,2,536,0,1,672,100,32768,0,65536,0,1,0,0,0
o,0x00000000,1680091436.500248,172.16.1.2,37185,172.16.3.2,5201,48000,14480,2,65535,65700,6,6,4,1460,443,1,993,46,33580,0,65700,0,0,0,0,0
o,0x00000000,1680091436.500368,172.16.1.2,37185,172.16.3.2,5201,48000,14480,2,65535,65700,6,6,4,1460,443,1,992,46,33580,37,65700,0,0,0,0,0
i,0x00000000,1680091436.616488,172.16.1.2,20410,172.16.3.2,5201,48000,14645,1026,65728,65728,6,6,4,1460,431,1,996,42,33580,0,65700,0,0,0,0,0
i,0x00000000,1680091436.616511,172.16.1.2,20410,172.16.3.2,5201,48000,14645,1026,65728,65728,6,6,4,1460,431,1,996,42,33580,0,65700,1,0,0,0,0
o,0x00000000,1680091436.616532,172.16.1.2,20410,172.16.3.2,5201,48000,14645,1026,65728,65728,6,6,4,1460,431,1,997,42,33580,0,65700,2,0,0,0,0
o,0x00000000,1680091436.616772,172.16.1.2,37185,172.16.3.2,5201,48000,14480,6,65535,65700,6,6,4,1460,443,1,992,46,33580,33580,65700,0,37,0,0,0
o,0x00000000,1680091436.616866,172.16.1.2,37185,172.16.3.2,5201,48000,14480,6,65535,65700,6,6,4,1460,443,1,992,46,33580,33580,65700,0,1485,0,0,0
o,0x00000000,1680091436.616956,172.16.1.2,37185,172.16.3.2,5201,48000,14480,6,65535,65700,6,6,4,1460,443,1,992,46,33580,33580,65700,0,2933,0,0,0
o,0x00000000,1680091436.617046,172.16.1.2,37185,172.16.3.2,5201,48000,14480,6,65535,65700,6,6,4,1460,443,1,992,46,33580,33580,65700,0,4381,0,0,0
o,0x00000000,1680091436.617145,172.16.1.2,37185,172.16.3.2,5201,48000,14480,6,65535,65700,6,6,4,1460,443,1,992,46,33580,33580,65700,0,5829,0,0,0
o,0x00000000,1680091436.617235,172.16.1.2,37185,172.16.3.2,5201,48000,14480,6,65535,65700,6,6,4,1460,443,1,992,46,33580,33580,65700,0,7277,0,0,0
o,0x00000000,1680091436.617339,172.16.1.2,37185,172.16.3.2,5201,48000,14480,6,65535,65700,6,6,4,1460,443,1,992,46,33580,33580,65700,0,8725,0,0,0
o,0x00000000,1680091436.617441,172.16.1.2,37185,172.16.3.2,5201,48000,14480,6,65535,65700,6,6,4,1460,443,1,992,46,33580,33580,65700,0,10173,0,0,0
o,0x00000000,1680091436.617530,172.16.1.2,37185,172.16.3.2,5201,48000,14480,6,65535,65700,6,6,4,1460,443,1,992,46,33580,33580,65700,0,11621,0,0,0
i,0x00000000,1680091436.668069,172.16.1.2,37185,172.16.3.2,5201,48000,14480,6,65535,65700,6,6,4,1460,443,1,992,46,33580,33580,65700,0,13069,0,0,0
o,0x00000000,1680091436.668265,172.16.1.2,37185,172.16.3.2,5201,48000,14517,6,65728,65728,6,6,4,1460,456,1,992,47,33580,33543,65700,0,13032,0,0,0
i,0x00000000,1680091436.839219,172.16.1.2,37185,172.16.3.2,5201,48000,14517,6,65728,65728,6,6,4,1460,456,1,992,47,33580,33543,65700,0,14480,0,0,0
o,0x00000000,1680091436.839332,172.16.1.2,37185,172.16.3.2,5201,48000,15965,6,65728,65728,6,6,4,1460,487,1,992,52,33580,32095,65700,0,13032,0,0,0
o,0x00000000,1680091436.839438,172.16.1.2,37185,172.16.3.2,5201,48000,15965,6,65728,65728,6,6,4,1460,487,1,992,52,33580,32095,65700,0,14480,0,0,0
i,0x00000000,1680091436.857559,172.16.1.2,37185,172.16.3.2,5201,48000,15965,6,65728,65728,6,6,4,1460,487,1,992,52,33580,32095,65700,0,15928,0,0,0
o,0x00000000,1680091436.857584,172.16.1.2,37185,172.16.3.2,5201,48000,18824,6,65728,65728,6,6,4,1460,487,1,992,52,41772,32095,65700,0,15928,0,0,0
o,0x00000000,1680091436.857694,172.16.1.2,37185,172.16.3.2,5201,48000,18824,2,65728,65728,6,6,4,1460,487,1,992,52,41772,32095,65700,0,17376,0,0,0
i,0x00000000,1680091436.857788,172.16.1.2,37185,172.16.3.2,5201,48000,15965,2,65728,65728,6,6,4,1460,487,1,992,52,41772,32095,65700,0,18824,0,0,0
o,0x00000000,1680091436.857805,172.16.1.2,37185,172.16.3.2,5201,7982,1448,2,65728,65728,6,6,4,1460,487,1,537920480,52,41772,32095,65700,0,18824,0,0,0
i,0x00000000,1680091436.886998,172.16.1.2,37185,172.16.3.2,5201,7982,1448,2,65728,65728,6,6,4,1460,487,1,537920480,52,41772,32095,65700,0,18824,0,0,0
i,0x00000000,1680091436.887049,172.16.1.2,37185,172.16.3.2,5201,7982,1448,2,65728,65728,6,6,4,1460,487,1,537920480,52,41772,32095,65700,0,18824,0,0,0
o,0x00000000,1680091436.887092,172.16.1.2,37185,172.16.3.2,5201,7982,2896,2,65728,65728,6,6,4,1460,487,1,537920480,52,41772,32095,65700,0,18824,0,0,0
i,0x00000000,1680091436.906943,172.16.1.2,37185,172.16.3.2,5201,7982,2896,2,65728,65728,6,6,4,1460,487,1,537920480,52,41772,32095,65700,0,20272,0,0,0
i,0x00000000,1680091436.906962,172.16.1.2,37185,172.16.3.2,5201,7982,2896,2,65728,65728,6,6,4,1460,487,1,537920480,52,41772,32095,65700,0,20272,0,0,0
i,0x00000000,1680091436.939356,172.16.1.2,37185,172.16.3.2,5201,7982,2896,2,65728,65728,6,6,4,1460,487,1,537920480,52,41772,32095,65700,0,20272,0,0,0
o,0x00000000,1680091436.939377,172.16.1.2,37185,172.16.3.2,5201,7982,4344,2,65728,65728,6,6,4,1460,487,1,537920480,52,41772,32095,65700,0,20272,0,0,0
i,0x00000000,1680091437.007907,172.16.1.2,37185,172.16.3.2,5201,7982,4344,2,65728,65728,6,6,4,1460,487,1,537920480,52,41772,32095,65700,0,21720,0,0,0
i,0x00000000,1680091437.016834,172.16.1.2,37185,172.16.3.2,5201,7982,4344,2,65728,65728,6,6,4,1460,487,1,537920480,52,41772,32095,65700,0,21720,0,0,0
o,0x00000000,1680091437.016864,172.16.1.2,37185,172.16.3.2,5201,7982,5792,2,65728,65728,6,6,4,1460,487,1,537920480,52,41772,32095,65700,0,21720,0,0,0
i,0x00000000,1680091437.026778,172.16.1.2,37185,172.16.3.2,5201,7982,5792,2,65728,65728,6,6,4,1460,487,1,537920480,52,41772,32095,65700,0,23168,0,0,0
i,0x00000000,1680091437.069781,172.16.1.2,37185,172.16.3.2,5201,7982,5792,2,65728,65728,6,6,4,1460,487,1,537920480,52,41772,32095,65700,0,23168,0,0,0
i,0x00000000,1680091437.069829,172.16.1.2,37185,172.16.3.2,5201,7982,5792,2,65728,65728,6,6,4,1460,487,1,537920480,52,41772,32095,65700,0,23168,0,0,0
o,0x00000000,1680091437.069877,172.16.1.2,37185,172.16.3.2,5201,7982,7805,6,46912,65728,6,6,4,1460,511,1,992,55,41772,13271,65700,0,4344,0,0,0
o,0x00000000,1680091437.070037,172.16.1.2,37185,172.16.3.2,5201,7982,7805,6,46912,65728,6,6,4,1460,511,1,992,55,41772,13271,65700,0,5792,0,0,0
i,0x00000000,1680091437.070145,172.16.1.2,37185,172.16.3.2,5201,7982,7805,6,46912,65728,6,6,4,1460,511,1,992,55,41772,13271,65700,0,7240,0,0,0
o,0x00000000,1680091437.070169,172.16.1.2,37185,172.16.3.2,5201,7982,8688,2,46912,65728,6,6,4,1460,511,1,992,55,41772,13271,65700,0,7240,0,0,0
i,0x00000000,1680091437.117036,172.16.1.2,37185,172.16.3.2,5201,7982,7805,2,46912,65728,6,6,4,1460,511,1,992,55,41772,41772,65700,0,8688,0,0,0
o,0x00000000,1680091437.117177,172.16.1.2,37185,172.16.3.2,5201,7982,9253,6,65728,65728,6,6,4,1460,536,1,992,57,41772,40324,65700,0,7240,0,0,0
i,0x00000000,1680091437.157154,172.16.1.2,37185,172.16.3.2,5201,7982,9253,6,65728,65728,6,6,4,1460,536,1,992,57,41772,40324,65700,0,8688,0,0,0
o,0x00000000,1680091437.157267,172.16.1.2,37185,172.16.3.2,5201,7982,10701,6,65728,65728,6,6,4,1460,553,1,992,57,41772,38876,65700,0,7240,0,0,0
o,0x00000000,1680091437.157368,172.16.1.2,37185,172.16.3.2,5201,7982,10701,6,65728,65728,6,6,4,1460,553,1,992,57,41772,38876,65700,0,8688,0,0,0
i,0x00000000,1680091437.209020,172.16.1.2,37185,172.16.3.2,5201,7982,10701,6,65728,65728,6,6,4,1460,553,1,992,57,41772,41772,65700,0,10136,0,0,0
o,0x00000000,1680091437.209781,172.16.1.2,37185,172.16.3.2,5201,7982,12149,6,65728,65728,6,6,4,1460,560,1,992,54,41772,40324,65700,0,8688,0,0,0
o,0x00000000,1680091437.209892,172.16.1.2,37185,172.16.3.2,5201,7982,12149,6,65728,65728,6,6,4,1460,560,1,992,54,41772,40324,65700,0,10136,0,0,0
i,0x00000000,1680091437.209982,172.16.1.2,37185,172.16.3.2,5201,7982,12149,6,65728,65728,6,6,4,1460,560,1,992,54,41772,40324,65700,0,11584,0,0,0
o,0x00000000,1680091437.210000,172.16.1.2,37185,172.16.3.2,5201,7982,12149,6,64256,65728,6,6,4,1460,546,1,992,53,41772,37428,65700,0,8688,0,0,0
o,0x00000000,1680091437.210089,172.16.1.2,37185,172.16.3.2,5201,7982,12149,6,64256,65728,6,6,4,1460,546,1,992,53,41772,37428,65700,0,10136,0,0,0
i,0x00000000,1680091437.287911,172.16.1.2,37185,172.16.3.2,5201,7982,12149,6,64256,65728,6,6,4,1460,546,1,992,53,41772,41772,65700,0,11584,0,0,0
o,0x00000000,1680091437.288005,172.16.1.2,37185,172.16.3.2,5201,7982,12149,6,65728,65728,6,6,4,1460,566,1,992,54,41772,40324,65700,0,10136,0,0,0
i,0x00000000,1680091437.288208,172.16.1.2,37185,172.16.3.2,5201,7982,12149,6,65728,65728,6,6,4,1460,566,1,992,54,41772,40324,65700,0,11584,0,0,0
o,0x00000000,1680091437.288259,172.16.1.2,37185,172.16.3.2,5201,7982,12149,6,64256,65728,6,6,4,1460,564,1,992,51,41772,37428,65700,0,8688,0,0,0
o,0x00000000,1680091437.288395,172.16.1.2,37185,172.16.3.2,5201,7982,12149,6,64256,65728,6,6,4,1460,564,1,992,51,41772,37428,65700,0,10136,0,0,0
i,0x00000000,1680091437.336752,172.16.1.2,37185,172.16.3.2,5201,7982,12149,6,64256,65728,6,6,4,1460,564,1,992,51,41772,41772,65700,0,11584,0,0,0
o,0x00000000,1680091437.336880,172.16.1.2,37185,172.16.3.2,5201,7982,12149,6,65728,65728,6,6,4,1460,566,1,992,48,41772,40324,65700,0,10136,0,0,0
i,0x00000000,1680091437.387426,172.16.1.2,37185,172.16.3.2,5201,7982,12149,6,65728,65728,6,6,4,1460,566,1,992,48,41772,40324,65700,0,11584,0,0,0
o,0x00000000,1680091437.387525,172.16.1.2,37185,172.16.3.2,5201,7982,12149,6,64256,65728,6,6,4,1460,568,1,992,46,41772,37428,65700,0,8688,0,0,0
o,0x00000000,1680091437.387627,172.16.1.2,37185,172.16.3.2,5201,7982,12149,6,64256,65728,6,6,4,1460,568,1,992,46,41772,37428,65700,0,10136,0,0,0
i,0x00000000,1680091437.397452,172.16.1.2,37185,172.16.3.2,5201,7982,12149,6,64256,65728,6,6,4,1460,568,1,992,46,41772,41772,65700,0,11584,0,0,0
o,0x00000000,1680091437.397571,172.16.1.2,37185,172.16.3.2,5201,7982,12149,6,64256,65728,6,6,4,1460,569,1,992,44,41772,38876,65700,0,8688,0,0,0
o,0x00000000,1680091437.397824,172.16.1.2,37185,172.16.3.2,5201,7982,12149,6,64256,65728,6,6,4,1460,569,1,992,44,41772,38876,65700,0,10136,0,0,0
i,0x00000000,1680091437.481550,172.16.1.2,37185,172.16.3.2,5201,7982,12149,6,64256,65728,6,6,4,1460,569,1,992,44,41772,41772,65700,0,11584,0,0,0
o,0x00000000,1680091437.481594,172.16.1.2,37185,172.16.3.2,5201,7982,12149,6,64256,65728,6,6,4,1460,578,1,992,45,41772,38876,65700,0,8688,0,0,0
o,0x00000000,1680091437.481713,172.16.1.2,37185,172.16.3.2,5201,7982,12149,6,64256,65728,6,6,4,1460,578,1,992,45,41772,38876,65700,0,10136,0,0,0
i,0x00000000,1680091437.507559,172.16.1.2,37185,172.16.3.2,5201,7982,12149,6,64256,65728,6,6,4,1460,578,1,992,45,41772,41772,65700,0,11584,0,0,0
o,0x00000000,1680091437.507602,172.16.1.2,37185,172.16.3.2,5201,7982,12149,6,64256,65728,6,6,4,1460,594,1,992,48,41772,38876,65700,0,8688,0,0,0
o,0x00000000,1680091437.507776,172.16.1.2,37185,172.16.3.2,5201,7982,12149,6,64256,65728,6,6,4,1460,594,1,992,48,41772,38876,65700,0,10136,0,0,0
i,0x00000000,1680091437.569485,172.16.1.2,37185,172.16.3.2,5201,7982,12149,6,64256,65728,6,6,4,1460,594,1,992,48,41772,41772,65700,0,11584,0,0,0
o,0x00000000,1680091437.569652,172.16.1.2,37185,172.16.3.2,5201,7982,12149,6,64256,65728,6,6,4,1460,592,1,992,46,41772,38876,65700,0,8688,0,0,0
o,0x00000000,1680091437.569851,172.16.1.2,37185,172.16.3.2,5201,7982,12149,6,64256,65728,6,6,4,1460,592,1,992,46,41772,38876,65700,0,10136,0,0,0
i,0x00000000,1680091437.618424,172.16.1.2,37185,172.16.3.2,5201,7982,12149,6,64256,65728,6,6,4,1460,592,1,992,46,41772,41772,65700,0,11584,0,0,0
o,0x00000000,1680091437.618463,172.16.1.2,37185,172.16.3.2,5201,7982,12149,6,65728,65728,6,6,4,1460,606,1,992,48,41772,40324,65700,0,10136,0,0,0
i,0x00000000,1680091437.667320,172.16.1.2,37185,172.16.3.2,5201,7982,12149,6,65728,65728,6,6,4,1460,606,1,992,48,41772,40324,65700,0,11584,0,0,0
o,0x00000000,1680091437.667430,172.16.1.2,37185,172.16.3.2,5201,7982,12149,6,65728,65728,6,6,4,1460,639,1,992,55,41772,38876,65700,0,10136,0,0,0
i,0x00000000,1680091437.667536,172.16.1.2,37185,172.16.3.2,5201,7982,12149,6,65728,65728,6,6,4,1460,639,1,992,55,41772,38876,65700,0,11584,0,0,0
o,0x00000000,1680091437.667553,172.16.1.2,37185,172.16.3.2,5201,7982,12149,6,64256,65728,6,6,4,1460,632,1,992,53,41772,35980,65700,0,8688,0,0,0
o,0x00000000,1680091437.667645,172.16.1.2,37185,172.16.3.2,5201,7982,12149,6,64256,65728,6,6,4,1460,632,1,992,53,41772,35980,65700,0,10136,0,0,0
i,0x00000000,1680091437.716761,172.16.1.2,37185,172.16.3.2,5201,7982,12149,6,64256,65728,6,6,4,1460,632,1,992,53,41772,41772,65700,0,11584,0,0,0
o,0x00000000,1680091437.716838,172.16.1.2,37185,172.16.3.2,5201,7982,12149,6,65728,65728,6,6,4,1460,637,1,992,51,41772,40324,65700,0,10136,0,0,0
i,0x00000000,1680091437.747203,172.16.1.2,37185,172.16.3.2,5201,7982,12149,6,65728,65728,6,6,4,1460,637,1,992,51,41772,40324,65700,0,11584,0,0,0
o,0x00000000,1680091437.747239,172.16.1.2,37185,172.16.3.2,5201,7982,12149,6,64256,65728,6,6,4,1460,654,1,992,53,41772,37428,65700,0,8688,0,0,0
o,0x00000000,1680091437.747369,172.16.1.2,37185,172.16.3.2,5201,7982,12149,6,64256,65728,6,6,4,1460,654,1,992,53,41772,37428,65700,0,10136,0,0,0
i,0x00000000,1680091437.779887,172.16.1.2,37185,172.16.3.2,5201,7982,12149,6,64256,65728,6,6,4,1460,654,1,992,53,41772,41772,65700,0,11584,0,0,0
o,0x00000000,1680091437.780005,172.16.1.2,37185,172.16.3.2,5201,7982,12149,6,64256,65728,6,6,4,1460,657,1,992,51,41772,38876,65700,0,8688,0,0,0
o,0x00000000,1680091437.780142,172.16.1.2,37185,172.16.3.2,5201,7982,12149,6,64256,65728,6,6,4,1460,657,1,992,51,41772,38876,65700,0,10136,0,0,0
i,0x00000000,1680091437.837189,172.16.1.2,37185,172.16.3.2,5201,7982,12149,6,64256,65728,6,6,4,1460,657,1,992,51,41772,41772,65700,0,11584,0,0,0
o,0x00000000,1680091437.837251,172.16.1.2,37185,172.16.3.2,5201,7982,12149,6,64256,65728,6,6,4,1460,639,1,992,52,41772,38876,65700,0,8688,0,0,0
o,0x00000000,1680091437.837389,172.16.1.2,37185,172.16.3.2,5201,7982,12149,6,64256,65728,6,6,4,1460,639,1,992,52,41772,38876,65700,0,10136,0,0,0
i,0x00000000,1680091437.887401,172.16.1.2,37185,172.16.3.2,5201,7982,12149,6,64256,65728,6,6,4,1460,639,1,992,52,41772,41772,65700,0,11584,0,0,0
o,0x00000000,1680091437.887478,172.16.1.2,37185,172.16.3.2,5201,7982,12149,6,64256,65728,6,6,4,1460,644,1,992,50,41772,38876,65700,0,8688,0,0,0
o,0x00000000,1680091437.887665,172.16.1.2,37185,172.16.3.2,5201,7982,12149,6,64256,65728,6,6,4,1460,644,1,992,50,41772,38876,65700,0,10136,0,0,0
i,0x00000000,1680091437.948493,172.16.1.2,37185,172.16.3.2,5201,7982,12149,6,64256,65728,6,6,4,1460,644,1,992,50,41772,41772,65700,0,11584,0,0,0
o,0x00000000,1680091437.948636,172.16.1.2,37185,172.16.3.2,5201,7982,12149,6,64256,65728,6,6,4,1460,640,1,992,49,41772,38876,65700,0,8688,0,0,0
o,0x00000000,1680091437.948759,172.16.1.2,37185,172.16.3.2,5201,7982,12149,6,64256,65728,6,6,4,1460,640,1,992,49,41772,38876,65700,0,10136,0,0,0
i,0x00000000,1680091437.997005,172.16.1.2,37185,172.16.3.2,5201,7982,12149,6,64256,65728,6,6,4,1460,640,1,992,49,41772,41772,65700,0,11584,0,0,0
o,0x00000000,1680091437.997111,172.16.1.2,37185,172.16.3.2,5201,7982,12149,6,65728,65728,6,6,4,1460,644,1,992,48,41772,40324,65700,0,10136,0,0,0
i,0x00000000,1680091438.028100,172.16.1.2,37185,172.16.3.2,5201,7982,12149,6,65728,65728,6,6,4,1460,644,1,992,48,41772,40324,65700,0,11584,0,0,0
o,0x00000000,1680091438.028125,172.16.1.2,37185,172.16.3.2,5201,7982,12149,6,65728,65728,6,6,4,1460,660,1,992,50,41772,38876,65700,0,10136,0,0,0
i,0x00000000,1680091438.046830,172.16.1.2,37185,172.16.3.2,5201,7982,12149,6,65728,65728,6,6,4,1460,660,1,992,50,41772,41772,65700,0,11584,0,0,0
o,0x00000000,1680091438.046935,172.16.1.2,37185,172.16.3.2,5201,7982,12149,6,64256,65728,6,6,4,1460,662,1,992,48,41772,38876,65700,0,8688,0,0,0
o,0x00000000,1680091438.047044,172.16.1.2,37185,172.16.3.2,5201,7982,12149,6,64256,65728,6,6,4,1460,662,1,992,48,41772,38876,65700,0,10136,0,0,0
i,0x00000000,1680091438.076444,172.16.1.2,37185,172.16.3.2,5201,7982,12149,6,64256,65728,6,6,4,1460,662,1,992,48,41772,41772,65700,0,11584,0,0,0
o,0x00000000,1680091438.076543,172.16.1.2,37185,172.16.3.2,5201,7982,12149,6,64256,65728,6,6,4,1460,656,1,992,48,41772,38876,65700,0,8688,0,0,0
o,0x00000000,1680091438.076683,172.16.1.2,37185,172.16.3.2,5201,7982,12149,6,64256,65728,6,6,4,1460,656,1,992,48,41772,38876,65700,0,10136,0,0,0
i,0x00000000,1680091438.136820,172.16.1.2,37185,172.16.3.2,5201,7982,12149,6,64256,65728,6,6,4,1460,656,1,992,48,41772,41772,65700,0,11584,0,0,0
o,0x00000000,1680091438.136928,172.16.1.2,37185,172.16.3.2,5201,7982,12149,6,64256,65728,6,6,4,1460,650,1,992,47,41772,38876,65700,0,8688,0,0,0
o,0x00000000,1680091438.137029,172.16.1.2,37185,172.16.3.2,5201,7982,12149,6,64256,65728,6,6,4,1460,650,1,992,47,41772,38876,65700,0,10136,0,0,0
i,0x00000000,1680091438.189427,172.16.1.2,37185,172.16.3.2,5201,7982,12149,6,64256,65728,6,6,4,1460,650,1,992,47,41772,41772,65700,0,11584,0,0,0
o,0x00000000,1680091438.189513,172.16.1.2,37185,172.16.3.2,5201,7982,12274,6,65728,65728,6,6,4,1460,645,1,992,46,41772,40324,65700,0,10136,0,0,0
i,0x00000000,1680091438.216553,172.16.1.2,37185,172.16.3.2,5201,7982,12274,6,65728,65728,6,6,4,1460,645,1,992,46,41772,40324,65700,0,11584,0,0,0
o,0x00000000,1680091438.216566,172.16.1.2,37185,172.16.3.2,5201,7982,12411,6,64256,65728,6,6,4,1460,637,1,992,47,41772,37428,65700,0,8688,0,0,0
o,0x00000000,1680091438.216811,172.16.1.2,37185,172.16.3.2,5201,7982,12411,6,64256,65728,6,6,4,1460,637,1,992,47,41772,37428,65700,0,10136,0,0,0
i,0x00000000,1680091438.248539,172.16.1.2,37185,172.16.3.2,5201,7982,12411,6,64256,65728,6,6,4,1460,637,1,992,47,41772,41772,65700,0,11584,0,0,0
o,0x00000000,1680091438.248637,172.16.1.2,37185,172.16.3.2,5201,7982,12548,6,64256,65728,6,6,4,1460,638,1,992,45,41772,38876,65700,0,8688,0,0,0
o,0x00000000,1680091438.248733,172.16.1.2,37185,172.16.3.2,5201,7982,12548,6,64256,65728,6,6,4,1460,638,1,992,45,41772,38876,65700,0,10136,0,0,0
i,0x00000000,1680091438.320042,172.16.1.2,37185,172.16.3.2,5201,7982,12548,6,64256,65728,6,6,4,1460,638,1,992,45,41772,41772,65700,0,11584,0,0,0
o,0x00000000,1680091438.320083,172.16.1.2,37185,172.16.3.2,5201,7982,12867,6,64256,65728,6,6,4,1460,655,1,992,49,41772,38876,65700,0,8688,0,0,0
o,0x00000000,1680091438.320208,172.16.1.2,37185,172.16.3.2,5201,7982,12867,6,64256,65728,6,6,4,1460,655,1,992,49,41772,38876,65700,0,10136,0,0,0
i,0x00000000,1680091438.356022,172.16.1.2,37185,172.16.3.2,5201,7982,12867,6,64256,65728,6,6,4,1460,655,1,992,49,41772,39848,65700,0,11584,0,0,0
o,0x00000000,1680091438.356061,172.16.1.2,37185,172.16.3.2,5201,7982,13050,6,65728,65728,6,6,4,1460,658,1,992,48,41772,38400,65700,0,10136,0,0,0
o,0x00000000,1680091438.356210,172.16.1.2,37185,172.16.3.2,5201,7982,13050,6,65728,65728,6,6,4,1460,658,1,992,48,41772,38400,65700,0,11584,0,0,0
i,0x00000000,1680091438.397186,172.16.1.2,37185,172.16.3.2,5201,7982,13050,6,65728,65728,6,6,4,1460,658,1,992,48,41772,41772,65700,0,13032,0,0,0
o,0x00000000,1680091438.397316,172.16.1.2,37185,172.16.3.2,5201,7982,13232,6,64256,65728,6,6,4,1460,660,1,992,46,41772,38876,65700,0,10136,0,0,0
o,0x00000000,1680091438.397470,172.16.1.2,37185,172.16.3.2,5201,7982,13232,6,64256,65728,6,6,4,1460,660,1,992,46,41772,38876,65700,0,11584,0,0,0
i,0x00000000,1680091438.427011,172.16.1.2,37185,172.16.3.2,5201,7982,13232,6,64256,65728,6,6,4,1460,660,1,992,46,41772,41772,65700,0,13032,0,0,0
o,0x00000000,1680091438.427033,172.16.1.2,37185,172.16.3.2,5201,7982,13369,6,64256,65728,6,6,4,1460,662,1,992,45,41772,38876,65700,0,10136,0,0,0
o,0x00000000,1680091438.427139,172.16.1.2,37185,172.16.3.2,5201,7982,13369,6,64256,65728,6,6,4,1460,662,1,992,45,41772,38876,65700,0,11584,0,0,0
i,0x00000000,1680091438.471216,172.16.1.2,37185,172.16.3.2,5201,7982,13369,6,64256,65728,6,6,4,1460,662,1,992,45,41772,41772,65700,0,13032,0,0,0
o,0x00000000,1680091438.471328,172.16.1.2,37185,172.16.3.2,5201,7982,13597,6,65728,65728,6,6,4,1460,668,1,992,46,41772,40324,65700,0,11584,0,0,0
i,0x00000000,1680091438.507825,172.16.1.2,37185,172.16.3.2,5201,7982,13597,6,65728,65728,6,6,4,1460,668,1,992,46,41772,40324,65700,0,13032,0,0,0
o,0x00000000,1680091438.507950,172.16.1.2,37185,172.16.3.2,5201,7982,13734,6,64256,65728,6,6,4,1460,661,1,992,46,41772,37428,65700,0,10136,0,0,0
o,0x00000000,1680091438.508183,172.16.1.2,37185,172.16.3.2,5201,7982,13734,6,64256,65728,6,6,4,1460,661,1,992,46,41772,37428,65700,0,11584,0,0,0
i,0x00000000,1680091438.549353,172.16.1.2,37185,172.16.3.2,5201,7982,13734,6,64256,65728,6,6,4,1460,661,1,992,46,41772,41772,65700,0,13032,0,0,0
o,0x00000000,1680091438.549439,172.16.1.2,37185,172.16.3.2,5201,7982,13916,6,64256,65728,6,6,4,1460,655,1,992,46,41772,38876,65700,0,10136,0,0,0
o,0x00000000,1680091438.549651,172.16.1.2,37185,172.16.3.2,5201,7982,13916,6,64256,65728,6,6,4,1460,655,1,992,46,41772,38876,65700,0,11584,0,0,0
i,0x00000000,1680091438.602488,172.16.1.2,37185,172.16.3.2,5201,7982,13916,6,64256,65728,6,6,4,1460,655,1,992,46,41772,41772,65700,0,13032,0,0,0
o,0x00000000,1680091438.602547,172.16.1.2,37185,172.16.3.2,5201,7982,14190,6,64256,65728,6,6,4,1460,658,1,992,45,41772,38876,65700,0,10136,0,0,0
o,0x00000000,1680091438.602669,172.16.1.2,37185,172.16.3.2,5201,7982,14190,6,64256,65728,6,6,4,1460,658,1,992,45,41772,38876,65700,0,11584,0,0,0
i,0x00000000,1680091438.657364,172.16.1.2,37185,172.16.3.2,5201,7982,14190,6,64256,65728,6,6,4,1460,658,1,992,45,41772,41772,65700,0,13032,0,0,0
o,0x00000000,1680091438.657523,172.16.1.2,37185,172.16.3.2,5201,7982,14418,6,64256,65728,6,6,4,1460,668,1,992,47,41772,38876,65700,0,10136,0,0,0
o,0x00000000,1680091438.657745,172.16.1.2,37185,172.16.3.2,5201,7982,14418,6,64256,65728,6,6,4,1460,668,1,992,47,41772,38876,65700,0,11584,0,0,0
i,0x00000000,1680091438.706990,172.16.1.2,37185,172.16.3.2,5201,7982,14418,6,64256,65728,6,6,4,1460,668,1,992,47,41772,41772,65700,0,13032,0,0,0
o,0x00000000,1680091438.707024,172.16.1.2,37185,172.16.3.2,5201,7982,14646,6,65728,65728,6,6,4,1460,677,1,992,48,41772,40324,65700,0,11584,0,0,0
o,0x00000000,1680091438.707124,172.16.1.2,37185,172.16.3.2,5201,7982,14646,6,65728,65728,6,6,4,1460,677,1,992,48,41772,40324,65700,0,13032,0,0,0
i,0x00000000,1680091438.758242,172.16.1.2,37185,172.16.3.2,5201,7982,14646,6,65728,65728,6,6,4,1460,677,1,992,48,41772,40324,65700,0,14480,0,0,0
o,0x00000000,1680091438.758269,172.16.1.2,37185,172.16.3.2,5201,7982,15928,2,65728,65728,6,6,4,1460,677,1,992,48,41772,40324,65700,0,14480,0,0,0
i,0x00000000,1680091438.758439,172.16.1.2,37185,172.16.3.2,5201,7982,14646,2,65728,65728,6,6,4,1460,677,1,992,48,41772,40324,65700,0,15928,0,0,0
o,0x00000000,1680091438.758457,172.16.1.2,37185,172.16.3.2,5201,10240,1448,2,65728,65728,6,6,4,1460,677,1,537920480,48,41772,40324,65700,0,15928,0,0,0
i,0x00000000,1680091438.777266,172.16.1.2,37185,172.16.3.2,5201,10240,1448,2,65728,65728,6,6,4,1460,677,1,537920480,48,41772,40324,65700,0,15928,0,0,0
o,0x00000000,1680091438.777338,172.16.1.2,37185,172.16.3.2,5201,10240,2896,2,65728,65728,6,6,4,1460,677,1,537920480,48,41772,40324,65700,0,15928,0,0,0
i,0x00000000,1680091438.809144,172.16.1.2,37185,172.16.3.2,5201,10240,2896,2,65728,65728,6,6,4,1460,677,1,537920480,48,41772,40324,65700,0,17376,0,0,0
o,0x00000000,1680091438.809211,172.16.1.2,37185,172.16.3.2,5201,10240,4344,2,65728,65728,6,6,4,1460,677,1,537920480,48,41772,40324,65700,0,17376,0,0,0
i,0x00000000,1680091438.858049,172.16.1.2,37185,172.16.3.2,5201,10240,4344,2,65728,65728,6,6,4,1460,677,1,537920480,48,41772,40324,65700,0,18824,0,0,0
i,0x00000000,1680091438.858078,172.16.1.2,37185,172.16.3.2,5201,10240,4344,2,65728,65728,6,6,4,1460,677,1,537920480,48,41772,40324,65700,0,18824,0,0,0
i,0x00000000,1680091438.881573,172.16.1.2,37185,172.16.3.2,5201,10240,4344,2,65728,65728,6,6,4,1460,677,1,537920480,48,41772,40324,65700,0,18824,0,0,0
o,0x00000000,1680091438.881613,172.16.1.2,37185,172.16.3.2,5201,10240,5792,2,65728,65728,6,6,4,1460,677,1,537920480,48,41772,40324,65700,0,18824,0,0,0
i,0x00000000,1680091438.908054,172.16.1.2,37185,172.16.3.2,5201,10240,5792,2,65728,65728,6,6,4,1460,677,1,537920480,48,41772,40324,65700,0,20272,0,0,0
o,0x00000000,1680091438.908078,172.16.1.2,37185,172.16.3.2,5201,10240,7240,2,65728,65728,6,6,4,1460,677,1,537920480,48,41772,40324,65700,0,20272,0,0,0
i,0x00000000,1680091438.950509,172.16.1.2,37185,172.16.3.2,5201,10240,7240,2,65728,65728,6,6,4,1460,677,1,537920480,48,41772,40324,65700,0,21720,0,0,0
o,0x00000000,1680091438.950531,172.16.1.2,37185,172.16.3.2,5201,10240,8688,2,65728,65728,6,6,4,1460,677,1,537920480,48,41772,40324,65700,0,21720,0,0,0
i,0x00000000,1680091438.950634,172.16.1.2,37185,172.16.3.2,5201,10240,8688,2,65728,65728,6,6,4,1460,677,1,537920480,48,41772,40324,65700,0,23168,0,0,0
o,0x00000000,1680091438.950722,172.16.1.2,37185,172.16.3.2,5201,10240,10240,6,49856,65728,6,6,4,1460,669,1,992,48,41772,24396,65700,0,7240,0,0,0
o,0x00000000,1680091438.950814,172.16.1.2,37185,172.16.3.2,5201,10240,10240,6,49856,65728,6,6,4,1460,669,1,992,48,41772,24396,65700,0,8688,0,0,0
i,0x00000000,1680091438.987335,172.16.1.2,37185,172.16.3.2,5201,10240,10240,6,49856,65728,6,6,4,1460,669,1,992,48,41772,41772,65700,0,10136,0,0,0
o,0x00000000,1680091438.987534,172.16.1.2,37185,172.16.3.2,5201,10240,11688,6,65728,65728,6,6,4,1460,670,1,992,46,41772,40324,65700,0,8688,0,0,0
o,0x00000000,1680091438.987760,172.16.1.2,37185,172.16.3.2,5201,10240,11688,6,65728,65728,6,6,4,1460,670,1,992,46,41772,40324,65700,0,10136,0,0,0
i,0x00000000,1680091439.027593,172.16.1.2,37185,172.16.3.2,5201,10240,11688,6,65728,65728,6,6,4,1460,670,1,992,46,41772,40324,65700,0,11584,0,0,0
o,0x00000000,1680091439.027805,172.16.1.2,37185,172.16.3.2,5201,10240,11688,6,65728,65728,6,6,4,1460,671,1,992,45,41772,38876,65700,0,10136,0,0,0
i,0x00000000,1680091439.065815,172.16.1.2,37185,172.16.3.2,5201,10240,11688,6,65728,65728,6,6,4,1460,671,1,992,45,41772,41772,65700,0,11584,0,0,0
o,0x00000000,1680091439.065960,172.16.1.2,37185,172.16.3.2,5201,10240,11688,6,64256,65728,6,6,4,1460,660,1,992,47,41772,38876,65700,0,8688,0,0,0
o,0x00000000,1680091439.066137,172.16.1.2,37185,172.16.3.2,5201,10240,11688,6,64256,65728,6,6,4,1460,660,1,992,47,41772,38876,65700,0,10136,0,0,0
i,0x00000000,1680091439.137450,172.16.1.2,37185,172.16.3.2,5201,10240,11688,6,64256,65728,6,6,4,1460,660,1,992,47,41772,41772,65700,0,11584,0,0,0
o,0x00000000,1680091439.137565,172.16.1.2,37185,172.16.3.2,5201,10240,11726,6,64256,65728,6,6,4,1460,650,1,992,47,41772,38876,65700,0,8688,0,0,0
o,0x00000000,1680091439.137675,172.16.1.2,37185,172.16.3.2,5201,10240,11726,6,64256,65728,6,6,4,1460,650,1,992,47,41772,38876,65700,0,10136,0,0,0
i,0x00000000,1680091439.177450,172.16.1.2,37185,172.16.3.2,5201,10240,11726,6,64256,65728,6,6,4,1460,650,1,992,47,41772,41772,65700,0,11584,0,0,0
o,0x00000000,1680091439.177503,172.16.1.2,37185,172.16.3.2,5201,10240,11726,6,64256,65728,6,6,4,1460,657,1,992,48,41772,38876,65700,0,8688,0,0,0
o,0x00000000,1680091439.177648,172.16.1.2,37185,172.16.3.2,5201,10240,11726,6,64256,65728,6,6,4,1460,657,1,992,48,41772,38876,65700,0,10136,0,0,0
i,0x00000000,1680091439.226933,172.16.1.2,37185,172.16.3.2,5201,10240,11726,6,64256,65728,6,6,4,1460,657,1,992,48,41772,41772,65700,0,11584,0,0,0
o,0x00000000,1680091439.226971,172.16.1.2,37185,172.16.3.2,5201,10240,11726,6,64256,65728,6,6,4,1460,671,1,992,50,41772,38876,65700,0,8688,0,0,0
o,0x00000000,1680091439.227123,172.16.1.2,37185,172.16.3.2,5201,10240,11726,6,64256,65728,6,6,4,1460,671,1,992,50,41772,38876,65700,0,10136,0,0,0
i,0x00000000,1680091439.257371,172.16.1.2,37185,172.16.3.2,5201,10240,11726,6,64256,65728,6,6,4,1460,671,1,992,50,41772,41772,65700,0,11584,0,0,0
o,0x00000000,1680091439.257517,172.16.1.2,37185,172.16.3.2,5201,10240,11726,6,65728,65728,6,6,4,1460,664,1,992,49,41772,40324,65700,0,10136,0,0,0
i,0x00000000,1680091439.276443,172.16.1.2,37185,172.16.3.2,5201,10240,11726,6,65728,65728,6,6,4,1460,664,1,992,49,41772,40324,65700,0,11584,0,0,0
o,0x00000000,1680091439.276546,172.16.1.2,37185,172.16.3.2,5201,10240,11726,6,64256,65728,6,6,4,1460,665,1,992,47,41772,37428,65700,0,8688,0,0,0
o,0x00000000,1680091439.276679,172.16.1.2,37185,172.16.3.2,5201,10240,11726,6,64256,65728,6,6,4,1460,665,1,992,47,41772,37428,65700,0,10136,0,0,0
i,0x00000000,1680091439.329748,172.16.1.2,37185,172.16.3.2,5201,10240,11726,6,64256,65728,6,6,4,1460,665,1,992,47,41772,41772,65700,0,11584,0,0,0
o,0x00000000,1680091439.329945,172.16.1.2,37185,172.16.3.2,5201,10240,11726,6,64256,65728,6,6,4,1460,658,1,992,47,41772,38876,65700,0,8688,0,0,0
o,0x00000000,1680091439.330114,172.16.1.2,37185,172.16.3.2,5201,10240,11726,6,64256,65728,6,6,4,1460,658,1,992,47,41772,38876,65700,0,10136,0,0,0
i,0x00000000,1680091439.387522,172.16.1.2,37185,172.16.3.2,5201,10240,11726,6,64256,65728,6,6,4,1460,658,1,992,47,41772,41772,65700,0,11584,0,0,0
o,0x00000000,1680091439.387593,172.16.1.2,37185,172.16.3.2,5201,10240,11726,6,64256,65728,6,6,4,1460,660,1,992,46,41772,38876,65700,0,8688,0,0,0
o,0x00000000,1680091439.387747,172.16.1.2,37185,172.16.3.2,5201,10240,11726,6,64256,65728,6,6,4,1460,660,1,992,46,41772,38876,65700,0,10136,0,0,0
i,0x00000000,1680091439.447008,172.16.1.2,37185,172.16.3.2,5201,10240,11726,6,64256,65728,6,6,4,1460,660,1,992,46,41772,41772,65700,0,11584,0,0,0
o,0x00000000,1680091439.447034,172.16.1.2,37185,172.16.3.2,5201,10240,13186,6,64256,65728,6,6,4,1460,666,1,992,46,41772,38876,65700,0,8688,0,0,0
o,0x00000000,1680091439.447135,172.16.1.2,37185,172.16.3.2,5201,10240,13186,6,64256,65728,6,6,4,1460,666,1,992,46,41772,38876,65700,0,10136,0,0,0
o,0x00000000,1680091439.447230,172.16.1.2,37185,172.16.3.2,5201,10240,13186,6,64256,65728,6,6,4,1460,666,1,992,46,41772,38876,65700,0,11584,0,0,0
i,0x00000000,1680091439.496415,172.16.1.2,37185,172.16.3.2,5201,10240,13186,6,64256,65728,6,6,4,1460,666,1,992,46,41772,41772,65700,0,13032,0,0,0
o,0x00000000,1680091439.496559,172.16.1.2,37185,172.16.3.2,5201,10240,13186,6,64256,65728,6,6,4,1460,671,1,992,46,41772,38876,65700,0,10136,0,0,0
o,0x00000000,1680091439.496688,172.16.1.2,37185,172.16.3.2,5201,10240,13186,6,64256,65728,6,6,4,1460,671,1,992,46,41772,38876,65700,0,11584,0,0,0
i,0x00000000,1680091439.536966,172.16.1.2,37185,172.16.3.2,5201,10240,13186,6,64256,65728,6,6,4,1460,671,1,992,46,41772,41772,65700,0,13032,0,0,0
o,0x00000000,1680091439.537020,172.16.1.2,37185,172.16.3.2,5201,10240,13186,6,65728,65728,6,6,4,1460,668,1,992,46,41772,40324,65700,0,11584,0,0,0
i,0x00000000,1680091439.556333,172.16.1.2,37185,172.16.3.2,5201,10240,13186,6,65728,65728,6,6,4,1460,668,1,992,46,41772,40324,65700,0,13032,0,0,0
o,0x00000000,1680091439.556357,172.16.1.2,37185,172.16.3.2,5201,10240,13186,6,64256,65728,6,6,4,1460,673,1,992,46,41772,37428,65700,0,10136,0,0,0
o,0x00000000,1680091439.556456,172.16.1.2,37185,172.16.3.2,5201,10240,13186,6,64256,65728,6,6,4,1460,673,1,992,46,41772,37428,65700,0,11584,0,0,0
i,0x00000000,1680091439.606704,172.16.1.2,37185,172.16.3.2,5201,10240,13186,6,64256,65728,6,6,4,1460,673,1,992,46,41772,41772,65700,0,13032,0,0,0
o,0x00000000,1680091439.606735,172.16.1.2,37185,172.16.3.2,5201,10240,13186,6,64256,65728,6,6,4,1460,673,1,992,45,41772,38876,65700,0,10136,0,0,0
o,0x00000000,1680091439.606841,172.16.1.2,37185,172.16.3.2,5201,10240,13186,6,64256,65728,6,6,4,1460,673,1,992,45,41772,38876,65700,0,11584,0,0,0
i,0x00000000,1680091439.657910,172.16.1.2,37185,172.16.3.2,5201,10240,13186,6,64256,65728,6,6,4,1460,673,1,992,45,41772,41772,65700,0,13032,0,0,0
o,0x00000000,1680091439.657953,172.16.1.2,37185,172.16.3.2,5201,10240,13186,6,64256,65728,6,6,4,1460,669,1,992,44,41772,38876,65700,0,10136,0,0,0
o,0x00000000,1680091439.658094,172.16.1.2,37185,172.16.3.2,5201,10240,13186,6,64256,65728,6,6,4,1460,669,1,992,44,41772,38876,65700,0,11584,0,0,0
i,0x00000000,1680091439.717375,172.16.1.2,37185,172.16.3.2,5201,10240,13186,6,64256,65728,6,6,4,1460,669,1,992,44,41772,41772,65700,0,13032,0,0,0
o,0x00000000,1680091439.717482,172.16.1.2,37185,172.16.3.2,5201,10240,13186,6,64256,65728,6,6,4,1460,674,1,992,45,41772,38876,65700,0,10136,0,0,0
o,0x00000000,1680091439.717622,172.16.1.2,37185,172.16.3.2,5201,10240,13186,6,64256,65728,6,6,4,1460,674,1,992,45,41772,38876,65700,0,11584,0,0,0
i,0x00000000,1680091439.767054,172.16.1.2,37185,172.16.3.2,5201,10240,13186,6,64256,65728,6,6,4,1460,674,1,992,45,41772,41772,65700,0,13032,0,0,0
o,0x00000000,1680091439.767095,172.16.1.2,37185,172.16.3.2,5201,10240,13260,6,65728,65728,6,6,4,1460,682,1,992,46,41772,40324,65700,0,11584,0,0,0
i,0x00000000,1680091439.767321,172.16.1.2,37185,172.16.3.2,5201,10240,13260,6,65728,65728,6,6,4,1460,682,1,992,46,41772,40324,65700,0,13032,0,0,0
o,0x00000000,1680091439.767350,172.16.1.2,37185,172.16.3.2,5201,10240,14480,2,65728,65728,6,6,4,1460,682,1,992,46,41772,40324,65700,0,13032,0,0,0
i,0x00000000,1680091439.793385,172.16.1.2,37185,172.16.3.2,5201,10240,13260,2,65728,65728,6,6,4,1460,682,1,992,46,41772,40324,65700,0,14480,0,0,0
o,0x00000000,1680091439.793405,172.16.1.2,37185,172.16.3.2,5201,10240,15928,2,65728,65728,6,6,4,1460,682,1,992,46,41772,40324,65700,0,14480,0,0,0
i,0x00000000,1680091439.818177,172.16.1.2,37185,172.16.3.2,5201,10240,13260,2,65728,65728,6,6,4,1460,682,1,992,46,41772,40324,65700,0,15928,0,0,0
o,0x00000000,1680091439.818234,172.16.1.2,37185,172.16.3.2,5201,7858,1448,2,65728,65728,6,6,4,1460,682,1,537920480,46,41772,40324,65700,0,15928,0,0,0
i,0x00000000,1680091439.818380,172.16.1.2,37185,172.16.3.2,5201,7858,1448,2,65728,65728,6,6,4,1460,682,1,537920480,46,41772,40324,65700,0,15928,0,0,0
i,0x00000000,1680091439.838759,172.16.1.2,37185,172.16.3.2,5201,7858,1448,2,65728,65728,6,6,4,1460,682,1,537920480,46,41772,40324,65700,0,15928,0,0,0
o,0x00000000,1680091439.838778,172.16.1.2,37185,172.16.3.2,5201,7858,2896,2,65728,65728,6,6,4,1460,682,1,537920480,46,41772,40324,65700,0,15928,0,0,0
i,0x00000000,1680091439.894104,172.16.1.2,37185,172.16.3.2,5201,7858,2896,2,65728,65728,6,6,4,1460,682,1,537920480,46,41772,40324,65700,0,17376,0,0,0
i,0x00000000,1680091439.916835,172.16.1.2,37185,172.16.3.2,5201,7858,2896,2,65728,65728,6,6,4,1460,682,1,537920480,46,41772,40324,65700,0,17376,0,0,0
o,0x00000000,1680091439.916976,172.16.1.2,37185,172.16.3.2,5201,7858,4344,2,65728,65728,6,6,4,1460,682,1,537920480,46,41772,40324,65700,0,17376,0,0,0
i,0x00000000,1680091439.947052,172.16.1.2,37185,172.16.3.2,5201,7858,4344,2,65728,65728,6,6,4,1460,682,1,537920480,46,41772,40324,65700,0,18824,0,0,0
i,0x00000000,1680091439.947074,172.16.1.2,37185,172.16.3.2,5201,7858,4344,2,65728,65728,6,6,4,1460,682,1,537920480,46,41772,40324,65700,0,18824,0,0,0
i,0x00000000,1680091439.977220,172.16.1.2,37185,172.16.3.2,5201,7858,4344,2,65728,65728,6,6,4,1460,682,1,537920480,46,41772,40324,65700,0,18824,0,0,0
o,0x00000000,1680091439.977242,172.16.1.2,37185,172.16.3.2,5201,7858,5792,2,65728,65728,6,6,4,1460,682,1,537920480,46,41772,40324,65700,0,18824,0,0,0
i,0x00000000,1680091439.987122,172.16.1.2,37185,172.16.3.2,5201,7858,5792,2,65728,65728,6,6,4,1460,682,1,537920480,46,41772,40324,65700,0,20272,0,0,0
o,0x00000000,1680091439.987248,172.16.1.2,37185,172.16.3.2,5201,7858,7858,6,49856,65728,6,6,4,1460,665,1,992,49,41772,24396,65700,0,4344,0,0,0
o,0x00000000,1680091439.987345,172.16.1.2,37185,172.16.3.2,5201,7858,7858,6,49856,65728,6,6,4,1460,665,1,992,49,41772,24396,65700,0,5792,0,0,0
i,0x00000000,1680091440.006797,172.16.1.2,37185,172.16.3.2,5201,7858,7858,6,49856,65728,6,6,4,1460,665,1,992,49,41772,41772,65700,0,7240,0,0,0
o,0x00000000,1680091440.006825,172.16.1.2,37185,172.16.3.2,5201,7858,9306,6,65728,65728,6,6,4,1460,650,1,992,50,41772,40324,65700,0,5792,0,0,0
o,0x00000000,1680091440.006970,172.16.1.2,37185,172.16.3.2,5201,7858,9306,6,65728,65728,6,6,4,1460,650,1,992,50,41772,40324,65700,0,7240,0,0,0
i,0x00000000,1680091440.097699,172.16.1.2,37185,172.16.3.2,5201,7858,9306,6,65728,65728,6,6,4,1460,650,1,992,50,41772,40324,65700,0,8688,0,0,0
o,0x00000000,1680091440.097821,172.16.1.2,37185,172.16.3.2,5201,7858,9306,6,65728,65728,6,6,4,1460,637,1,992,50,41772,38876,65700,0,7240,0,0,0
i,0x00000000,1680091440.156942,172.16.1.2,37185,172.16.3.2,5201,7858,9306,6,65728,65728,6,6,4,1460,637,1,992,50,41772,41772,65700,0,8688,0,0,0
o,0x00000000,1680091440.157053,172.16.1.2,37185,172.16.3.2,5201,7858,9306,6,64256,65728,6,6,4,1460,626,1,992,50,41772,38876,65700,0,5792,0,0,0
o,0x00000000,1680091440.157163,172.16.1.2,37185,172.16.3.2,5201,7858,9306,6,64256,65728,6,6,4,1460,626,1,992,50,41772,38876,65700,0,7240,0,0,0
i,0x00000000,1680091440.167493,172.16.1.2,37185,172.16.3.2,5201,7858,9306,6,64256,65728,6,6,4,1460,626,1,992,50,41772,41772,65700,0,8688,0,0,0
o,0x00000000,1680091440.167525,172.16.1.2,37185,172.16.3.2,5201,7858,9306,6,64256,65728,6,6,4,1460,616,1,992,50,41772,38876,65700,0,5792,0,0,0
o,0x00000000,1680091440.167761,172.16.1.2,37185,172.16.3.2,5201,7858,9306,6,64256,65728,6,6,4,1460,616,1,992,50,41772,38876,65700,0,7240,0,0,0
i,0x00000000,1680091440.248894,172.16.1.2,37185,172.16.3.2,5201,7858,9306,6,64256,65728,6,6,4,1460,616,1,992,50,41772,41772,65700,0,8688,0,0,0
o,0x00000000,1680091440.249028,172.16.1.2,37185,172.16.3.2,5201,7858,9306,6,65728,65728,6,6,4,1460,631,1,992,51,41772,40324,65700,0,7240,0,0,0
i,0x00000000,1680091440.257704,172.16.1.2,37185,172.16.3.2,5201,7858,9306,6,65728,65728,6,6,4,1460,631,1,992,51,41772,40324,65700,0,8688,0,0,0
o,0x00000000,1680091440.257744,172.16.1.2,37185,172.16.3.2,5201,7858,9306,6,65728,65728,6,6,4,1460,613,1,992,52,41772,38876,65700,0,7240,0,0,0
i,0x00000000,1680091440.317544,172.16.1.2,37185,172.16.3.2,5201,7858,9306,6,65728,65728,6,6,4,1460,613,1,992,52,41772,41772,65700,0,8688,0,0,0
o,0x00000000,1680091440.317687,172.16.1.2,37185,172.16.3.2,5201,7858,9779,6,64256,65728,6,6,4,1460,601,1,992,52,41772,38876,65700,0,5792,0,0,0
o,0x00000000,1680091440.317879,172.16.1.2,37185,172.16.3.2,5201,7858,9779,6,64256,65728,6,6,4,1460,601,1,992,52,41772,38876,65700,0,7240,0,0,0
i,0x00000000,1680091440.357230,172.16.1.2,37185,172.16.3.2,5201,7858,9779,6,64256,65728,6,6,4,1460,601,1,992,52,41772,41772,65700,0,8688,0,0,0
o,0x00000000,1680091440.357284,172.16.1.2,37185,172.16.3.2,5201,7858,9779,6,64256,65728,6,6,4,1460,602,1,992,49,41772,38876,65700,0,5792,0,0,0
o,0x00000000,1680091440.357487,172.16.1.2,37185,172.16.3.2,5201,7858,9779,6,64256,65728,6,6,4,1460,602,1,992,49,41772,38876,65700,0,7240,0,0,0
i,0x00000000,1680091440.407037,172.16.1.2,37185,172.16.3.2,5201,7858,9779,6,64256,65728,6,6,4,1460,602,1,992,49,41772,41772,65700,0,8688,0,0,0
o,0x00000000,1680091440.407136,172.16.1.2,37185,172.16.3.2,5201,7858,9779,6,65728,65728,6,6,4,1460,591,1,992,48,41772,40324,65700,0,7240,0,0,0
i,0x00000000,1680091440.460896,172.16.1.2,37185,172.16.3.2,5201,7858,9779,6,65728,65728,6,6,4,1460,591,1,992,48,41772,40324,65700,0,8688,0,0,0
o,0x00000000,1680091440.460959,172.16.1.2,37185,172.16.3.2,5201,7858,9779,6,65728,65728,6,6,4,1460,598,1,992,48,41772,38876,65700,0,7240,0,0,0
i,0x00000000,1680091440.512797,172.16.1.2,37185,172.16.3.2,5201,7858,9779,6,65728,65728,6,6,4,1460,598,1,992,48,41772,41772,65700,0,8688,0,0,0
o,0x00000000,1680091440.512858,172.16.1.2,37185,172.16.3.2,5201,7858,9779,6,64256,65728,6,6,4,1460,604,1,992,47,41772,38876,65700,0,5792,0,0,0
o,0x00000000,1680091440.513011,172.16.1.2,37185,172.16.3.2,5201,7858,9779,6,64256,65728,6,6,4,1460,604,1,992,47,41772,38876,65700,0,7240,0,0,0
i,0x00000000,1680091440.565979,172.16.1.2,37185,172.16.3.2,5201,7858,9779,6,64256,65728,6,6,4,1460,604,1,992,47,41772,41772,65700,0,8688,0,0,0
o,0x00000000,1680091440.566172,172.16.1.2,37185,172.16.3.2,5201,7858,9779,6,64256,65728,6,6,4,1460,613,1,992,48,41772,38876,65700,0,5792,0,0,0
o,0x00000000,1680091440.566302,172.16.1.2,37185,172.16.3.2,5201,7858,9779,6,64256,65728,6,6,4,1460,613,1,992,48,41772,38876,65700,0,7240,0,0,0
i,0x00000000,1680091440.608134,172.16.1.2,37185,172.16.3.2,5201,7858,9779,6,64256,65728,6,6,4,1460,613,1,992,48,41772,41772,65700,0,8688,0,0,0
o,0x00000000,1680091440.608329,172.16.1.2,37185,172.16.3.2,5201,7858,9835,6,65728,65728,6,6,4,1460,617,1,992,47,41772,40324,65700,0,7240,0,0,0
i,0x00000000,1680091440.627035,172.16.1.2,37185,172.16.3.2,5201,7858,9835,6,65728,65728,6,6,4,1460,617,1,992,47,41772,40324,65700,0,8688,0,0,0
o,0x00000000,1680091440.627198,172.16.1.2,37185,172.16.3.2,5201,7858,9913,6,65728,65728,6,6,4,1460,604,1,992,48,41772,38876,65700,0,7240,0,0,0
i,0x00000000,1680091440.657876,172.16.1.2,37185,172.16.3.2,5201,7858,9913,6,65728,65728,6,6,4,1460,604,1,992,48,41772,41772,65700,0,8688,0,0,0
o,0x00000000,1680091440.658016,172.16.1.2,37185,172.16.3.2,5201,7858,10029,6,64256,65728,6,6,4,1460,585,1,992,50,41772,38876,65700,0,5792,0,0,0
o,0x00000000,1680091440.658125,172.16.1.2,37185,172.16.3.2,5201,7858,10029,6,64256,65728,6,6,4,1460,585,1,992,50,41772,38876,65700,0,7240,0,0,0
i,0x00000000,1680091440.727843,172.16.1.2,37185,172.16.3.2,5201,7858,10029,6,64256,65728,6,6,4,1460,585,1,992,50,41772,40600,65700,0,8688,0,0,0
o,0x00000000,1680091440.727899,172.16.1.2,37185,172.16.3.2,5201,7858,10300,6,64256,65728,6,6,4,1460,572,1,992,50,41772,37704,65700,0,5792,0,0,0
o,0x00000000,1680091440.728033,172.16.1.2,37185,172.16.3.2,5201,7858,10300,6,64256,65728,6,6,4,1460,572,1,992,50,41772,37704,65700,0,7240,0,0,0
o,0x00000000,1680091440.728161,172.16.1.2,37185,172.16.3.2,5201,7858,10300,6,64256,65728,6,6,4,1460,572,1,992,50,41772,37704,65700,0,8688,0,0,0
i,0x00000000,1680091440.807891,172.16.1.2,37185,172.16.3.2,5201,7858,10300,6,64256,65728,6,6,4,1460,572,1,992,50,41772,41772,65700,0,10136,0,0,0
o,0x00000000,1680091440.808093,172.16.1.2,37185,172.16.3.2,5201,7858,10610,6,64256,65728,6,6,4,1460,577,1,992,48,41772,38876,65700,0,7240,0,0,0
o,0x00000000,1680091440.808275,172.16.1.2,37185,172.16.3.2,5201,7858,10610,6,64256,65728,6,6,4,1460,577,1,992,48,41772,38876,65700,0,8688,0,0,0
i,0x00000000,1680091440.817730,172.16.1.2,37185,172.16.3.2,5201,7858,10610,6,64256,65728,6,6,4,1460,577,1,992,48,41772,41772,65700,0,10136,0,0,0
o,0x00000000,1680091440.817773,172.16.1.2,37185,172.16.3.2,5201,7858,10649,6,64256,65728,6,6,4,1460,565,1,992,48,41772,38876,65700,0,7240,0,0,0
o,0x00000000,1680091440.817918,172.16.1.2,37185,172.16.3.2,5201,7858,10649,6,64256,65728,6,6,4,1460,565,1,992,48,41772,38876,65700,0,8688,0,0,0
i,0x00000000,1680091440.882149,172.16.1.2,37185,172.16.3.2,5201,7858,10649,6,64256,65728,6,6,4,1460,565,1,992,48,41772,41772,65700,0,10136,0,0,0
o,0x00000000,1680091440.882392,172.16.1.2,37185,172.16.3.2,5201,7858,10920,6,64256,65728,6,6,4,1460,559,1,992,47,41772,38876,65700,0,7240,0,0,0
o,0x00000000,1680091440.882542,172.16.1.2,37185,172.16.3.2,5201,7858,10920,6,64256,65728,6,6,4,1460,559,1,992,47,41772,38876,65700,0,8688,0,0,0
i,0x00000000,1680091440.928101,172.16.1.2,37185,172.16.3.2,5201,7858,10920,6,64256,65728,6,6,4,1460,559,1,992,47,41772,41772,65700,0,10136,0,0,0
o,0x00000000,1680091440.928190,172.16.1.2,37185,172.16.3.2,5201,7858,11076,6,65728,65728,6,6,4,1460,570,1,992,48,41772,40324,65700,0,8688,0,0,0
i,0x00000000,1680091440.946902,172.16.1.2,37185,172.16.3.2,5201,7858,11076,6,65728,65728,6,6,4,1460,570,1,992,48,41772,40324,65700,0,10136,0,0,0
o,0x00000000,1680091440.947608,172.16.1.2,37185,172.16.3.2,5201,7858,11153,6,64256,65728,6,6,4,1460,555,1,992,48,41772,37428,65700,0,7240,0,0,0
o,0x00000000,1680091440.947759,172.16.1.2,37185,172.16.3.2,5201,7858,11153,6,64256,65728,6,6,4,1460,555,1,992,48,41772,37428,65700,0,8688,0,0,0
i,0x00000000,1680091440.995674,172.16.1.2,37185,172.16.3.2,5201,7858,11153,6,64256,65728,6,6,4,1460,555,1,992,48,41772,41772,65700,0,10136,0,0,0
o,0x00000000,1680091440.995873,172.16.1.2,37185,172.16.3.2,5201,7858,11347,6,64256,65728,6,6,4,1460,558,1,992,46,41772,38876,65700,0,7240,0,0,0
o,0x00000000,1680091440.996019,172.16.1.2,37185,172.16.3.2,5201,7858,11347,6,64256,65728,6,6,4,1460,558,1,992,46,41772,38876,65700,0,8688,0,0,0
i,0x00000000,1680091441.068722,172.16.1.2,37185,172.16.3.2,5201,7858,11347,6,64256,65728,6,6,4,1460,558,1,992,46,41772,41772,65700,0,10136,0,0,0
o,0x00000000,1680091441.069007,172.16.1.2,37185,172.16.3.2,5201,7858,11618,6,64256,65728,6,6,4,1460,561,1,992,45,41772,38876,65700,0,7240,0,0,0
o,0x00000000,1680091441.069855,172.16.1.2,37185,172.16.3.2,5201,7858,11618,6,64256,65728,6,6,4,1460,561,1,992,45,41772,38876,65700,0,8688,0,0,0
o,0x00000000,1680091441.070067,172.16.1.2,37185,172.16.3.2,5201,7858,11618,6,64256,65728,6,6,4,1460,561,1,992,45,41772,38876,65700,0,10136,0,0,0
i,0x00000000,1680091441.128000,172.16.1.2,37185,172.16.3.2,5201,7858,11618,6,64256,65728,6,6,4,1460,561,1,992,45,41772,41772,65700,0,11584,0,0,0
o,0x00000000,1680091441.128224,172.16.1.2,37185,172.16.3.2,5201,7858,11851,6,64256,65728,6,6,4,1460,571,1,992,46,41772,38876,65700,0,8688,0,0,0
o,0x00000000,1680091441.128430,172.16.1.2,37185,172.16.3.2,5201,7858,11851,6,64256,65728,6,6,4,1460,571,1,992,46,41772,38876,65700,0,10136,0,0,0
i,0x00000000,1680091441.156646,172.16.1.2,37185,172.16.3.2,5201,7858,11851,6,64256,65728,6,6,4,1460,571,1,992,46,41772,41772,65700,0,11584,0,0,0
o,0x00000000,1680091441.156773,172.16.1.2,37185,172.16.3.2,5201,7858,11967,6,64256,65728,6,6,4,1460,584,1,992,48,41772,38876,65700,0,8688,0,0,0
o,0x00000000,1680091441.156915,172.16.1.2,37185,172.16.3.2,5201,7858,11967,6,64256,65728,6,6,4,1460,584,1,992,48,41772,38876,65700,0,10136,0,0,0
i,0x00000000,1680091441.196937,172.16.1.2,37185,172.16.3.2,5201,7858,11967,6,64256,65728,6,6,4,1460,584,1,992,48,41772,41772,65700,0,11584,0,0,0
o,0x00000000,1680091441.197083,172.16.1.2,37185,172.16.3.2,5201,7858,12122,6,65728,65728,6,6,4,1460,587,1,992,46,41772,40324,65700,0,10136,0,0,0
i,0x00000000,1680091441.227623,172.16.1.2,37185,172.16.3.2,5201,7858,12122,6,65728,65728,6,6,4,1460,587,1,992,46,41772,40324,65700,0,11584,0,0,0
o,0x00000000,1680091441.227776,172.16.1.2,37185,172.16.3.2,5201,7858,12239,6,64256,65728,6,6,4,1460,578,1,992,46,41772,37428,65700,0,8688,0,0,0
o,0x00000000,1680091441.227933,172.16.1.2,37185,172.16.3.2,5201,7858,12239,6,64256,65728,6,6,4,1460,578,1,992,46,41772,37428,65700,0,10136,0,0,0
i,0x00000000,1680091441.277117,172.16.1.2,37185,172.16.3.2,5201,7858,12239,6,64256,65728,6,6,4,1460,578,1,992,46,41772,41772,65700,0,11584,0,0,0
o,0x00000000,1680091441.277237,172.16.1.2,37185,172.16.3.2,5201,7858,12432,6,65728,65728,6,6,4,1460,590,1,992,47,41772,40324,65700,0,10136,0,0,0
i,0x00000000,1680091441.307743,172.16.1.2,37185,172.16.3.2,5201,7858,12432,6,65728,65728,6,6,4,1460,590,1,992,47,41772,40324,65700,0,11584,0,0,0
o,0x00000000,1680091441.308028,172.16.1.2,37185,172.16.3.2,5201,7858,12549,6,64256,65728,6,6,4,1460,589,1,992,45,41772,37428,65700,0,8688,0,0,0
o,0x00000000,1680091441.308256,172.16.1.2,37185,172.16.3.2,5201,7858,12549,6,64256,65728,6,6,4,1460,589,1,992,45,41772,37428,65700,0,10136,0,0,0
i,0x00000000,1680091441.340451,172.16.1.2,37185,172.16.3.2,5201,7858,12549,6,64256,65728,6,6,4,1460,589,1,992,45,41772,41772,65700,0,11584,0,0,0
o,0x00000000,1680091441.340509,172.16.1.2,37185,172.16.3.2,5201,7858,12665,6,64256,65728,6,6,4,1460,588,1,992,44,41772,38876,65700,0,8688,0,0,0
o,0x00000000,1680091441.340615,172.16.1.2,37185,172.16.3.2,5201,7858,12665,6,64256,65728,6,6,4,1460,588,1,992,44,41772,38876,65700,0,10136,0,0,0
i,0x00000000,1680091441.397598,172.16.1.2,37185,172.16.3.2,5201,7858,12665,6,64256,65728,6,6,4,1460,588,1,992,44,41772,41772,65700,0,11584,0,0,0
o,0x00000000,1680091441.397917,172.16.1.2,37185,172.16.3.2,5201,7858,12898,6,64256,65728,6,6,4,1460,595,1,992,44,41772,38876,65700,0,8688,0,0,0
o,0x00000000,1680091441.398234,172.16.1.2,37185,172.16.3.2,5201,7858,12898,6,64256,65728,6,6,4,1460,595,1,992,44,41772,38876,65700,0,10136,0,0,0
i,0x00000000,1680091441.445987,172.16.1.2,37185,172.16.3.2,5201,7858,12898,6,64256,65728,6,6,4,1460,595,1,992,44,41772,41772,65700,0,11584,0,0,0
o,0x00000000,1680091441.446268,172.16.1.2,37185,172.16.3.2,5201,7858,13091,6,64256,65728,6,6,4,1460,609,1,992,47,41772,38876,65700,0,8688,0,0,0
o,0x00000000,1680091441.446789,172.16.1.2,37185,172.16.3.2,5201,7858,13091,6,64256,65728,6,6,4,1460,609,1,992,47,41772,38876,65700,0,10136,0,0,0
o,0x00000000,1680091441.446989,172.16.1.2,37185,172.16.3.2,5201,7858,13091,6,64256,65728,6,6,4,1460,609,1,992,47,41772,38876,65700,0,11584,0,0,0
i,0x00000000,1680091441.497487,172.16.1.2,37185,172.16.3.2,5201,7858,13091,6,64256,65728,6,6,4,1460,609,1,992,47,41772,41772,65700,0,13032,0,0,0
o,0x00000000,1680091441.497854,172.16.1.2,37185,172.16.3.2,5201,7858,13285,6,64256,65728,6,6,4,1460,609,1,992,45,41772,38876,65700,0,10136,0,0,0
o,0x00000000,1680091441.498028,172.16.1.2,37185,172.16.3.2,5201,7858,13285,6,64256,65728,6,6,4,1460,609,1,992,45,41772,38876,65700,0,11584,0,0,0
i,0x00000000,1680091441.536022,172.16.1.2,37185,172.16.3.2,5201,7858,13285,6,64256,65728,6,6,4,1460,609,1,992,45,41772,41772,65700,0,13032,0,0,0
o,0x00000000,1680091441.536048,172.16.1.2,37185,172.16.3.2,5201,7858,13440,6,65728,65728,6,6,4,1460,613,1,992,44,41772,40324,65700,0,11584,0,0,0
i,0x00000000,1680091441.591927,172.16.1.2,37185,172.16.3.2,5201,7858,13440,6,65728,65728,6,6,4,1460,613,1,992,44,41772,40324,65700,0,13032,0,0,0
o,0x00000000,1680091441.591953,172.16.1.2,37185,172.16.3.2,5201,7858,13673,6,65728,65728,6,6,4,1460,641,1,992,51,41772,38876,65700,0,11584,0,0,0
i,0x00000000,1680091441.612253,172.16.1.2,37185,172.16.3.2,5201,7858,13673,6,65728,65728,6,6,4,1460,641,1,992,51,41772,41772,65700,0,13032,0,0,0
o,0x00000000,1680091441.612253,172.16.1.2,37185,172.16.3.2,5201,7858,13750,6,64256,65728,6,6,4,1460,645,1,992,49,41772,38876,65700,0,10136,0,0,0
o,0x00000000,1680091441.612253,172.16.1.2,37185,172.16.3.2,5201,7858,13750,6,64256,65728,6,6,4,1460,645,1,992,49,41772,38876,65700,0,11584,0,0,0
i,0x00000000,1680091441.654680,172.16.1.2,37185,172.16.3.2,5201,7858,13750,6,64256,65728,6,6,4,1460,645,1,992,49,41772,41772,65700,0,13032,0,0,0
o,0x00000000,1680091441.654733,172.16.1.2,37185,172.16.3.2,5201,7858,13905,6,64256,65728,6,6,4,1460,645,1,992,47,41772,38876,65700,0,10136,0,0,0
o,0x00000000,1680091441.654912,172.16.1.2,37185,172.16.3.2,5201,7858,13905,6,64256,65728,6,6,4,1460,645,1,992,47,41772,38876,65700,0,11584,0,0,0
i,0x00000000,1680091441.698460,172.16.1.2,37185,172.16.3.2,5201,7858,13905,6,64256,65728,6,6,4,1460,645,1,992,47,41772,41772,65700,0,13032,0,0,0
o,0x00000000,1680091441.698460,172.16.1.2,37185,172.16.3.2,5201,7858,14061,6,64256,65728,6,6,4,1460,661,1,992,50,41772,38876,65700,0,10136,0,0,0
o,0x00000000,1680091441.698460,172.16.1.2,37185,172.16.3.2,5201,7858,14061,6,64256,65728,6,6,4,1460,661,1,992,50,41772,38876,65700,0,11584,0,0,0
i,0x00000000,1680091441.727071,172.16.1.2,37185,172.16.3.2,5201,7858,14061,6,64256,65728,6,6,4,1460,661,1,992,50,41772,41772,65700,0,13032,0,0,0
o,0x00000000,1680091441.727115,172.16.1.2,37185,172.16.3.2,5201,7858,14480,2,64256,65728,6,6,4,1460,661,1,992,50,41772,41772,65700,0,13032,0,0,0
i,0x00000000,1680091441.759591,172.16.1.2,37185,172.16.3.2,5201,7858,14061,2,64256,65728,6,6,4,1460,661,1,992,50,41772,41772,65700,0,14480,0,0,0
o,0x00000000,1680091441.759634,172.16.1.2,37185,172.16.3.2,5201,7858,15928,2,64256,65728,6,6,4,1460,661,1,992,50,41772,41772,65700,0,14480,0,0,0
i,0x00000000,1680091441.787464,172.16.1.2,37185,172.16.3.2,5201,7858,14061,2,64256,65728,6,6,4,1460,661,1,992,50,41772,41772,65700,0,15928,0,0,0
o,0x00000000,1680091441.787508,172.16.1.2,37185,172.16.3.2,5201,9831,1448,2,64256,65728,6,6,4,1460,661,1,537920480,50,41772,41772,65700,0,15928,0,0,0
i,0x00000000,1680091441.797810,172.16.1.2,37185,172.16.3.2,5201,9831,1448,2,64256,65728,6,6,4,1460,661,1,537920480,50,41772,41772,65700,0,15928,0,0,0
o,0x00000000,1680091441.797848,172.16.1.2,37185,172.16.3.2,5201,9831,2896,2,64256,65728,6,6,4,1460,661,1,537920480,50,41772,41772,65700,0,15928,0,0,0
i,0x00000000,1680091441.837617,172.16.1.2,37185,172.16.3.2,5201,9831,2896,2,64256,65728,6,6,4,1460,661,1,537920480,50,41772,41772,65700,0,17376,0,0,0
o,0x00000000,1680091441.837653,172.16.1.2,37185,172.16.3.2,5201,9831,4344,2,64256,65728,6,6,4,1460,661,1,537920480,50,41772,41772,65700,0,17376,0,0,0
i,0x00000000,1680091441.847229,172.16.1.2,37185,172.16.3.2,5201,9831,4344,2,64256,65728,6,6,4,1460,661,1,537920480,50,41772,41772,65700,0,18824,0,0,0
i,0x00000000,1680091441.866982,172.16.1.2,37185,172.16.3.2,5201,9831,4344,2,64256,65728,6,6,4,1460,661,1,537920480,50,41772,41772,65700,0,18824,0,0,0
o,0x00000000,1680091441.867130,172.16.1.2,37185,172.16.3.2,5201,9831,5792,2,64256,65728,6,6,4,1460,661,1,537920480,50,41772,41772,65700,0,18824,0,0,0
i,0x00000000,1680091441.887475,172.16.1.2,37185,172.16.3.2,5201,9831,5792,2,64256,65728,6,6,4,1460,661,1,537920480,50,41772,41772,65700,0,20272,0,0,0
i,0x00000000,1680091441.936636,172.16.1.2,37185,172.16.3.2,5201,9831,5792,2,64256,65728,6,6,4,1460,661,1,537920480,50,41772,41772,65700,0,20272,0,0,0
i,0x00000000,1680091441.947734,172.16.1.2,37185,172.16.3.2,5201,9831,5792,2,64256,65728,6,6,4,1460,661,1,537920480,50,41772,41772,65700,0,20272,0,0,0
o,0x00000000,1680091441.947794,172.16.1.2,37185,172.16.3.2,5201,9831,7240,2,64256,65728,6,6,4,1460,661,1,537920480,50,41772,41772,65700,0,20272,0,0,0
i,0x00000000,1680091441.987365,172.16.1.2,37185,172.16.3.2,5201,9831,7240,2,64256,65728,6,6,4,1460,661,1,537920480,50,41772,41772,65700,0,21720,0,0,0
