enable_time_secs=1682517998	enable_time_usecs=395499	siftrver=1.2.4	hz=100	tcp_rtt_scale=32	sysname=FreeBSD	sysver=1400084	ipmode=4
o,0x00000000,1682517998.395876,10.0.2.15,22,10.0.2.2,56561,1073725440,17202,1026,65535,65700,0,0,4,1460,1,0,4,23,33580,60,65700,0,0,0,0,0
i,0x00000000,1682517998.396434,10.0.2.15,22,10.0.2.2,56561,1073725440,17202,1026,65535,65700,0,0,4,1460,1,0,4,23,33580,60,65700,0,60,0,0,0
o,0x00000000,1682517998.396748,10.0.2.15,22,10.0.2.2,56561,1073725440,17262,1026,65535,65700,0,0,4,1460,1,0,4,23,33580,104,65700,0,0,0,0,0
i,0x00000000,1682517998.397178,10.0.2.15,22,10.0.2.2,56561,1073725440,17262,1026,65535,65700,0,0,4,1460,1,0,4,23,33580,104,65700,0,104,0,0,0
o,0x00000000,1682517998.397298,10.0.2.15,22,10.0.2.2,56561,1073725440,17366,1026,65535,65700,0,0,4,1460,1,0,4,23,33580,44,65700,0,0,0,0,0
o,0x00000000,1682517998.397465,10.0.2.15,22,10.0.2.2,56561,1073725440,17366,1026,65535,65700,0,0,4,1460,1,0,4,23,33580,116,65700,0,44,0,0,0
i,0x00000000,1682517998.398019,10.0.2.15,22,10.0.2.2,56561,1073725440,17366,1026,65535,65700,0,0,4,1460,1,0,4,23,33580,116,65700,0,116,0,0,0
i,0x00000000,1682517998.398039,10.0.2.15,22,10.0.2.2,56561,1073725440,17410,1026,65535,65700,0,0,4,1460,1,0,4,23,33580,72,65700,0,72,0,0,0
i,0x00000000,1682517998.399609,10.0.2.15,22,10.0.2.2,56561,1073725440,17482,1026,65535,65700,0,0,4,1460,1,0,4,23,33580,0,65700,0,0,0,0,0
i,0x00000000,1682517998.399628,10.0.2.15,22,10.0.2.2,56561,1073725440,17482,1026,65535,65700,0,0,4,1460,1,0,4,23,33580,0,65700,36,0,0,0,0
o,0x00000000,1682517998.399647,10.0.2.15,22,10.0.2.2,56561,1073725440,17482,1026,65535,65700,0,0,4,1460,1,0,5,23,33580,0,65700,96,0,0,0,0
i,0x00000000,1682517998.399784,10.0.2.15,22,10.0.2.2,56561,1073725440,17482,1026,65535,65700,0,0,4,1460,1,0,4,23,33580,0,65700,96,0,0,0,0
o,0x00000000,1682517998.399801,10.0.2.15,22,10.0.2.2,56561,1073725440,17482,1026,65535,65604,0,0,5,1460,1,0,7,23,33580,0,65700,96,0,0,0,0
o,0x00000000,1682517998.400385,10.0.2.15,22,10.0.2.2,56561,1073725440,17482,1026,65535,65604,0,0,8,1460,1,0,4,23,33580,0,65700,0,0,0,0,0
i,0x00000000,1682517998.400865,10.0.2.15,22,10.0.2.2,56561,1073725440,17482,1026,65535,65604,0,0,8,1460,1,0,67108884,23,33580,0,65700,0,1,0,0,0
i,0x00000000,1682517999.616374,10.0.2.15,22,10.0.2.2,56565,1073725440,14600,0,65535,65700,0,0,4,1460,1,0,0,27,33580,0,65700,0,0,0,0,0
o,0x00000000,1682517999.629260,10.0.2.15,22,10.0.2.2,56565,1073725440,14600,1026,65535,65700,0,0,4,1460,1,0,0,27,33580,38,65700,41,0,0,0,0
i,0x00000000,1682517999.630036,10.0.2.15,22,10.0.2.2,56565,1073725440,14600,1026,65535,65700,0,0,4,1460,1,0,0,27,33580,38,65700,0,38,0,0,0
i,0x00000000,1682517999.630885,10.0.2.15,22,10.0.2.2,56565,1073725440,14638,1026,65535,65700,0,0,4,1460,1,0,0,23,33580,0,65700,0,0,0,0,0
i,0x00000000,1682517999.630907,10.0.2.15,22,10.0.2.2,56565,1073725440,14638,1026,65535,65700,0,0,4,1460,1,0,0,23,33580,0,65700,1460,0,0,0,0
o,0x00000000,1682517999.630930,10.0.2.15,22,10.0.2.2,56565,1073725440,14638,1026,65535,65700,0,0,4,1460,1,0,1,23,33580,0,65700,1504,0,0,0,0
o,0x00000000,1682517999.632113,10.0.2.15,22,10.0.2.2,56565,1073725440,14638,1026,65535,65700,0,0,4,1460,1,0,0,23,33580,1056,65700,1504,0,0,0,0
i,0x00000000,1682517999.632478,10.0.2.15,22,10.0.2.2,56565,1073725440,14638,1026,65535,65700,0,0,4,1460,1,0,0,23,33580,1056,65700,0,1056,0,0,0
i,0x00000000,1682517999.634292,10.0.2.15,22,10.0.2.2,56565,1073725440,15694,1026,65535,65700,0,0,4,1460,1,0,0,24,33580,0,65700,0,0,0,0,0
o,0x00000000,1682517999.637693,10.0.2.15,22,10.0.2.2,56565,1073725440,15694,1026,65535,65700,0,0,4,1460,1,0,0,24,33580,484,65700,0,0,0,0,0
i,0x00000000,1682517999.638361,10.0.2.15,22,10.0.2.2,56565,1073725440,15694,1026,65535,65700,0,0,4,1460,1,0,0,24,33580,484,65700,0,484,0,0,0
i,0x00000000,1682517999.643533,10.0.2.15,22,10.0.2.2,56565,1073725440,16178,1026,65535,65700,0,0,4,1460,1,0,0,24,33580,0,65700,0,0,0,0,0
i,0x00000000,1682517999.649088,10.0.2.15,22,10.0.2.2,56565,1073725440,16178,1026,65535,65700,0,0,4,1460,1,0,0,24,33580,0,65700,0,0,0,0,0
o,0x00000000,1682517999.649122,10.0.2.15,22,10.0.2.2,56565,1073725440,16178,1026,65535,65700,0,0,4,1460,1,0,1,24,33580,0,65700,44,0,0,0,0
o,0x00000000,1682517999.649316,10.0.2.15,22,10.0.2.2,56565,1073725440,16178,1026,65535,65700,0,0,4,1460,1,0,0,24,33580,44,65700,0,0,0,0,0
i,0x00000000,1682517999.649711,10.0.2.15,22,10.0.2.2,56565,1073725440,16178,1026,65535,65700,0,0,4,1460,1,0,0,24,33580,44,65700,0,44,0,0,0
i,0x00000000,1682517999.649711,10.0.2.15,22,10.0.2.2,56565,1073725440,16222,1026,65535,65700,0,0,4,1460,1,0,0,24,33580,0,65700,0,0,0,0,0
o,0x00000000,1682517999.656630,10.0.2.15,22,10.0.2.2,56565,1073725440,16222,1026,65535,65700,0,0,4,1460,1,0,0,24,33580,68,65700,0,0,0,0,0
i,0x00000000,1682517999.657242,10.0.2.15,22,10.0.2.2,56565,1073725440,16222,1026,65535,65700,0,0,4,1460,1,0,0,24,33580,68,65700,0,68,0,0,0
i,0x00000000,1682517999.659954,10.0.2.15,22,10.0.2.2,56565,1073725440,16290,1026,65535,65700,0,0,4,1460,1,0,0,24,33580,0,65700,0,0,0,0,0
o,0x00000000,1682517999.666373,10.0.2.15,22,10.0.2.2,56565,1073725440,16290,1026,65535,65700,0,0,4,1460,1,0,0,24,33580,28,65700,0,0,0,0,0
i,0x00000000,1682517999.667598,10.0.2.15,22,10.0.2.2,56565,1073725440,16290,1026,65535,65700,0,0,4,1460,1,0,0,24,33580,28,65700,0,28,0,0,0
o,0x00000000,1682517999.670105,10.0.2.15,22,10.0.2.2,56565,1073725440,16318,1026,65535,65700,0,0,4,1460,1,0,0,24,33580,768,65700,0,0,0,0,0
i,0x00000000,1682517999.670762,10.0.2.15,22,10.0.2.2,56565,1073725440,16318,1026,65535,65700,0,0,4,1460,1,0,0,24,33580,768,65700,0,768,0,0,0
i,0x00000000,1682517999.670792,10.0.2.15,22,10.0.2.2,56565,1073725440,16318,1026,65535,65700,0,0,4,1460,1,0,0,24,33580,768,65700,112,768,0,0,0
o,0x00000000,1682517999.671525,10.0.2.15,22,10.0.2.2,56565,1073725440,17086,1026,65535,65700,0,0,4,1460,1,0,0,24,33580,44,65700,0,0,0,0,0
i,0x00000000,1682517999.672383,10.0.2.15,22,10.0.2.2,56565,1073725440,17086,1026,65535,65700,0,0,4,1460,1,0,0,24,33580,44,65700,0,44,0,0,0
i,0x00000000,1682517999.673109,10.0.2.15,22,10.0.2.2,56565,1073725440,17130,1026,65535,65700,0,0,4,1460,1,0,0,24,33580,0,65700,0,0,0,0,0
o,0x00000000,1682517999.674491,10.0.2.15,22,10.0.2.2,56565,1073725440,17130,1026,65535,65700,0,0,4,1460,1,0,4,24,33580,72,65700,0,0,0,0,0
i,0x00000000,1682517999.675162,10.0.2.15,22,10.0.2.2,56565,1073725440,17130,1026,65535,65700,0,0,4,1460,1,0,4,24,33580,72,65700,0,72,0,0,0
i,0x00000000,1682517999.675745,10.0.2.15,22,10.0.2.2,56565,1073725440,17202,1026,65535,65700,0,0,4,1460,1,0,4,24,33580,0,65700,0,0,0,0,0
o,0x00000000,1682517999.698086,172.16.1.2,16526,172.16.3.2,5101,1073725440,1073725440,2,0,0,0,0,2,536,0,1,672,100,32768,0,65536,0,0,0,0,0
o,0x00000000,1682517999.707664,10.0.2.15,22,10.0.2.2,56565,1073725440,17202,1026,65535,65700,0,0,4,1460,1,0,5,24,33580,0,65700,0,0,0,0,0
i,0x00000000,1682517999.820351,172.16.1.2,16526,172.16.3.2,5101,1073725440,1073725440,2,0,0,0,0,2,536,0,1,672,100,32768,0,65536,0,1,0,0,0
o,0x00000000,1682517999.820447,172.16.1.2,16526,172.16.3.2,5101,45078,14480,2,65535,65700,6,6,4,1460,578,1,993,65,33580,0,65700,0,0,0,0,0
o,0x00000000,1682517999.822438,172.16.1.2,16526,172.16.3.2,5101,45078,14480,2,65535,65700,6,6,4,1460,578,1,996,65,33580,37,65700,0,0,0,0,0
i,0x00000000,1682517999.948462,172.16.1.2,16526,172.16.3.2,5101,45078,14480,2,65535,65700,6,6,4,1460,578,1,996,65,33580,37,65700,0,37,0,0,0
o,0x00000000,1682517999.950188,172.16.1.2,16526,172.16.3.2,5101,45078,14517,1026,65728,65728,6,6,4,1460,558,1,996,62,33580,4,65700,0,0,0,0,0
o,0x00000000,1682517999.952232,172.16.1.2,16526,172.16.3.2,5101,45078,14517,1026,65728,65728,6,6,4,1460,558,1,996,62,33580,128,65700,0,4,0,0,0
i,0x00000000,1682518000.070952,172.16.1.2,16526,172.16.3.2,5101,45078,14517,1026,65728,65728,6,6,4,1460,558,1,996,62,33580,128,65700,0,128,0,0,0
i,0x00000000,1682518000.071074,172.16.1.2,16526,172.16.3.2,5101,45078,14645,1026,65600,65728,6,6,4,1460,537,1,996,61,33580,0,65700,0,0,0,0,0
o,0x00000000,1682518000.071957,172.16.1.2,38368,172.16.3.2,5101,1073725440,1073725440,2,0,0,0,0,2,536,0,1,672,100,32768,0,65536,0,0,0,0,0
o,0x00000000,1682518000.150677,172.16.1.2,16526,172.16.3.2,5101,45078,14645,1026,65728,65728,6,6,4,1460,537,1,997,61,33580,0,65700,0,0,0,0,0
i,0x00000000,1682518000.178082,172.16.1.2,38368,172.16.3.2,5101,1073725440,1073725440,2,0,0,0,0,2,536,0,1,672,100,32768,0,65536,0,1,0,0,0
o,0x00000000,1682518000.178145,172.16.1.2,38368,172.16.3.2,5101,45078,14480,2,65535,65700,6,6,4,1460,574,1,993,65,33580,0,65700,0,0,0,0,0
o,0x00000000,1682518000.178453,172.16.1.2,38368,172.16.3.2,5101,45078,14480,2,65535,65700,6,6,4,1460,574,1,992,65,33580,37,65700,0,0,0,0,0
i,0x00000000,1682518000.315685,172.16.1.2,16526,172.16.3.2,5101,45078,14645,1026,65728,65728,6,6,4,1460,537,1,996,61,33580,0,65700,0,0,0,0,0
i,0x00000000,1682518000.315708,172.16.1.2,16526,172.16.3.2,5101,45078,14645,1026,65728,65728,6,6,4,1460,537,1,996,61,33580,0,65700,1,0,0,0,0
o,0x00000000,1682518000.315748,172.16.1.2,16526,172.16.3.2,5101,45078,14645,1026,65728,65728,6,6,4,1460,537,1,997,61,33580,0,65700,2,0,0,0,0
o,0x00000000,1682518000.315978,172.16.1.2,38368,172.16.3.2,5101,45078,14480,6,65535,65700,6,6,4,1460,574,1,992,65,33580,33580,65700,0,37,0,0,0
o,0x00000000,1682518000.316086,172.16.1.2,38368,172.16.3.2,5101,45078,14480,6,65535,65700,6,6,4,1460,574,1,992,65,33580,33580,65700,0,1485,0,0,0
o,0x00000000,1682518000.316119,172.16.1.2,38368,172.16.3.2,5101,45078,14480,6,65535,65700,6,6,4,1460,574,1,992,65,33580,33580,65700,0,2933,0,0,0
o,0x00000000,1682518000.316119,172.16.1.2,38368,172.16.3.2,5101,45078,14480,6,65535,65700,6,6,4,1460,574,1,992,65,33580,33580,65700,0,4381,0,0,0
o,0x00000000,1682518000.316119,172.16.1.2,38368,172.16.3.2,5101,45078,14480,6,65535,65700,6,6,4,1460,574,1,992,65,33580,33580,65700,0,5829,0,0,0
o,0x00000000,1682518000.317441,172.16.1.2,38368,172.16.3.2,5101,45078,14480,6,65535,65700,6,6,4,1460,574,1,992,65,33580,33580,65700,0,7277,0,0,0
o,0x00000000,1682518000.317634,172.16.1.2,38368,172.16.3.2,5101,45078,14480,6,65535,65700,6,6,4,1460,574,1,992,65,33580,33580,65700,0,8725,0,0,0
o,0x00000000,1682518000.317761,172.16.1.2,38368,172.16.3.2,5101,45078,14480,6,65535,65700,6,6,4,1460,574,1,992,65,33580,33580,65700,0,10173,0,0,0
o,0x00000000,1682518000.317870,172.16.1.2,38368,172.16.3.2,5101,45078,14480,6,65535,65700,6,6,4,1460,574,1,992,65,33580,33580,65700,0,11621,0,0,0
i,0x00000000,1682518000.348620,172.16.1.2,38368,172.16.3.2,5101,45078,14480,6,65535,65700,6,6,4,1460,574,1,992,65,33580,33580,65700,0,13069,0,0,0
o,0x00000000,1682518000.349254,172.16.1.2,38368,172.16.3.2,5101,45078,14517,6,65728,65728,6,6,4,1460,571,1,992,59,33580,33543,65700,0,13032,0,0,0
i,0x00000000,1682518000.557018,172.16.1.2,38368,172.16.3.2,5101,45078,14517,6,65728,65728,6,6,4,1460,571,1,992,59,33580,33543,65700,0,14480,0,0,0
o,0x00000000,1682518000.557049,172.16.1.2,38368,172.16.3.2,5101,45078,17413,6,64256,65728,6,6,4,1460,600,1,992,62,33580,30647,65700,0,11584,0,0,0
o,0x00000000,1682518000.557151,172.16.1.2,38368,172.16.3.2,5101,45078,17413,6,64256,65728,6,6,4,1460,600,1,992,62,33580,30647,65700,0,13032,0,0,0
o,0x00000000,1682518000.557298,172.16.1.2,38368,172.16.3.2,5101,45078,17413,6,64256,65728,6,6,4,1460,600,1,992,62,41772,30647,65700,0,14480,0,0,0
o,0x00000000,1682518000.557675,172.16.1.2,38368,172.16.3.2,5101,45078,17413,6,64256,65728,6,6,4,1460,600,1,992,62,41772,30647,65700,0,15928,0,0,0
i,0x00000000,1682518000.579941,172.16.1.2,38368,172.16.3.2,5101,45078,17413,6,64256,65728,6,6,4,1460,600,1,992,62,41772,41772,65700,0,17376,0,0,0
o,0x00000000,1682518000.580038,172.16.1.2,38368,172.16.3.2,5101,45078,20309,6,64256,65728,6,6,4,1460,633,1,992,66,41772,38876,65700,0,14480,0,0,0
o,0x00000000,1682518000.580797,172.16.1.2,38368,172.16.3.2,5101,45078,20309,6,64256,65728,6,6,4,1460,633,1,992,66,41772,38876,65700,0,15928,0,0,0
o,0x00000000,1682518000.581187,172.16.1.2,38368,172.16.3.2,5101,45078,20309,6,64256,65728,6,6,4,1460,633,1,992,66,41772,38876,65700,0,17376,0,0,0
o,0x00000000,1682518000.581796,172.16.1.2,38368,172.16.3.2,5101,45078,20309,6,64256,65728,6,6,4,1460,633,1,992,66,49964,38876,65700,0,18824,0,0,0
i,0x00000000,1682518000.608381,172.16.1.2,38368,172.16.3.2,5101,45078,20309,6,64256,65728,6,6,4,1460,633,1,992,66,49964,49964,65700,0,20272,0,0,0
o,0x00000000,1682518000.608412,172.16.1.2,38368,172.16.3.2,5101,45078,23205,6,64256,65728,6,6,4,1460,674,1,992,71,49964,47068,65700,0,17376,0,0,0
o,0x00000000,1682518000.608525,172.16.1.2,38368,172.16.3.2,5101,45078,23205,6,64256,65728,6,6,4,1460,674,1,992,71,49964,47068,65700,0,18824,0,0,0
o,0x00000000,1682518000.608624,172.16.1.2,38368,172.16.3.2,5101,45078,23205,6,64256,65728,6,6,4,1460,674,1,992,71,49964,47068,65700,0,20272,0,0,0
o,0x00000000,1682518000.608732,172.16.1.2,38368,172.16.3.2,5101,45078,23205,6,64256,65728,6,6,4,1460,674,1,992,71,49964,47068,65700,0,21720,0,0,0
i,0x00000000,1682518000.627440,172.16.1.2,38368,172.16.3.2,5101,45078,23205,6,64256,65728,6,6,4,1460,674,1,992,71,49964,49964,65700,0,23168,0,0,0
o,0x00000000,1682518000.628276,172.16.1.2,38368,172.16.3.2,5101,45078,26101,6,64256,65728,6,6,4,1460,714,1,992,74,49964,47068,65700,0,20272,0,0,0
o,0x00000000,1682518000.628948,172.16.1.2,38368,172.16.3.2,5101,45078,26101,6,64256,65728,6,6,4,1460,714,1,992,74,58156,47068,65700,0,21720,0,0,0
o,0x00000000,1682518000.629756,172.16.1.2,38368,172.16.3.2,5101,45078,26101,6,64256,65728,6,6,4,1460,714,1,992,74,58156,47068,65700,0,23168,0,0,0
o,0x00000000,1682518000.630247,172.16.1.2,38368,172.16.3.2,5101,45078,26101,6,64256,65728,6,6,4,1460,714,1,992,74,58156,47068,65700,0,24616,0,0,0
i,0x00000000,1682518000.657876,172.16.1.2,38368,172.16.3.2,5101,45078,26101,6,64256,65728,6,6,4,1460,714,1,992,74,58156,58156,65700,0,26064,0,0,0
o,0x00000000,1682518000.658030,172.16.1.2,38368,172.16.3.2,5101,45078,28997,6,64256,65728,6,6,4,1460,761,1,992,80,58156,55260,65700,0,23168,0,0,0
o,0x00000000,1682518000.658719,172.16.1.2,38368,172.16.3.2,5101,45078,28997,6,64256,65728,6,6,4,1460,761,1,992,80,58156,55260,65700,0,24616,0,0,0
o,0x00000000,1682518000.659331,172.16.1.2,38368,172.16.3.2,5101,45078,28997,6,64256,65728,6,6,4,1460,761,1,992,80,58156,55260,65700,0,26064,0,0,0
o,0x00000000,1682518000.659927,172.16.1.2,38368,172.16.3.2,5101,45078,28997,6,64256,65728,6,6,4,1460,761,1,992,80,66348,55260,65700,0,27512,0,0,0
i,0x00000000,1682518000.777322,172.16.1.2,38368,172.16.3.2,5101,45078,28997,6,64256,65728,6,6,4,1460,761,1,992,80,66348,66348,65700,0,28960,0,0,0
o,0x00000000,1682518000.777913,172.16.1.2,38368,172.16.3.2,5101,45078,31893,6,64256,65728,6,6,4,1460,754,1,992,72,66348,63452,65700,0,26064,0,0,0
o,0x00000000,1682518000.778698,172.16.1.2,38368,172.16.3.2,5101,45078,31893,6,64256,65728,6,6,4,1460,754,1,992,72,66348,63452,65700,0,27512,0,0,0
o,0x00000000,1682518000.779341,172.16.1.2,38368,172.16.3.2,5101,45078,31893,6,64256,65728,6,6,4,1460,754,1,992,72,66348,63452,65700,0,28960,0,0,0
o,0x00000000,1682518000.779993,172.16.1.2,38368,172.16.3.2,5101,45078,31893,6,64256,65728,6,6,4,1460,754,1,992,72,66348,63452,65700,0,30408,0,0,0
i,0x00000000,1682518000.867145,172.16.1.2,38368,172.16.3.2,5101,45078,31893,6,64256,65728,6,6,4,1460,754,1,992,72,74540,74540,65700,0,31856,0,0,0
o,0x00000000,1682518000.867308,172.16.1.2,38368,172.16.3.2,5101,45078,33341,6,65728,65728,6,6,4,1460,780,1,992,72,74540,73092,65700,0,30408,0,0,0
o,0x00000000,1682518000.868456,172.16.1.2,38368,172.16.3.2,5101,45078,33341,6,65728,65728,6,6,4,1460,780,1,992,72,74540,73092,65700,0,31856,0,0,0
i,0x00000000,1682518000.901149,172.16.1.2,38368,172.16.3.2,5101,45078,33341,6,65728,65728,6,6,4,1460,780,1,992,72,74540,73092,65700,0,33304,0,0,0
o,0x00000000,1682518000.901209,172.16.1.2,38368,172.16.3.2,5101,45078,36237,6,64256,65728,6,6,4,1460,819,1,992,76,74540,70196,65700,0,30408,0,0,0
o,0x00000000,1682518000.901353,172.16.1.2,38368,172.16.3.2,5101,45078,36237,6,64256,65728,6,6,4,1460,819,1,992,76,74540,70196,65700,0,31856,0,0,0
o,0x00000000,1682518000.901479,172.16.1.2,38368,172.16.3.2,5101,45078,36237,6,64256,65728,6,6,4,1460,819,1,992,76,74540,70196,65700,0,33304,0,0,0
o,0x00000000,1682518000.901604,172.16.1.2,38368,172.16.3.2,5101,45078,36237,6,64256,65728,6,6,4,1460,819,1,992,76,82732,70196,65700,0,34752,0,0,0
i,0x00000000,1682518000.976525,172.16.1.2,38368,172.16.3.2,5101,45078,36237,6,64256,65728,6,6,4,1460,819,1,992,76,82732,82732,65700,0,36200,0,0,0
o,0x00000000,1682518000.976558,172.16.1.2,38368,172.16.3.2,5101,45078,37685,6,65728,65728,6,6,4,1460,873,1,992,84,82732,81284,65700,0,34752,0,0,0
o,0x00000000,1682518000.976678,172.16.1.2,38368,172.16.3.2,5101,45078,37685,6,65728,65728,6,6,4,1460,873,1,992,84,82732,81284,65700,0,36200,0,0,0
i,0x00000000,1682518001.006696,172.16.1.2,38368,172.16.3.2,5101,45078,37685,6,65728,65728,6,6,4,1460,873,1,992,84,82732,81284,65700,0,37648,0,0,0
o,0x00000000,1682518001.006726,172.16.1.2,38368,172.16.3.2,5101,45078,40581,6,64256,65728,6,6,4,1460,932,1,992,91,82732,78388,65700,0,34752,0,0,0
o,0x00000000,1682518001.006840,172.16.1.2,38368,172.16.3.2,5101,45078,40581,6,64256,65728,6,6,4,1460,932,1,992,91,82732,78388,65700,0,36200,0,0,0
o,0x00000000,1682518001.006965,172.16.1.2,38368,172.16.3.2,5101,45078,40581,6,64256,65728,6,6,4,1460,932,1,992,91,82732,78388,65700,0,37648,0,0,0
o,0x00000000,1682518001.007132,172.16.1.2,38368,172.16.3.2,5101,45078,40581,6,64256,65728,6,6,4,1460,932,1,992,91,82732,78388,65700,0,39096,0,0,0
i,0x00000000,1682518001.019536,172.16.1.2,38368,172.16.3.2,5101,45078,40581,6,64256,65728,6,6,4,1460,932,1,992,91,82732,82732,65700,0,40544,0,0,0
o,0x00000000,1682518001.019668,172.16.1.2,38368,172.16.3.2,5101,45078,43477,6,64256,65728,6,6,4,1460,980,1,992,94,82732,79836,65700,0,37648,0,0,0
o,0x00000000,1682518001.020359,172.16.1.2,38368,172.16.3.2,5101,45078,43477,6,64256,65728,6,6,4,1460,980,1,992,94,82732,79836,65700,0,39096,0,0,0
o,0x00000000,1682518001.020954,172.16.1.2,38368,172.16.3.2,5101,45078,43477,6,64256,65728,6,6,4,1460,980,1,992,94,82732,79836,65700,0,40544,0,0,0
o,0x00000000,1682518001.021671,172.16.1.2,38368,172.16.3.2,5101,45078,43477,6,64256,65728,6,6,4,1460,980,1,992,94,82732,79836,65700,0,41992,0,0,0
i,0x00000000,1682518001.048014,172.16.1.2,38368,172.16.3.2,5101,45078,43477,6,64256,65728,6,6,4,1460,980,1,992,94,82732,82732,65700,0,43440,0,0,0
o,0x00000000,1682518001.048121,172.16.1.2,38368,172.16.3.2,5101,45078,46373,6,64256,65728,6,6,4,1460,1034,1,992,98,82732,79836,65700,0,40544,0,0,0
o,0x00000000,1682518001.048756,172.16.1.2,38368,172.16.3.2,5101,45078,46373,6,64256,65728,6,6,4,1460,1034,1,992,98,82732,79836,65700,0,41992,0,0,0
o,0x00000000,1682518001.050189,172.16.1.2,38368,172.16.3.2,5101,45078,46373,6,64256,65728,6,6,4,1460,1034,1,992,98,82732,79836,65700,0,43440,0,0,0
o,0x00000000,1682518001.050709,172.16.1.2,38368,172.16.3.2,5101,45078,46373,6,64256,65728,6,6,4,1460,1034,1,992,98,82732,79836,65700,0,44888,0,0,0
i,0x00000000,1682518001.088903,172.16.1.2,38368,172.16.3.2,5101,45078,46373,6,64256,65728,6,6,4,1460,1034,1,992,98,82732,82732,65700,0,46336,0,0,0
o,0x00000000,1682518001.089042,172.16.1.2,38368,172.16.3.2,5101,45078,46373,6,65728,65728,6,6,4,1460,1089,1,992,102,82732,81284,65700,0,44888,0,0,0
i,0x00000000,1682518001.127287,172.16.1.2,38368,172.16.3.2,5101,45078,46373,6,65728,65728,6,6,4,1460,1089,1,992,102,82732,81284,65700,0,46336,0,0,0
o,0x00000000,1682518001.129897,172.16.1.2,38368,172.16.3.2,5101,45078,46373,6,64256,65728,6,6,4,1460,1153,1,992,108,82732,78388,65700,0,43440,0,0,0
o,0x00000000,1682518001.130664,172.16.1.2,38368,172.16.3.2,5101,45078,46373,6,64256,65728,6,6,4,1460,1153,1,992,108,82732,78388,65700,0,44888,0,0,0
i,0x00000000,1682518001.157652,172.16.1.2,38368,172.16.3.2,5101,45078,46373,6,64256,65728,6,6,4,1460,1153,1,992,108,82732,82732,65700,0,46336,0,0,0
o,0x00000000,1682518001.157843,172.16.1.2,38368,172.16.3.2,5101,45078,46373,6,64256,65728,6,6,4,1460,1221,1,992,114,82732,79836,65700,0,43440,0,0,0
o,0x00000000,1682518001.158657,172.16.1.2,38368,172.16.3.2,5101,45078,46373,6,64256,65728,6,6,4,1460,1221,1,992,114,82732,79836,65700,0,44888,0,0,0
i,0x00000000,1682518001.209993,172.16.1.2,38368,172.16.3.2,5101,45078,46373,6,64256,65728,6,6,4,1460,1221,1,992,114,82732,82732,65700,0,46336,0,0,0
o,0x00000000,1682518001.210129,172.16.1.2,38368,172.16.3.2,5101,45078,46373,6,64256,65728,6,6,4,1460,1289,1,992,120,82732,79836,65700,0,43440,0,0,0
o,0x00000000,1682518001.210264,172.16.1.2,38368,172.16.3.2,5101,45078,46373,6,64256,65728,6,6,4,1460,1289,1,992,120,82732,79836,65700,0,44888,0,0,0
i,0x00000000,1682518001.256752,172.16.1.2,38368,172.16.3.2,5101,45078,46373,6,64256,65728,6,6,4,1460,1289,1,992,120,82732,82732,65700,0,46336,0,0,0
o,0x00000000,1682518001.257135,172.16.1.2,38368,172.16.3.2,5101,45078,46373,6,65728,65728,6,6,4,1460,1364,1,992,126,82732,81284,65700,0,44888,0,0,0
i,0x00000000,1682518001.329377,172.16.1.2,38368,172.16.3.2,5101,45078,46373,6,65728,65728,6,6,4,1460,1364,1,992,126,82732,81284,65700,0,46336,0,0,0
o,0x00000000,1682518001.329970,172.16.1.2,38368,172.16.3.2,5101,45078,46373,6,64256,65728,6,6,4,1460,1414,1,992,124,82732,78388,65700,0,43440,0,0,0
o,0x00000000,1682518001.330653,172.16.1.2,38368,172.16.3.2,5101,45078,46373,6,64256,65728,6,6,4,1460,1414,1,992,124,82732,78388,65700,0,44888,0,0,0
i,0x00000000,1682518001.428234,172.16.1.2,38368,172.16.3.2,5101,45078,46373,6,64256,65728,6,6,4,1460,1414,1,992,124,82732,82732,65700,0,46336,0,0,0
o,0x00000000,1682518001.428432,172.16.1.2,38368,172.16.3.2,5101,45078,46373,6,64256,65728,6,6,4,1460,1498,1,992,133,82732,79836,65700,0,43440,0,0,0
o,0x00000000,1682518001.429298,172.16.1.2,38368,172.16.3.2,5101,45078,46373,6,64256,65728,6,6,4,1460,1498,1,992,133,82732,79836,65700,0,44888,0,0,0
i,0x00000000,1682518001.526503,172.16.1.2,38368,172.16.3.2,5101,45078,46373,6,64256,65728,6,6,4,1460,1498,1,992,133,82732,81840,65700,0,46336,0,0,0
o,0x00000000,1682518001.526619,172.16.1.2,38368,172.16.3.2,5101,45078,46373,6,65728,65728,6,6,4,1460,1571,1,992,137,82732,80392,65700,0,44888,0,0,0
i,0x00000000,1682518001.568531,172.16.1.2,38368,172.16.3.2,5101,45078,46373,6,65728,65728,6,6,4,1460,1571,1,992,137,82732,82732,65700,0,46336,0,0,0
o,0x00000000,1682518001.568643,172.16.1.2,38368,172.16.3.2,5101,45078,47784,2,65728,65728,6,6,4,1460,1571,1,992,137,82732,82732,65700,0,46336,0,0,0
i,0x00000000,1682518001.578170,172.16.1.2,38368,172.16.3.2,5101,45078,46373,2,65728,65728,6,6,4,1460,1571,1,992,137,82732,82732,65700,0,47784,0,0,0
o,0x00000000,1682518001.578192,172.16.1.2,38368,172.16.3.2,5101,45078,49232,2,65728,65728,6,6,4,1460,1571,1,992,137,82732,82732,65700,0,47784,0,0,0
i,0x00000000,1682518001.578308,172.16.1.2,38368,172.16.3.2,5101,45078,46373,2,65728,65728,6,6,4,1460,1571,1,992,137,82732,82732,65700,0,49232,0,0,0
o,0x00000000,1682518001.578326,172.16.1.2,38368,172.16.3.2,5101,23186,1448,2,65728,65728,6,6,4,1460,1571,1,537920480,137,82732,82732,65700,0,49232,0,0,0
i,0x00000000,1682518001.609761,172.16.1.2,38368,172.16.3.2,5101,23186,1448,2,65728,65728,6,6,4,1460,1571,1,537920480,137,82732,82732,65700,0,49232,0,0,0
i,0x00000000,1682518001.609883,172.16.1.2,38368,172.16.3.2,5101,23186,1448,2,65728,65728,6,6,4,1460,1571,1,537920480,137,82732,82732,65700,0,49232,0,0,0
o,0x00000000,1682518001.609995,172.16.1.2,38368,172.16.3.2,5101,23186,2896,2,65728,65728,6,6,4,1460,1571,1,537920480,137,82732,82732,65700,0,49232,0,0,0
i,0x00000000,1682518001.631230,172.16.1.2,38368,172.16.3.2,5101,23186,2896,2,65728,65728,6,6,4,1460,1571,1,537920480,137,82732,82732,65700,0,49232,0,0,0
i,0x00000000,1682518001.657966,172.16.1.2,38368,172.16.3.2,5101,23186,2896,2,65728,65728,6,6,4,1460,1571,1,537920480,137,82732,82732,65700,0,49232,0,0,0
o,0x00000000,1682518001.658120,172.16.1.2,38368,172.16.3.2,5101,23186,4344,2,65728,65728,6,6,4,1460,1571,1,537920480,137,82732,82732,65700,0,49232,0,0,0
i,0x00000000,1682518001.658846,172.16.1.2,38368,172.16.3.2,5101,23186,4344,2,65728,65728,6,6,4,1460,1571,1,537920480,137,82732,82732,65700,0,49232,0,0,0
i,0x00000000,1682518001.659207,172.16.1.2,38368,172.16.3.2,5101,23186,4344,2,65728,65728,6,6,4,1460,1571,1,537920480,137,82732,82732,65700,0,49232,0,0,0
o,0x00000000,1682518001.659305,172.16.1.2,38368,172.16.3.2,5101,23186,5792,2,65728,65728,6,6,4,1460,1571,1,537920480,137,82732,82732,65700,0,49232,0,0,0
i,0x00000000,1682518001.687722,172.16.1.2,38368,172.16.3.2,5101,23186,5792,2,65728,65728,6,6,4,1460,1571,1,537920480,137,82732,82732,65700,0,49232,0,0,0
i,0x00000000,1682518001.696971,172.16.1.2,38368,172.16.3.2,5101,23186,5792,2,65728,65728,6,6,4,1460,1571,1,537920480,137,82732,82732,65700,0,49232,0,0,0
o,0x00000000,1682518001.697039,172.16.1.2,38368,172.16.3.2,5101,23186,7240,2,65728,65728,6,6,4,1460,1571,1,537920480,137,82732,82732,65700,0,49232,0,0,0
i,0x00000000,1682518001.739004,172.16.1.2,38368,172.16.3.2,5101,23186,7240,2,65728,65728,6,6,4,1460,1571,1,537920480,137,82732,82732,65700,0,49232,0,0,0
i,0x00000000,1682518001.739218,172.16.1.2,38368,172.16.3.2,5101,23186,7240,2,65728,65728,6,6,4,1460,1571,1,537920480,137,82732,82732,65700,0,49232,0,0,0
o,0x00000000,1682518001.739373,172.16.1.2,38368,172.16.3.2,5101,23186,8688,2,65728,65728,6,6,4,1460,1571,1,537920480,137,82732,82732,65700,0,49232,0,0,0
i,0x00000000,1682518001.777819,172.16.1.2,38368,172.16.3.2,5101,23186,8688,2,65728,65728,6,6,4,1460,1571,1,537920480,137,82732,82732,65700,0,49232,0,0,0
i,0x00000000,1682518001.806171,172.16.1.2,38368,172.16.3.2,5101,23186,8688,2,65728,65728,6,6,4,1460,1571,1,537920480,137,82732,82732,65700,0,49232,0,0,0
o,0x00000000,1682518001.806207,172.16.1.2,38368,172.16.3.2,5101,23186,10136,2,65728,65728,6,6,4,1460,1571,1,537920480,137,82732,82732,65700,0,49232,0,0,0
i,0x00000000,1682518001.806332,172.16.1.2,38368,172.16.3.2,5101,23186,10136,2,65728,65728,6,6,4,1460,1571,1,537920480,137,82732,82732,65700,0,49232,0,0,0
i,0x00000000,1682518001.848061,172.16.1.2,38368,172.16.3.2,5101,23186,10136,2,65728,65728,6,6,4,1460,1571,1,537920480,137,82732,82732,65700,0,49232,0,0,0
o,0x00000000,1682518001.848119,172.16.1.2,38368,172.16.3.2,5101,23186,11584,2,65728,65728,6,6,4,1460,1571,1,537920480,137,82732,82732,65700,0,49232,0,0,0
i,0x00000000,1682518001.866881,172.16.1.2,38368,172.16.3.2,5101,23186,11584,2,65728,65728,6,6,4,1460,1571,1,537920480,137,82732,82732,65700,0,49232,0,0,0
i,0x00000000,1682518001.866910,172.16.1.2,38368,172.16.3.2,5101,23186,11584,2,65728,65728,6,6,4,1460,1571,1,537920480,137,82732,82732,65700,0,49232,0,0,0
i,0x00000000,1682518001.888935,172.16.1.2,38368,172.16.3.2,5101,23186,11584,2,65728,65728,6,6,4,1460,1571,1,537920480,137,82732,82732,65700,0,49232,0,0,0
o,0x00000000,1682518001.889057,172.16.1.2,38368,172.16.3.2,5101,23186,11584,2,65728,65728,6,6,4,1460,1571,1,537920480,137,82732,82732,65700,0,49232,0,0,0
i,0x00000000,1682518001.949515,172.16.1.2,38368,172.16.3.2,5101,23186,11584,2,65728,65728,6,6,4,1460,1571,1,537920480,137,82732,82732,65700,0,49232,0,0,0
i,0x00000000,1682518001.949549,172.16.1.2,38368,172.16.3.2,5101,23186,10136,2,65728,65728,6,6,4,1460,1571,1,537920480,137,82732,82732,65700,0,49232,0,0,0
o,0x00000000,1682518001.949593,172.16.1.2,38368,172.16.3.2,5101,23186,10136,2,65728,65728,6,6,4,1460,1571,1,537920480,137,82732,82732,65700,0,49232,0,0,0
i,0x00000000,1682518002.026438,172.16.1.2,38368,172.16.3.2,5101,23186,10136,2,65728,65728,6,6,4,1460,1571,1,537920480,137,82732,82732,65700,0,49232,0,0,0
i,0x00000000,1682518002.038126,172.16.1.2,38368,172.16.3.2,5101,23186,8688,2,65728,65728,6,6,4,1460,1571,1,537920480,137,82732,82732,65700,0,49232,0,0,0
o,0x00000000,1682518002.038267,172.16.1.2,38368,172.16.3.2,5101,23186,8688,2,65728,65728,6,6,4,1460,1571,1,537920480,137,82732,82732,65700,0,49232,0,0,0
i,0x00000000,1682518002.067159,172.16.1.2,38368,172.16.3.2,5101,23186,8688,2,65728,65728,6,6,4,1460,1571,1,537920480,137,82732,82732,65700,0,49232,0,0,0
o,0x00000000,1682518002.067187,172.16.1.2,38368,172.16.3.2,5101,23186,10136,2,65728,65728,6,6,4,1460,1571,1,537920480,137,82732,82732,65700,0,49232,0,0,0
o,0x00000000,1682518002.068052,172.16.1.2,38368,172.16.3.2,5101,23186,10136,2,65728,65728,6,6,4,1460,1571,1,537920480,137,82732,82732,65700,0,49232,0,0,0
i,0x00000000,1682518002.177782,172.16.1.2,38368,172.16.3.2,5101,23186,10136,2,65728,65728,6,6,4,1460,1571,1,537920480,137,82732,82732,65700,0,49232,0,0,0
o,0x00000000,1682518002.177839,172.16.1.2,38368,172.16.3.2,5101,23186,11584,2,65728,65728,6,6,4,1460,1571,1,537920480,137,82732,82732,65700,0,49232,0,0,0
o,0x00000000,1682518002.178271,172.16.1.2,38368,172.16.3.2,5101,23186,11584,2,65728,65728,6,6,4,1460,1571,1,537920480,137,82732,82732,65700,0,49232,0,0,0
i,0x00000000,1682518002.178528,172.16.1.2,38368,172.16.3.2,5101,23186,11584,2,65728,65728,6,6,4,1460,1571,1,537920480,137,82732,82732,65700,0,50680,0,0,0
o,0x00000000,1682518002.178549,172.16.1.2,38368,172.16.3.2,5101,23186,13032,6,65728,65728,6,6,4,1460,1571,1,537920480,137,82732,82732,65700,0,50680,0,0,0
o,0x00000000,1682518002.178664,172.16.1.2,38368,172.16.3.2,5101,23186,13032,2,65728,65728,6,6,4,1460,1571,1,537920480,137,82732,82732,65700,0,52128,0,0,0
i,0x00000000,1682518002.207824,172.16.1.2,38368,172.16.3.2,5101,23186,13032,2,65728,65728,6,6,4,1460,1571,1,537920480,137,82732,82732,65700,0,53576,0,0,0
o,0x00000000,1682518002.207889,172.16.1.2,38368,172.16.3.2,5101,23186,14480,6,65728,65728,6,6,4,1460,1571,1,537920480,137,82732,82732,65700,0,53576,0,0,0
o,0x00000000,1682518002.208389,172.16.1.2,38368,172.16.3.2,5101,23186,14480,2,65728,65728,6,6,4,1460,1571,1,537920480,137,82732,82732,65700,0,55024,0,0,0
i,0x00000000,1682518002.348066,172.16.1.2,38368,172.16.3.2,5101,23186,14480,2,65728,65728,6,6,4,1460,1571,1,537920480,137,82732,82732,65700,0,56472,0,0,0
o,0x00000000,1682518002.348899,172.16.1.2,38368,172.16.3.2,5101,23186,15928,6,65728,65728,6,6,4,1460,1571,1,537920480,137,82732,82732,65700,0,56472,0,0,0
o,0x00000000,1682518002.349216,172.16.1.2,38368,172.16.3.2,5101,23186,15928,2,65728,65728,6,6,4,1460,1571,1,537920480,137,82732,82732,65700,0,57920,0,0,0
i,0x00000000,1682518002.349403,172.16.1.2,38368,172.16.3.2,5101,23186,15928,2,65728,65728,6,6,4,1460,1571,1,537920480,137,82732,82732,65700,0,59368,0,0,0
o,0x00000000,1682518002.349486,172.16.1.2,38368,172.16.3.2,5101,23186,17376,2,65728,65728,6,6,4,1460,1571,1,537920480,137,82732,82732,65700,0,59368,0,0,0
i,0x00000000,1682518002.381885,172.16.1.2,38368,172.16.3.2,5101,23186,17376,2,65728,65728,6,6,4,1460,1571,1,537920480,137,82732,82732,65700,0,59368,0,0,0
o,0x00000000,1682518002.381942,172.16.1.2,38368,172.16.3.2,5101,23186,18824,2,65728,65728,6,6,4,1460,1571,1,537920480,137,82732,82732,65700,0,59368,0,0,0
i,0x00000000,1682518002.382229,172.16.1.2,38368,172.16.3.2,5101,23186,18824,2,65728,65728,6,6,4,1460,1571,1,537920480,137,82732,82732,65700,0,60816,0,0,0
o,0x00000000,1682518002.382252,172.16.1.2,38368,172.16.3.2,5101,23186,20272,2,65728,65728,6,6,4,1460,1571,1,537920480,137,82732,82732,65700,0,60816,0,0,0
i,0x00000000,1682518002.396869,172.16.1.2,38368,172.16.3.2,5101,23186,20272,2,65728,65728,6,6,4,1460,1571,1,537920480,137,82732,82732,65700,0,62264,0,0,0
o,0x00000000,1682518002.396934,172.16.1.2,38368,172.16.3.2,5101,23186,21720,2,65728,65728,6,6,4,1460,1571,1,537920480,137,82732,82732,65700,0,62264,0,0,0
i,0x00000000,1682518002.397263,172.16.1.2,38368,172.16.3.2,5101,23186,21720,2,65728,65728,6,6,4,1460,1571,1,537920480,137,82732,82732,65700,0,63712,0,0,0
o,0x00000000,1682518002.397322,172.16.1.2,38368,172.16.3.2,5101,23186,23168,2,65728,65728,6,6,4,1460,1571,1,537920480,137,82732,82732,65700,0,63712,0,0,0
i,0x00000000,1682518002.479478,172.16.1.2,38368,172.16.3.2,5101,23186,23168,2,65728,65728,6,6,4,1460,1571,1,537920480,137,82732,82732,65700,0,65160,0,0,0
i,0x00000000,1682518002.546712,172.16.1.2,38368,172.16.3.2,5101,23186,24616,2,65728,65728,6,6,4,1460,1571,1,537920480,137,82732,82732,65700,0,65160,0,0,0
i,0x00000000,1682518002.548123,172.16.1.2,38368,172.16.3.2,5101,23186,26064,2,65728,65728,6,6,4,1460,1571,1,537920480,137,82732,82732,65700,0,65160,0,0,0
i,0x00000000,1682518002.569518,172.16.1.2,38368,172.16.3.2,5101,23186,27512,2,65728,65728,6,6,4,1460,1571,1,537920480,137,82732,82732,65700,0,65160,0,0,0
i,0x00000000,1682518002.599815,172.16.1.2,38368,172.16.3.2,5101,23186,28960,2,65728,65728,6,6,4,1460,1571,1,537920480,137,82732,82732,65700,0,65160,0,0,0
i,0x00000000,1682518002.599914,172.16.1.2,38368,172.16.3.2,5101,23186,30408,2,65728,65728,6,6,4,1460,1571,1,537920480,137,82732,82732,65700,0,65160,0,0,0
i,0x00000000,1682518002.600332,172.16.1.2,38368,172.16.3.2,5101,23186,31856,2,65728,65728,6,6,4,1460,1571,1,537920480,137,82732,82732,65700,0,65160,0,0,0
o,0x00000000,1682518002.954716,172.16.1.2,38368,172.16.3.2,5101,23286,1448,2,65728,65728,6,6,4,1460,1571,1,1075848161,254,82732,82732,65700,0,65160,0,0,0
i,0x00000000,1682518003.098873,172.16.1.2,38368,172.16.3.2,5101,23286,1448,2,65728,65728,6,6,4,1460,1571,1,1075848160,254,82732,82732,65700,0,65160,0,0,0
o,0x00000000,1682518003.098976,172.16.1.2,38368,172.16.3.2,5101,2896,2920,6,64320,65728,6,6,4,1460,1431,1,1075848160,150,82732,81284,65700,0,63712,0,0,0
o,0x00000000,1682518003.099454,172.16.1.2,38368,172.16.3.2,5101,2896,2920,6,64320,65728,6,6,4,1460,1431,1,1075848160,150,82732,81284,65700,0,63712,0,0,0
o,0x00000000,1682518003.099570,172.16.1.2,38368,172.16.3.2,5101,2896,2920,2,64320,65728,6,6,4,1460,1431,1,1075848160,150,82732,81284,65700,0,63712,0,0,0
i,0x00000000,1682518003.246986,172.16.1.2,38368,172.16.3.2,5101,2896,2920,2,64320,65728,6,6,4,1460,1431,1,1075848160,150,82732,81284,65700,0,63712,0,0,0
o,0x00000000,1682518003.247051,172.16.1.2,38368,172.16.3.2,5101,2896,1448,2,64320,65728,6,6,4,1460,1431,1,1613767648,150,82732,81284,65700,0,63712,0,0,0
o,0x00000000,1682518003.247332,172.16.1.2,38368,172.16.3.2,5101,2896,20272,2,64320,65728,6,6,4,1460,1431,1,1613767649,150,82732,81284,65700,0,63712,0,0,0
o,0x00000000,1682518003.247680,172.16.1.2,38368,172.16.3.2,5101,2896,20272,6,64320,65728,6,6,4,1460,1431,1,1613767648,150,82732,81284,65700,0,63712,0,0,0
o,0x00000000,1682518003.247973,172.16.1.2,38368,172.16.3.2,5101,2896,20272,6,64320,65728,6,6,4,1460,1431,1,1613767648,150,82732,81284,65700,0,63712,0,0,0
o,0x00000000,1682518003.248244,172.16.1.2,38368,172.16.3.2,5101,2896,20272,6,64320,65728,6,6,4,1460,1431,1,1613767648,150,82732,81284,65700,0,63712,0,0,0
o,0x00000000,1682518003.248521,172.16.1.2,38368,172.16.3.2,5101,2896,20272,6,64320,65728,6,6,4,1460,1431,1,1613767648,150,82732,81284,65700,0,63712,0,0,0
o,0x00000000,1682518003.248777,172.16.1.2,38368,172.16.3.2,5101,2896,20272,6,64320,65728,6,6,4,1460,1431,1,1613767648,150,82732,81284,65700,0,63712,0,0,0
o,0x00000000,1682518003.248831,172.16.1.2,38368,172.16.3.2,5101,2896,20272,6,64320,65728,6,6,4,1460,1431,1,1613767648,150,82732,81284,65700,0,63712,0,0,0
o,0x00000000,1682518003.249315,172.16.1.2,38368,172.16.3.2,5101,2896,20272,6,64320,65728,6,6,4,1460,1431,1,1613767648,150,82732,81284,65700,0,63712,0,0,0
o,0x00000000,1682518003.249614,172.16.1.2,38368,172.16.3.2,5101,2896,20272,6,64320,65728,6,6,4,1460,1431,1,1613767648,150,82732,81284,65700,0,63712,0,0,0
o,0x00000000,1682518003.249876,172.16.1.2,38368,172.16.3.2,5101,2896,20272,6,64320,65728,6,6,4,1460,1431,1,1613767648,150,82732,81284,65700,0,63712,0,0,0
o,0x00000000,1682518003.250136,172.16.1.2,38368,172.16.3.2,5101,2896,20272,6,64320,65728,6,6,4,1460,1431,1,1613767648,150,82732,81284,65700,0,63712,0,0,0
o,0x00000000,1682518003.250396,172.16.1.2,38368,172.16.3.2,5101,2896,20272,6,64320,65728,6,6,4,1460,1431,1,1613767648,150,82732,81284,65700,0,63712,0,0,0
o,0x00000000,1682518003.250702,172.16.1.2,38368,172.16.3.2,5101,2896,20272,6,64320,65728,6,6,4,1460,1431,1,1613767648,150,82732,81284,65700,0,63712,0,0,0
o,0x00000000,1682518003.250967,172.16.1.2,38368,172.16.3.2,5101,2896,20272,2,64320,65728,6,6,4,1460,1431,1,1613767648,150,82732,81284,65700,0,63712,0,0,0
i,0x00000000,1682518003.251273,172.16.1.2,38368,172.16.3.2,5101,2896,20272,2,64256,65728,6,6,4,1460,1309,1,1613767648,156,82732,79836,65700,0,62264,0,0,0
o,0x00000000,1682518003.251321,172.16.1.2,38368,172.16.3.2,5101,2896,2920,6,46912,65728,6,6,4,1460,1202,1,1075848160,155,82732,61012,65700,0,43440,0,0,0
o,0x00000000,1682518003.251577,172.16.1.2,38368,172.16.3.2,5101,2896,2920,2,46912,65728,6,6,4,1460,1202,1,1075848160,155,82732,61012,65700,0,43440,0,0,0
i,0x00000000,1682518003.251793,172.16.1.2,38368,172.16.3.2,5101,2896,2920,2,46912,65728,6,6,4,1460,1202,1,1075848160,155,82732,61012,65700,0,43440,0,0,0
i,0x00000000,1682518003.251831,172.16.1.2,38368,172.16.3.2,5101,2896,2920,2,46912,65728,6,6,4,1460,1202,1,1075848160,155,82732,61012,65700,0,43440,0,0,0
i,0x00000000,1682518003.539626,172.16.1.2,38368,172.16.3.2,5101,2896,2920,2,65728,65728,6,6,4,1460,1202,1,1075848160,155,82732,82732,65700,0,43440,0,0,0
i,0x00000000,1682518003.547965,172.16.1.2,38368,172.16.3.2,5101,2896,2920,2,65728,65728,6,6,4,1460,1202,1,1075848160,155,82732,82732,65700,0,43440,0,0,0
i,0x00000000,1682518003.548051,172.16.1.2,38368,172.16.3.2,5101,2896,2920,2,65728,65728,6,6,4,1460,1202,1,1075848160,155,82732,82732,65700,0,43440,0,0,0
i,0x00000000,1682518003.557703,172.16.1.2,38368,172.16.3.2,5101,2896,2920,2,65728,65728,6,6,4,1460,1202,1,1075848160,155,82732,82732,65700,0,43440,0,0,0
i,0x00000000,1682518003.557775,172.16.1.2,38368,172.16.3.2,5101,2896,2920,2,65728,65728,6,6,4,1460,1202,1,1075848160,155,82732,82732,65700,0,43440,0,0,0
i,0x00000000,1682518003.581039,172.16.1.2,38368,172.16.3.2,5101,2896,2920,2,65728,65728,6,6,4,1460,1202,1,1075848160,155,82732,82732,65700,0,43440,0,0,0
i,0x00000000,1682518003.591030,172.16.1.2,38368,172.16.3.2,5101,2896,2920,2,65728,65728,6,6,4,1460,1202,1,1075848160,155,82732,82732,65700,0,43440,0,0,0
i,0x00000000,1682518003.591075,172.16.1.2,38368,172.16.3.2,5101,2896,2920,2,65728,65728,6,6,4,1460,1202,1,1075848160,155,82732,82732,65700,0,43440,0,0,0
i,0x00000000,1682518003.629842,172.16.1.2,38368,172.16.3.2,5101,2896,2920,2,65728,65728,6,6,4,1460,1202,1,1075848160,155,82732,82732,65700,0,43440,0,0,0
i,0x00000000,1682518003.629981,172.16.1.2,38368,172.16.3.2,5101,2896,2920,2,65728,65728,6,6,4,1460,1202,1,1075848160,155,82732,82732,65700,0,43440,0,0,0
i,0x00000000,1682518003.630082,172.16.1.2,38368,172.16.3.2,5101,2896,2920,2,65728,65728,6,6,4,1460,1202,1,1075848160,155,82732,82732,65700,0,43440,0,0,0
i,0x00000000,1682518003.660876,172.16.1.2,38368,172.16.3.2,5101,2896,2920,2,65728,65728,6,6,4,1460,1202,1,1075848160,155,82732,82732,65700,0,43440,0,0,0
i,0x00000000,1682518003.661027,172.16.1.2,38368,172.16.3.2,5101,2896,2920,2,65728,65728,6,6,4,1460,1202,1,1075848160,155,82732,82732,65700,0,43440,0,0,0
i,0x00000000,1682518003.661158,172.16.1.2,38368,172.16.3.2,5101,2896,2920,2,65728,65728,6,6,4,1460,1202,1,1075848160,155,82732,82732,65700,0,43440,0,0,0
o,0x00000000,1682518003.661306,172.16.1.2,38368,172.16.3.2,5101,2896,1448,2,65728,65728,6,6,4,1460,1202,1,1613767648,155,82732,82732,65700,0,43440,0,0,0
o,0x00000000,1682518003.662079,172.16.1.2,38368,172.16.3.2,5101,2896,18824,2,65728,65728,6,6,4,1460,1202,1,1613767649,155,82732,82732,65700,0,43440,0,0,0
o,0x00000000,1682518003.662755,172.16.1.2,38368,172.16.3.2,5101,2896,18824,6,65728,65728,6,6,4,1460,1202,1,1613767648,155,82732,82732,65700,0,43440,0,0,0
o,0x00000000,1682518003.664149,172.16.1.2,38368,172.16.3.2,5101,2896,18824,6,65728,65728,6,6,4,1460,1202,1,1613767648,155,82732,82732,65700,0,43440,0,0,0
o,0x00000000,1682518003.664824,172.16.1.2,38368,172.16.3.2,5101,2896,18824,6,65728,65728,6,6,4,1460,1202,1,1613767648,155,82732,82732,65700,0,43440,0,0,0
o,0x00000000,1682518003.665424,172.16.1.2,38368,172.16.3.2,5101,2896,18824,6,65728,65728,6,6,4,1460,1202,1,1613767648,155,82732,82732,65700,0,43440,0,0,0
o,0x00000000,1682518003.666195,172.16.1.2,38368,172.16.3.2,5101,2896,18824,6,65728,65728,6,6,4,1460,1202,1,1613767648,155,82732,82732,65700,0,43440,0,0,0
o,0x00000000,1682518003.667734,172.16.1.2,38368,172.16.3.2,5101,2896,18824,6,65728,65728,6,6,4,1460,1202,1,1613767648,155,82732,82732,65700,0,43440,0,0,0
o,0x00000000,1682518003.668457,172.16.1.2,38368,172.16.3.2,5101,2896,18824,6,65728,65728,6,6,4,1460,1202,1,1613767648,155,82732,82732,65700,0,43440,0,0,0
o,0x00000000,1682518003.669158,172.16.1.2,38368,172.16.3.2,5101,2896,18824,6,65728,65728,6,6,4,1460,1202,1,1613767648,155,82732,82732,65700,0,43440,0,0,0
o,0x00000000,1682518003.670545,172.16.1.2,38368,172.16.3.2,5101,2896,18824,6,65728,65728,6,6,4,1460,1202,1,1613767648,155,82732,82732,65700,0,43440,0,0,0
o,0x00000000,1682518003.672043,172.16.1.2,38368,172.16.3.2,5101,2896,18824,6,65728,65728,6,6,4,1460,1202,1,1613767648,155,82732,82732,65700,0,43440,0,0,0
o,0x00000000,1682518003.672672,172.16.1.2,38368,172.16.3.2,5101,2896,18824,2,65728,65728,6,6,4,1460,1202,1,1613767648,155,82732,82732,65700,0,43440,0,0,0
i,0x00000000,1682518003.698175,172.16.1.2,38368,172.16.3.2,5101,2896,18824,2,65728,65728,6,6,4,1460,1220,1,1613767648,136,82732,82708,65700,0,43416,0,0,0
o,0x00000000,1682518003.698752,172.16.1.2,38368,172.16.3.2,5101,2896,2920,6,22336,65728,6,6,4,1460,1248,1,1075848160,124,82732,39292,65700,0,0,0,0,0
o,0x00000000,1682518003.699389,172.16.1.2,38368,172.16.3.2,5101,2896,2920,6,22336,65728,6,6,4,1460,1248,1,1075848160,124,82732,39292,65700,0,1448,0,0,0
i,0x00000000,1682518003.699608,172.16.1.2,38368,172.16.3.2,5101,2896,2920,6,22336,65728,6,6,4,1460,1248,1,1075848160,124,82732,39292,65700,0,2896,0,0,0
i,0x00000000,1682518003.699608,172.16.1.2,38368,172.16.3.2,5101,2896,2920,6,22336,65728,6,6,4,1460,1248,1,1075848160,124,82732,39292,65700,0,2896,0,0,0
i,0x00000000,1682518003.699608,172.16.1.2,38368,172.16.3.2,5101,2896,2920,6,65728,65728,6,6,4,1460,1248,1,1075848160,124,82732,39292,65700,0,2896,0,0,0
i,0x00000000,1682518003.968690,172.16.1.2,38368,172.16.3.2,5101,2896,2920,6,65728,65728,6,6,4,1460,1248,1,1075848160,124,82732,82732,65700,0,2896,0,0,0
i,0x00000000,1682518003.968690,172.16.1.2,38368,172.16.3.2,5101,2896,2920,6,65728,65728,6,6,4,1460,1248,1,1075848160,124,82732,82732,65700,0,2896,0,0,0
i,0x00000000,1682518003.968690,172.16.1.2,38368,172.16.3.2,5101,2896,2920,6,65728,65728,6,6,4,1460,1248,1,1075848160,124,82732,82732,65700,0,2896,0,0,0
i,0x00000000,1682518003.969165,172.16.1.2,38368,172.16.3.2,5101,2896,2920,6,65728,65728,6,6,4,1460,1248,1,1075848160,124,82732,82732,65700,0,2896,0,0,0
i,0x00000000,1682518004.007754,172.16.1.2,38368,172.16.3.2,5101,2896,2920,6,65728,65728,6,6,4,1460,1248,1,1075848160,124,82732,82732,65700,0,2896,0,0,0
i,0x00000000,1682518004.007828,172.16.1.2,38368,172.16.3.2,5101,2896,2920,6,65728,65728,6,6,4,1460,1248,1,1075848160,124,82732,82732,65700,0,2896,0,0,0
i,0x00000000,1682518004.007888,172.16.1.2,38368,172.16.3.2,5101,2896,2920,6,65728,65728,6,6,4,1460,1248,1,1075848160,124,82732,82732,65700,0,2896,0,0,0
i,0x00000000,1682518004.016655,172.16.1.2,38368,172.16.3.2,5101,2896,2920,6,65728,65728,6,6,4,1460,1248,1,1075848160,124,82732,82732,65700,0,2896,0,0,0
i,0x00000000,1682518004.038375,172.16.1.2,38368,172.16.3.2,5101,2896,2920,6,65728,65728,6,6,4,1460,1248,1,1075848160,124,82732,82732,65700,0,2896,0,0,0
i,0x00000000,1682518004.046592,172.16.1.2,38368,172.16.3.2,5101,2896,2920,6,65728,65728,6,6,4,1460,1248,1,1075848160,124,82732,82732,65700,0,2896,0,0,0
i,0x00000000,1682518004.074836,172.16.1.2,38368,172.16.3.2,5101,2896,2920,6,65728,65728,6,6,4,1460,1248,1,1075848160,124,82732,82732,65700,0,2896,0,0,0
i,0x00000000,1682518004.074992,172.16.1.2,38368,172.16.3.2,5101,2896,2920,6,65728,65728,6,6,4,1460,1248,1,1075848160,124,82732,82732,65700,0,2896,0,0,0
i,0x00000000,1682518004.075127,172.16.1.2,38368,172.16.3.2,5101,2896,2920,6,65728,65728,6,6,4,1460,1248,1,1075848160,124,82732,82732,65700,0,2896,0,0,0
i,0x00000000,1682518004.118856,172.16.1.2,38368,172.16.3.2,5101,2896,2920,6,65728,65728,6,6,4,1460,1248,1,1075848160,124,82732,82732,65700,0,2896,0,0,0
o,0x00000000,1682518004.119116,172.16.1.2,38368,172.16.3.2,5101,2896,2921,6,64256,65728,6,6,4,1460,1260,1,1075848160,111,82732,79836,65700,0,0,0,0,0
o,0x00000000,1682518004.120117,172.16.1.2,38368,172.16.3.2,5101,2896,2921,6,64256,65728,6,6,4,1460,1260,1,1075848160,111,82732,79836,65700,0,1448,0,0,0
i,0x00000000,1682518004.277899,172.16.1.2,38368,172.16.3.2,5101,2896,2921,6,64256,65728,6,6,4,1460,1260,1,1075848160,111,82732,82732,65700,0,2896,0,0,0
o,0x00000000,1682518004.278025,172.16.1.2,38368,172.16.3.2,5101,2896,3257,6,62848,65728,6,6,4,1460,1163,1,1075848160,120,82732,79836,65700,0,0,0,0,0
o,0x00000000,1682518004.278492,172.16.1.2,38368,172.16.3.2,5101,2896,3257,6,62848,65728,6,6,4,1460,1163,1,1075848160,120,82732,79836,65700,0,1448,0,0,0
i,0x00000000,1682518004.434508,172.16.1.2,38368,172.16.3.2,5101,2896,3257,6,62848,65728,6,6,4,1460,1163,1,1075848160,120,82732,82732,65700,0,2896,0,0,0
o,0x00000000,1682518004.434632,172.16.1.2,38368,172.16.3.2,5101,2896,3571,6,64256,65728,6,6,4,1460,1078,1,1075848160,122,82732,79836,65700,0,0,0,0,0
o,0x00000000,1682518004.435375,172.16.1.2,38368,172.16.3.2,5101,2896,3571,6,64256,65728,6,6,4,1460,1078,1,1075848160,122,82732,79836,65700,0,1448,0,0,0
i,0x00000000,1682518004.608697,172.16.1.2,38368,172.16.3.2,5101,2896,3571,6,64256,65728,6,6,4,1460,1078,1,1075848160,122,82732,82732,65700,0,2896,0,0,0
o,0x00000000,1682518004.608957,172.16.1.2,38368,172.16.3.2,5101,2896,3948,6,64256,65728,6,6,4,1460,1012,1,1075848160,120,82732,79836,65700,0,0,0,0,0
o,0x00000000,1682518004.609197,172.16.1.2,38368,172.16.3.2,5101,2896,3948,6,64256,65728,6,6,4,1460,1012,1,1075848160,120,82732,79836,65700,0,1448,0,0,0
i,0x00000000,1682518004.759357,172.16.1.2,38368,172.16.3.2,5101,2896,3948,6,64256,65728,6,6,4,1460,1012,1,1075848160,120,82732,82732,65700,0,2896,0,0,0
o,0x00000000,1682518004.759499,172.16.1.2,38368,172.16.3.2,5101,2896,4262,6,64256,65728,6,6,4,1460,946,1,1075848160,117,82732,79836,65700,0,0,0,0,0
o,0x00000000,1682518004.761012,172.16.1.2,38368,172.16.3.2,5101,2896,4262,6,64256,65728,6,6,4,1460,946,1,1075848160,117,82732,79836,65700,0,1448,0,0,0
i,0x00000000,1682518004.912109,172.16.1.2,38368,172.16.3.2,5101,2896,4262,6,64256,65728,6,6,4,1460,946,1,1075848160,117,82732,82732,65700,0,2896,0,0,0
o,0x00000000,1682518004.912186,172.16.1.2,38368,172.16.3.2,5101,2896,4577,6,64256,65728,6,6,4,1460,888,1,1075848160,113,82732,79836,65700,0,0,0,0,0
o,0x00000000,1682518004.912737,172.16.1.2,38368,172.16.3.2,5101,2896,4577,6,64256,65728,6,6,4,1460,888,1,1075848160,113,82732,79836,65700,0,1448,0,0,0
o,0x00000000,1682518004.913296,172.16.1.2,38368,172.16.3.2,5101,2896,4577,6,64256,65728,6,6,4,1460,888,1,1075848160,113,82732,79836,65700,0,2896,0,0,0
i,0x00000000,1682518005.038918,172.16.1.2,38368,172.16.3.2,5101,2896,4577,6,64256,65728,6,6,4,1460,888,1,1075848160,113,82732,82732,65700,0,4344,0,0,0
o,0x00000000,1682518005.039028,172.16.1.2,38368,172.16.3.2,5101,2896,4849,6,62848,65728,6,6,4,1460,825,1,1075848160,110,82732,79836,65700,0,1448,0,0,0
o,0x00000000,1682518005.039531,172.16.1.2,38368,172.16.3.2,5101,2896,4849,6,62848,65728,6,6,4,1460,825,1,1075848160,110,82732,79836,65700,0,2896,0,0,0
i,0x00000000,1682518005.132717,172.16.1.2,38368,172.16.3.2,5101,2896,4849,6,62848,65728,6,6,4,1460,825,1,1075848160,110,82732,82732,65700,0,4344,0,0,0
o,0x00000000,1682518005.132774,172.16.1.2,38368,172.16.3.2,5101,2896,5038,6,65728,65728,6,6,4,1460,806,1,1075848160,98,82732,81284,65700,0,2896,0,0,0
i,0x00000000,1682518005.194186,172.16.1.2,38368,172.16.3.2,5101,2896,5038,6,65728,65728,6,6,4,1460,806,1,1075848160,98,82732,81284,65700,0,4344,0,0,0
o,0x00000000,1682518005.194224,172.16.1.2,38368,172.16.3.2,5101,2896,5163,6,64256,65728,6,6,4,1460,762,1,1075848160,95,82732,78388,65700,0,1448,0,0,0
o,0x00000000,1682518005.194347,172.16.1.2,38368,172.16.3.2,5101,2896,5163,6,64256,65728,6,6,4,1460,762,1,1075848160,95,82732,78388,65700,0,2896,0,0,0
i,0x00000000,1682518005.287476,172.16.1.2,38368,172.16.3.2,5101,2896,5163,6,64256,65728,6,6,4,1460,762,1,1075848160,95,82732,82732,65700,0,4344,0,0,0
o,0x00000000,1682518005.287506,172.16.1.2,38368,172.16.3.2,5101,2896,5373,6,65728,65728,6,6,4,1460,731,1,1075848160,89,82732,81284,65700,0,2896,0,0,0
i,0x00000000,1682518005.368138,172.16.1.2,38368,172.16.3.2,5101,2896,5373,6,65728,65728,6,6,4,1460,731,1,1075848160,89,82732,81284,65700,0,4344,0,0,0
o,0x00000000,1682518005.368240,172.16.1.2,38368,172.16.3.2,5101,2896,5541,6,64256,65728,6,6,4,1460,712,1,1075848160,81,82732,78388,65700,0,1448,0,0,0
o,0x00000000,1682518005.369266,172.16.1.2,38368,172.16.3.2,5101,2896,5541,6,64256,65728,6,6,4,1460,712,1,1075848160,81,82732,78388,65700,0,2896,0,0,0
i,0x00000000,1682518005.497378,172.16.1.2,38368,172.16.3.2,5101,2896,5541,6,64256,65728,6,6,4,1460,712,1,1075848160,81,82732,82732,65700,0,4344,0,0,0
o,0x00000000,1682518005.497489,172.16.1.2,38368,172.16.3.2,5101,2896,5813,6,65728,65728,6,6,4,1460,707,1,1075848160,73,82732,81284,65700,0,2896,0,0,0
o,0x00000000,1682518005.498299,172.16.1.2,38368,172.16.3.2,5101,2896,5813,6,65728,65728,6,6,4,1460,707,1,1075848160,73,82732,81284,65700,0,4344,0,0,0
i,0x00000000,1682518005.528405,172.16.1.2,38368,172.16.3.2,5101,2896,5813,6,65728,65728,6,6,4,1460,707,1,1075848160,73,82732,81284,65700,0,5792,0,0,0
o,0x00000000,1682518005.528587,172.16.1.2,38368,172.16.3.2,5101,2896,5876,6,64256,65728,6,6,4,1460,683,1,1075848160,70,82732,78388,65700,0,2896,0,0,0
o,0x00000000,1682518005.529342,172.16.1.2,38368,172.16.3.2,5101,2896,5876,6,64256,65728,6,6,4,1460,683,1,1075848160,70,82732,78388,65700,0,4344,0,0,0
i,0x00000000,1682518005.650844,172.16.1.2,38368,172.16.3.2,5101,2896,5876,6,64256,65728,6,6,4,1460,683,1,1075848160,70,82732,82732,65700,0,5792,0,0,0
o,0x00000000,1682518005.651632,172.16.1.2,38368,172.16.3.2,5101,2896,6127,6,64256,65728,6,6,4,1460,658,1,1075848160,68,82732,79836,65700,0,2896,0,0,0
o,0x00000000,1682518005.652480,172.16.1.2,38368,172.16.3.2,5101,2896,6127,6,64256,65728,6,6,4,1460,658,1,1075848160,68,82732,79836,65700,0,4344,0,0,0
i,0x00000000,1682518005.681992,172.16.1.2,38368,172.16.3.2,5101,2896,6127,6,64256,65728,6,6,4,1460,658,1,1075848160,68,82732,82732,65700,0,5792,0,0,0
o,0x00000000,1682518005.682737,172.16.1.2,38368,172.16.3.2,5101,2896,6190,6,64256,65728,6,6,4,1460,636,1,1075848160,66,82732,79836,65700,0,2896,0,0,0
o,0x00000000,1682518005.684409,172.16.1.2,38368,172.16.3.2,5101,2896,6190,6,64256,65728,6,6,4,1460,636,1,1075848160,66,82732,79836,65700,0,4344,0,0,0
i,0x00000000,1682518005.798344,172.16.1.2,38368,172.16.3.2,5101,2896,6190,6,64256,65728,6,6,4,1460,636,1,1075848160,66,82732,82732,65700,0,5792,0,0,0
o,0x00000000,1682518005.798472,172.16.1.2,38368,172.16.3.2,5101,2896,6442,6,64256,65728,6,6,4,1460,617,1,1075848160,64,82732,79836,65700,0,2896,0,0,0
o,0x00000000,1682518005.798714,172.16.1.2,38368,172.16.3.2,5101,2896,6442,6,64256,65728,6,6,4,1460,617,1,1075848160,64,82732,79836,65700,0,4344,0,0,0
i,0x00000000,1682518005.828378,172.16.1.2,38368,172.16.3.2,5101,2896,6442,6,64256,65728,6,6,4,1460,617,1,1075848160,64,82732,82732,65700,0,5792,0,0,0
o,0x00000000,1682518005.828416,172.16.1.2,38368,172.16.3.2,5101,2896,6504,6,64256,65728,6,6,4,1460,596,1,1075848160,62,82732,79836,65700,0,2896,0,0,0
o,0x00000000,1682518005.828523,172.16.1.2,38368,172.16.3.2,5101,2896,6504,6,64256,65728,6,6,4,1460,596,1,1075848160,62,82732,79836,65700,0,4344,0,0,0
i,0x00000000,1682518005.948576,172.16.1.2,38368,172.16.3.2,5101,2896,6504,6,64256,65728,6,6,4,1460,596,1,1075848160,62,82732,82732,65700,0,5792,0,0,0
o,0x00000000,1682518005.948734,172.16.1.2,38368,172.16.3.2,5101,2896,6756,6,64256,65728,6,6,4,1460,578,1,1075848160,60,82732,79836,65700,0,2896,0,0,0
o,0x00000000,1682518005.949408,172.16.1.2,38368,172.16.3.2,5101,2896,6756,6,64256,65728,6,6,4,1460,578,1,1075848160,60,82732,79836,65700,0,4344,0,0,0
i,0x00000000,1682518005.983066,172.16.1.2,38368,172.16.3.2,5101,2896,6756,6,64256,65728,6,6,4,1460,578,1,1075848160,60,82732,82732,65700,0,5792,0,0,0
o,0x00000000,1682518005.983100,172.16.1.2,38368,172.16.3.2,5101,2896,6819,6,64256,65728,6,6,4,1460,562,1,1075848160,58,82732,79836,65700,0,2896,0,0,0
o,0x00000000,1682518005.983215,172.16.1.2,38368,172.16.3.2,5101,2896,6819,6,64256,65728,6,6,4,1460,562,1,1075848160,58,82732,79836,65700,0,4344,0,0,0
i,0x00000000,1682518006.101094,172.16.1.2,38368,172.16.3.2,5101,2896,6819,6,64256,65728,6,6,4,1460,562,1,1075848160,58,82732,82732,65700,0,5792,0,0,0
o,0x00000000,1682518006.101236,172.16.1.2,38368,172.16.3.2,5101,2896,7070,6,64256,65728,6,6,4,1460,552,1,1075848160,55,82732,79836,65700,0,2896,0,0,0
o,0x00000000,1682518006.101864,172.16.1.2,38368,172.16.3.2,5101,2896,7070,6,64256,65728,6,6,4,1460,552,1,1075848160,55,82732,79836,65700,0,4344,0,0,0
i,0x00000000,1682518006.129524,172.16.1.2,38368,172.16.3.2,5101,2896,7070,6,64256,65728,6,6,4,1460,552,1,1075848160,55,82732,82732,65700,0,5792,0,0,0
o,0x00000000,1682518006.129561,172.16.1.2,38368,172.16.3.2,5101,2896,7133,6,64256,65728,6,6,4,1460,543,1,1075848160,52,82732,79836,65700,0,2896,0,0,0
o,0x00000000,1682518006.129666,172.16.1.2,38368,172.16.3.2,5101,2896,7133,6,64256,65728,6,6,4,1460,543,1,1075848160,52,82732,79836,65700,0,4344,0,0,0
i,0x00000000,1682518006.256951,172.16.1.2,38368,172.16.3.2,5101,2896,7133,6,64256,65728,6,6,4,1460,543,1,1075848160,52,82732,82732,65700,0,5792,0,0,0
o,0x00000000,1682518006.256997,172.16.1.2,38368,172.16.3.2,5101,2896,7406,6,62848,65728,6,6,4,1460,536,1,1075848160,50,82732,79836,65700,0,2896,0,0,0
o,0x00000000,1682518006.257142,172.16.1.2,38368,172.16.3.2,5101,2896,7406,6,62848,65728,6,6,4,1460,536,1,1075848160,50,82732,79836,65700,0,4344,0,0,0
o,0x00000000,1682518006.257244,172.16.1.2,38368,172.16.3.2,5101,2896,7406,6,62848,65728,6,6,4,1460,536,1,1075848160,50,82732,79836,65700,0,5792,0,0,0
i,0x00000000,1682518006.285906,172.16.1.2,38368,172.16.3.2,5101,2896,7406,6,62848,65728,6,6,4,1460,536,1,1075848160,50,82732,82732,65700,0,7240,0,0,0
o,0x00000000,1682518006.286019,172.16.1.2,38368,172.16.3.2,5101,2896,7447,6,64256,65728,6,6,4,1460,529,1,1075848160,48,82732,79836,65700,0,4344,0,0,0
o,0x00000000,1682518006.286155,172.16.1.2,38368,172.16.3.2,5101,2896,7447,6,64256,65728,6,6,4,1460,529,1,1075848160,48,82732,79836,65700,0,5792,0,0,0
i,0x00000000,1682518006.420537,172.16.1.2,38368,172.16.3.2,5101,2896,7447,6,64256,65728,6,6,4,1460,529,1,1075848160,48,82732,82732,65700,0,7240,0,0,0
o,0x00000000,1682518006.420584,172.16.1.2,38368,172.16.3.2,5101,2896,7741,6,64256,65728,6,6,4,1460,527,1,1075848160,46,82732,79836,65700,0,4344,0,0,0
o,0x00000000,1682518006.420722,172.16.1.2,38368,172.16.3.2,5101,2896,7741,6,64256,65728,6,6,4,1460,527,1,1075848160,46,82732,79836,65700,0,5792,0,0,0
i,0x00000000,1682518006.446729,172.16.1.2,38368,172.16.3.2,5101,2896,7741,6,64256,65728,6,6,4,1460,527,1,1075848160,46,82732,81144,65700,0,7240,0,0,0
o,0x00000000,1682518006.446767,172.16.1.2,38368,172.16.3.2,5101,2896,7804,6,64256,65728,6,6,4,1460,538,1,1075848160,47,82732,78248,65700,0,4344,0,0,0
o,0x00000000,1682518006.446900,172.16.1.2,38368,172.16.3.2,5101,2896,7804,6,64256,65728,6,6,4,1460,538,1,1075848160,47,82732,78248,65700,0,5792,0,0,0
i,0x00000000,1682518006.522817,172.16.1.2,38368,172.16.3.2,5101,2896,7804,6,64256,65728,6,6,4,1460,538,1,1075848160,47,82732,82732,65700,0,7240,0,0,0
o,0x00000000,1682518006.523111,172.16.1.2,38368,172.16.3.2,5101,2896,7950,6,65728,65728,6,6,4,1460,563,1,1075848160,51,82732,81284,65700,0,5792,0,0,0
i,0x00000000,1682518006.586381,172.16.1.2,38368,172.16.3.2,5101,2896,7950,6,65728,65728,6,6,4,1460,563,1,1075848160,51,82732,81284,65700,0,7240,0,0,0
o,0x00000000,1682518006.586477,172.16.1.2,38368,172.16.3.2,5101,2896,8076,6,64256,65728,6,6,4,1460,553,1,1075848160,50,82732,78388,65700,0,4344,0,0,0
o,0x00000000,1682518006.587396,172.16.1.2,38368,172.16.3.2,5101,2896,8076,6,64256,65728,6,6,4,1460,553,1,1075848160,50,82732,78388,65700,0,5792,0,0,0
i,0x00000000,1682518006.596527,172.16.1.2,38368,172.16.3.2,5101,2896,8076,6,64256,65728,6,6,4,1460,553,1,1075848160,50,82732,82732,65700,0,7240,0,0,0
o,0x00000000,1682518006.596558,172.16.1.2,38368,172.16.3.2,5101,2896,8118,6,64256,65728,6,6,4,1460,544,1,1075848160,49,82732,79836,65700,0,4344,0,0,0
o,0x00000000,1682518006.596675,172.16.1.2,38368,172.16.3.2,5101,2896,8118,6,64256,65728,6,6,4,1460,544,1,1075848160,49,82732,79836,65700,0,5792,0,0,0
i,0x00000000,1682518006.705737,172.16.1.2,38368,172.16.3.2,5101,2896,8118,6,64256,65728,6,6,4,1460,544,1,1075848160,49,82732,82732,65700,0,7240,0,0,0
o,0x00000000,1682518006.705847,172.16.1.2,38368,172.16.3.2,5101,2896,8760,6,65728,65728,6,6,4,1460,544,1,1075848160,46,82732,81284,65700,0,5792,0,0,0
o,0x00000000,1682518006.705972,172.16.1.2,38368,172.16.3.2,5101,2896,8760,6,65728,65728,6,6,4,1460,544,1,1075848160,46,82732,81284,65700,0,7240,0,0,0
i,0x00000000,1682518006.742534,172.16.1.2,38368,172.16.3.2,5101,2896,8760,6,65728,65728,6,6,4,1460,544,1,1075848160,46,82732,81284,65700,0,8688,0,0,0
o,0x00000000,1682518006.742679,172.16.1.2,38368,172.16.3.2,5101,2896,8760,6,64256,65728,6,6,4,1460,540,1,1075848160,44,82732,78388,65700,0,5792,0,0,0
o,0x00000000,1682518006.743321,172.16.1.2,38368,172.16.3.2,5101,2896,8760,6,64256,65728,6,6,4,1460,540,1,1075848160,44,82732,78388,65700,0,7240,0,0,0
i,0x00000000,1682518006.807688,172.16.1.2,38368,172.16.3.2,5101,2896,8760,6,64256,65728,6,6,4,1460,540,1,1075848160,44,82732,82732,65700,0,8688,0,0,0
o,0x00000000,1682518006.807719,172.16.1.2,38368,172.16.3.2,5101,2896,10220,6,64256,65728,6,6,4,1460,557,1,1075848160,47,82732,79836,65700,0,5792,0,0,0
o,0x00000000,1682518006.807835,172.16.1.2,38368,172.16.3.2,5101,2896,10220,6,64256,65728,6,6,4,1460,557,1,1075848160,47,82732,79836,65700,0,7240,0,0,0
o,0x00000000,1682518006.807934,172.16.1.2,38368,172.16.3.2,5101,2896,10220,6,64256,65728,6,6,4,1460,557,1,1075848160,47,82732,79836,65700,0,8688,0,0,0
i,0x00000000,1682518006.906319,172.16.1.2,38368,172.16.3.2,5101,2896,10220,6,64256,65728,6,6,4,1460,557,1,1075848160,47,82732,82732,65700,0,10136,0,0,0
o,0x00000000,1682518006.906355,172.16.1.2,38368,172.16.3.2,5101,2896,10220,6,64256,65728,6,6,4,1460,568,1,1075848160,48,82732,79836,65700,0,7240,0,0,0
o,0x00000000,1682518006.906603,172.16.1.2,38368,172.16.3.2,5101,2896,10220,6,64256,65728,6,6,4,1460,568,1,1075848160,48,82732,79836,65700,0,8688,0,0,0
i,0x00000000,1682518006.906701,172.16.1.2,38368,172.16.3.2,5101,2896,10220,6,64256,65728,6,6,4,1460,568,1,1075848160,48,82732,79836,65700,0,10136,0,0,0
o,0x00000000,1682518006.906718,172.16.1.2,38368,172.16.3.2,5101,2896,10220,6,64256,65728,6,6,4,1460,561,1,1075848160,47,82732,76940,65700,0,7240,0,0,0
o,0x00000000,1682518006.906812,172.16.1.2,38368,172.16.3.2,5101,2896,10220,6,64256,65728,6,6,4,1460,561,1,1075848160,47,82732,76940,65700,0,8688,0,0,0
i,0x00000000,1682518006.939093,172.16.1.2,38368,172.16.3.2,5101,2896,10220,6,64256,65728,6,6,4,1460,561,1,1075848160,47,82732,82732,65700,0,10136,0,0,0
o,0x00000000,1682518006.939246,172.16.1.2,38368,172.16.3.2,5101,2896,11680,6,64256,65728,6,6,4,1460,543,1,1075848160,48,82732,79836,65700,0,7240,0,0,0
o,0x00000000,1682518006.939866,172.16.1.2,38368,172.16.3.2,5101,2896,11680,6,64256,65728,6,6,4,1460,543,1,1075848160,48,82732,79836,65700,0,8688,0,0,0
o,0x00000000,1682518006.940369,172.16.1.2,38368,172.16.3.2,5101,2896,11680,6,64256,65728,6,6,4,1460,543,1,1075848160,48,82732,79836,65700,0,10136,0,0,0
i,0x00000000,1682518007.096464,172.16.1.2,38368,172.16.3.2,5101,2896,11680,6,64256,65728,6,6,4,1460,543,1,1075848160,48,82732,82732,65700,0,11584,0,0,0
o,0x00000000,1682518007.096582,172.16.1.2,38368,172.16.3.2,5101,2896,13140,6,65728,65728,6,6,4,1460,588,1,1075848160,58,82732,81284,65700,0,10136,0,0,0
o,0x00000000,1682518007.097280,172.16.1.2,38368,172.16.3.2,5101,2896,13140,6,65728,65728,6,6,4,1460,588,1,1075848160,58,82732,81284,65700,0,11584,0,0,0
i,0x00000000,1682518007.134613,172.16.1.2,38368,172.16.3.2,5101,2896,13140,6,65728,65728,6,6,4,1460,588,1,1075848160,58,82732,81284,65700,0,13032,0,0,0
o,0x00000000,1682518007.134681,172.16.1.2,38368,172.16.3.2,5101,2896,13140,6,64256,65728,6,6,4,1460,603,1,1075848160,57,82732,78388,65700,0,10136,0,0,0
o,0x00000000,1682518007.134843,172.16.1.2,38368,172.16.3.2,5101,2896,13140,6,64256,65728,6,6,4,1460,603,1,1075848160,57,82732,78388,65700,0,11584,0,0,0
