enable_time_secs=1680090775	enable_time_usecs=922162	siftrver=1.2.4	hz=100	tcp_rtt_scale=32	sysname=FreeBSD	sysver=1400084	ipmode=4
o,0x00000000,1680090775.922662,10.0.2.15,22,10.0.2.2,59445,1073725440,17202,1026,65535,65700,0,0,4,1460,1,0,4,23,33580,68,65700,0,0,0,0,0
o,0x00000000,1680090775.922859,10.0.2.15,22,10.0.2.2,59445,1073725440,17202,1026,65535,65700,0,0,4,1460,1,0,4,23,33580,244,65700,0,68,0,0,0
i,0x00000000,1680090775.923719,10.0.2.15,22,10.0.2.2,59445,1073725440,17202,1026,65535,65700,0,0,4,1460,1,0,4,23,33580,244,65700,0,244,0,0,0
i,0x00000000,1680090775.923742,10.0.2.15,22,10.0.2.2,59445,1073725440,17270,1026,65535,65700,0,0,4,1460,1,0,4,23,33580,176,65700,0,176,0,0,0
i,0x00000000,1680090775.928313,10.0.2.15,22,10.0.2.2,59445,1073725440,17446,1026,65535,65700,0,0,4,1460,1,0,4,23,33580,0,65700,0,0,0,0,0
i,0x00000000,1680090775.928334,10.0.2.15,22,10.0.2.2,59445,1073725440,17446,1026,65535,65700,0,0,4,1460,1,0,4,23,33580,0,65700,36,0,0,0,0
o,0x00000000,1680090775.928352,10.0.2.15,22,10.0.2.2,59445,1073725440,17446,1026,65535,65700,0,0,4,1460,1,0,5,23,33580,0,65700,96,0,0,0,0
i,0x00000000,1680090775.928470,10.0.2.15,22,10.0.2.2,59445,1073725440,17446,1026,65535,65700,0,0,4,1460,1,0,4,23,33580,0,65700,96,0,0,0,0
o,0x00000000,1680090775.928496,10.0.2.15,22,10.0.2.2,59445,1073725440,17446,1026,65535,65604,0,0,5,1460,1,0,7,23,33580,0,65700,96,0,0,0,0
o,0x00000000,1680090775.929608,10.0.2.15,22,10.0.2.2,59445,1073725440,17446,1026,65535,65604,0,0,8,1460,1,0,4,23,33580,0,65700,0,0,0,0,0
i,0x00000000,1680090775.932944,10.0.2.15,22,10.0.2.2,59445,1073725440,17446,1026,65535,65604,0,0,8,1460,1,0,67108884,23,33580,0,65700,0,1,0,0,0
i,0x00000000,1680090777.210187,10.0.2.15,22,10.0.2.2,59450,1073725440,14600,0,65535,65700,0,0,4,1460,1,0,0,26,33580,0,65700,0,0,0,0,0
o,0x00000000,1680090777.220673,10.0.2.15,22,10.0.2.2,59450,1073725440,14600,1026,65535,65700,0,0,4,1460,1,0,0,26,33580,38,65700,41,0,0,0,0
i,0x00000000,1680090777.221327,10.0.2.15,22,10.0.2.2,59450,1073725440,14600,1026,65535,65700,0,0,4,1460,1,0,0,26,33580,38,65700,0,38,0,0,0
i,0x00000000,1680090777.222175,10.0.2.15,22,10.0.2.2,59450,1073725440,14638,1026,65535,65700,0,0,4,1460,1,0,0,23,33580,0,65700,0,0,0,0,0
i,0x00000000,1680090777.222192,10.0.2.15,22,10.0.2.2,59450,1073725440,14638,1026,65535,65700,0,0,4,1460,1,0,0,23,33580,0,65700,1460,0,0,0,0
o,0x00000000,1680090777.222211,10.0.2.15,22,10.0.2.2,59450,1073725440,14638,1026,65535,65700,0,0,4,1460,1,0,1,23,33580,0,65700,1504,0,0,0,0
o,0x00000000,1680090777.222842,10.0.2.15,22,10.0.2.2,59450,1073725440,14638,1026,65535,65700,0,0,4,1460,1,0,0,23,33580,1056,65700,1504,0,0,0,0
i,0x00000000,1680090777.225893,10.0.2.15,22,10.0.2.2,59450,1073725440,14638,1026,65535,65700,0,0,4,1460,1,0,0,23,33580,1056,65700,0,1056,0,0,0
i,0x00000000,1680090777.227917,10.0.2.15,22,10.0.2.2,59450,1073725440,15694,1026,65535,65700,0,0,4,1460,1,0,0,23,33580,0,65700,0,0,0,0,0
o,0x00000000,1680090777.231420,10.0.2.15,22,10.0.2.2,59450,1073725440,15694,1026,65535,65700,0,0,4,1460,1,0,0,23,33580,484,65700,0,0,0,0,0
i,0x00000000,1680090777.233197,10.0.2.15,22,10.0.2.2,59450,1073725440,15694,1026,65535,65700,0,0,4,1460,1,0,0,23,33580,484,65700,0,484,0,0,0
i,0x00000000,1680090777.238402,10.0.2.15,22,10.0.2.2,59450,1073725440,16178,1026,65535,65700,0,0,4,1460,1,0,0,23,33580,0,65700,0,0,0,0,0
i,0x00000000,1680090777.241839,10.0.2.15,22,10.0.2.2,59450,1073725440,16178,1026,65535,65700,0,0,4,1460,1,0,0,23,33580,0,65700,0,0,0,0,0
o,0x00000000,1680090777.241863,10.0.2.15,22,10.0.2.2,59450,1073725440,16178,1026,65535,65700,0,0,4,1460,1,0,1,23,33580,0,65700,44,0,0,0,0
o,0x00000000,1680090777.242059,10.0.2.15,22,10.0.2.2,59450,1073725440,16178,1026,65535,65700,0,0,4,1460,1,0,0,23,33580,44,65700,0,0,0,0,0
i,0x00000000,1680090777.242542,10.0.2.15,22,10.0.2.2,59450,1073725440,16178,1026,65535,65700,0,0,4,1460,1,0,0,23,33580,44,65700,0,44,0,0,0
i,0x00000000,1680090777.243304,10.0.2.15,22,10.0.2.2,59450,1073725440,16222,1026,65535,65700,0,0,4,1460,1,0,0,23,33580,0,65700,0,0,0,0,0
o,0x00000000,1680090777.248955,10.0.2.15,22,10.0.2.2,59450,1073725440,16222,1026,65535,65700,0,0,4,1460,1,0,0,23,33580,68,65700,0,0,0,0,0
i,0x00000000,1680090777.250003,10.0.2.15,22,10.0.2.2,59450,1073725440,16222,1026,65535,65700,0,0,4,1460,1,0,0,23,33580,68,65700,0,68,0,0,0
i,0x00000000,1680090777.252433,10.0.2.15,22,10.0.2.2,59450,1073725440,16290,1026,65535,65700,0,0,4,1460,1,0,0,23,33580,0,65700,0,0,0,0,0
o,0x00000000,1680090777.259362,10.0.2.15,22,10.0.2.2,59450,1073725440,16290,1026,65535,65700,0,0,4,1460,1,0,0,23,33580,28,65700,0,0,0,0,0
i,0x00000000,1680090777.259794,10.0.2.15,22,10.0.2.2,59450,1073725440,16290,1026,65535,65700,0,0,4,1460,1,0,0,23,33580,28,65700,0,28,0,0,0
i,0x00000000,1680090777.260345,10.0.2.15,22,10.0.2.2,59450,1073725440,16318,1026,65535,65700,0,0,4,1460,1,0,0,24,33580,0,65700,0,0,0,0,0
o,0x00000000,1680090777.261322,10.0.2.15,22,10.0.2.2,59450,1073725440,16318,1026,65535,65700,0,0,4,1460,1,0,0,24,33580,768,65700,112,0,0,0,0
i,0x00000000,1680090777.261986,10.0.2.15,22,10.0.2.2,59450,1073725440,16318,1026,65535,65700,0,0,4,1460,1,0,0,24,33580,768,65700,0,768,0,0,0
o,0x00000000,1680090777.261986,10.0.2.15,22,10.0.2.2,59450,1073725440,17086,1026,65535,65700,0,0,4,1460,1,0,0,24,33580,44,65700,0,0,0,0,0
i,0x00000000,1680090777.262944,10.0.2.15,22,10.0.2.2,59450,1073725440,17086,1026,65535,65700,0,0,4,1460,1,0,0,24,33580,44,65700,0,44,0,0,0
i,0x00000000,1680090777.263529,10.0.2.15,22,10.0.2.2,59450,1073725440,17130,1026,65535,65700,0,0,4,1460,1,0,0,24,33580,0,65700,0,0,0,0,0
o,0x00000000,1680090777.266296,10.0.2.15,22,10.0.2.2,59450,1073725440,17130,1026,65535,65700,0,0,4,1460,1,0,4,24,33580,72,65700,0,0,0,0,0
i,0x00000000,1680090777.267429,10.0.2.15,22,10.0.2.2,59450,1073725440,17130,1026,65535,65700,0,0,4,1460,1,0,4,24,33580,72,65700,0,72,0,0,0
o,0x00000000,1680090777.279454,172.16.1.2,19802,172.16.3.2,5201,1073725440,1073725440,2,0,0,0,0,2,536,0,1,672,100,32768,0,65536,0,0,0,0,0
i,0x00000000,1680090777.328374,172.16.1.2,19802,172.16.3.2,5201,1073725440,1073725440,2,0,0,0,0,2,536,0,1,672,100,32768,0,65536,0,1,0,0,0
o,0x00000000,1680090777.328485,172.16.1.2,19802,172.16.3.2,5201,48000,14480,2,65535,65700,6,6,4,1460,556,1,993,56,33580,0,65700,0,0,0,0,0
o,0x00000000,1680090777.328959,172.16.1.2,19802,172.16.3.2,5201,48000,14480,2,65535,65700,6,6,4,1460,556,1,996,56,33580,37,65700,0,0,0,0,0
i,0x00000000,1680090777.389994,172.16.1.2,19802,172.16.3.2,5201,48000,14480,2,65535,65700,6,6,4,1460,556,1,996,56,33580,37,65700,0,37,0,0,0
o,0x00000000,1680090777.390316,172.16.1.2,19802,172.16.3.2,5201,48000,14517,1026,65728,65728,6,6,4,1460,511,1,996,61,33580,4,65700,0,0,0,0,0
o,0x00000000,1680090777.390388,172.16.1.2,19802,172.16.3.2,5201,48000,14517,1026,65728,65728,6,6,4,1460,511,1,996,61,33580,128,65700,0,4,0,0,0
i,0x00000000,1680090777.452878,172.16.1.2,19802,172.16.3.2,5201,48000,14517,1026,65728,65728,6,6,4,1460,511,1,996,61,33580,128,65700,0,128,0,0,0
i,0x00000000,1680090777.452901,172.16.1.2,19802,172.16.3.2,5201,48000,14645,1026,65600,65728,6,6,4,1460,476,1,996,63,33580,0,65700,0,0,0,0,0
o,0x00000000,1680090777.453001,172.16.1.2,46707,172.16.3.2,5201,1073725440,1073725440,2,0,0,0,0,2,536,0,1,672,100,32768,0,65536,0,0,0,0,0
o,0x00000000,1680090777.515427,172.16.1.2,19802,172.16.3.2,5201,48000,14645,1026,65728,65728,6,6,4,1460,476,1,997,63,33580,0,65700,0,0,0,0,0
i,0x00000000,1680090777.515760,172.16.1.2,46707,172.16.3.2,5201,1073725440,1073725440,2,0,0,0,0,2,536,0,1,672,100,32768,0,65536,0,1,0,0,0
o,0x00000000,1680090777.516630,172.16.1.2,46707,172.16.3.2,5201,48000,14480,2,65535,65700,6,6,4,1460,560,1,993,56,33580,0,65700,0,0,0,0,0
o,0x00000000,1680090777.517021,172.16.1.2,46707,172.16.3.2,5201,48000,14480,2,65535,65700,6,6,4,1460,560,1,992,56,33580,37,65700,0,0,0,0,0
i,0x00000000,1680090777.576396,172.16.1.2,19802,172.16.3.2,5201,48000,14645,1026,65728,65728,6,6,4,1460,476,1,996,63,33580,0,65700,0,0,0,0,0
i,0x00000000,1680090777.576417,172.16.1.2,19802,172.16.3.2,5201,48000,14645,1026,65728,65728,6,6,4,1460,476,1,996,63,33580,0,65700,1,0,0,0,0
o,0x00000000,1680090777.576438,172.16.1.2,19802,172.16.3.2,5201,48000,14645,1026,65728,65728,6,6,4,1460,476,1,997,63,33580,0,65700,2,0,0,0,0
i,0x00000000,1680090777.576534,172.16.1.2,46707,172.16.3.2,5201,48000,14480,2,65535,65700,6,6,4,1460,560,1,992,56,33580,37,65700,0,37,0,0,0
o,0x00000000,1680090777.576635,172.16.1.2,46707,172.16.3.2,5201,48000,14517,6,65728,65728,6,6,4,1460,510,1,992,62,33580,33580,65700,0,0,0,0,0
o,0x00000000,1680090777.576977,172.16.1.2,46707,172.16.3.2,5201,48000,14517,6,65728,65728,6,6,4,1460,510,1,992,62,33580,33580,65700,0,1448,0,0,0
o,0x00000000,1680090777.577312,172.16.1.2,46707,172.16.3.2,5201,48000,14517,6,65728,65728,6,6,4,1460,510,1,992,62,33580,33580,65700,0,2896,0,0,0
o,0x00000000,1680090777.577652,172.16.1.2,46707,172.16.3.2,5201,48000,14517,6,65728,65728,6,6,4,1460,510,1,992,62,33580,33580,65700,0,4344,0,0,0
o,0x00000000,1680090777.577992,172.16.1.2,46707,172.16.3.2,5201,48000,14517,6,65728,65728,6,6,4,1460,510,1,992,62,33580,33580,65700,0,5792,0,0,0
o,0x00000000,1680090777.578321,172.16.1.2,46707,172.16.3.2,5201,48000,14517,6,65728,65728,6,6,4,1460,510,1,992,62,33580,33580,65700,0,7240,0,0,0
o,0x00000000,1680090777.578674,172.16.1.2,46707,172.16.3.2,5201,48000,14517,6,65728,65728,6,6,4,1460,510,1,992,62,33580,33580,65700,0,8688,0,0,0
o,0x00000000,1680090777.579063,172.16.1.2,46707,172.16.3.2,5201,48000,14517,6,65728,65728,6,6,4,1460,510,1,992,62,33580,33580,65700,0,10136,0,0,0
o,0x00000000,1680090777.579391,172.16.1.2,46707,172.16.3.2,5201,48000,14517,6,65728,65728,6,6,4,1460,510,1,992,62,33580,33580,65700,0,11584,0,0,0
o,0x00000000,1680090777.579755,172.16.1.2,46707,172.16.3.2,5201,48000,14517,6,65728,65728,6,6,4,1460,510,1,992,62,33580,33580,65700,0,13032,0,0,0
i,0x00000000,1680090777.647007,172.16.1.2,46707,172.16.3.2,5201,48000,14517,6,65728,65728,6,6,4,1460,510,1,992,62,33580,33580,65700,0,14480,0,0,0
o,0x00000000,1680090777.647134,172.16.1.2,46707,172.16.3.2,5201,48000,17413,6,64256,65728,6,6,4,1460,475,1,992,63,33580,30684,65700,0,11584,0,0,0
o,0x00000000,1680090777.647261,172.16.1.2,46707,172.16.3.2,5201,48000,17413,6,64256,65728,6,6,4,1460,475,1,992,63,33580,30684,65700,0,13032,0,0,0
o,0x00000000,1680090777.647360,172.16.1.2,46707,172.16.3.2,5201,48000,17413,6,64256,65728,6,6,4,1460,475,1,992,63,41772,30684,65700,0,14480,0,0,0
o,0x00000000,1680090777.647654,172.16.1.2,46707,172.16.3.2,5201,48000,17413,6,64256,65728,6,6,4,1460,475,1,992,63,41772,30684,65700,0,15928,0,0,0
i,0x00000000,1680090777.647760,172.16.1.2,46707,172.16.3.2,5201,48000,17413,6,64256,65728,6,6,4,1460,475,1,992,63,41772,30684,65700,0,17376,0,0,0
o,0x00000000,1680090777.647779,172.16.1.2,46707,172.16.3.2,5201,48000,20309,6,64256,65728,6,6,4,1460,444,1,992,63,41772,27788,65700,0,14480,0,0,0
o,0x00000000,1680090777.647916,172.16.1.2,46707,172.16.3.2,5201,48000,20309,6,64256,65728,6,6,4,1460,444,1,992,63,41772,27788,65700,0,15928,0,0,0
o,0x00000000,1680090777.648017,172.16.1.2,46707,172.16.3.2,5201,48000,20309,6,64256,65728,6,6,4,1460,444,1,992,63,41772,27788,65700,0,17376,0,0,0
o,0x00000000,1680090777.648128,172.16.1.2,46707,172.16.3.2,5201,48000,20309,6,64256,65728,6,6,4,1460,444,1,992,63,41772,27788,65700,0,18824,0,0,0
i,0x00000000,1680090777.667791,172.16.1.2,46707,172.16.3.2,5201,48000,20309,6,64256,65728,6,6,4,1460,444,1,992,63,41772,41772,65700,0,20272,0,0,0
o,0x00000000,1680090777.667823,172.16.1.2,46707,172.16.3.2,5201,48000,23205,6,62848,65728,6,6,4,1460,425,1,992,60,49964,38876,65700,0,17376,0,0,0
o,0x00000000,1680090777.667928,172.16.1.2,46707,172.16.3.2,5201,48000,23205,6,62848,65728,6,6,4,1460,425,1,992,60,49964,38876,65700,0,18824,0,0,0
o,0x00000000,1680090777.668017,172.16.1.2,46707,172.16.3.2,5201,48000,23205,6,62848,65728,6,6,4,1460,425,1,992,60,49964,38876,65700,0,20272,0,0,0
o,0x00000000,1680090777.668106,172.16.1.2,46707,172.16.3.2,5201,48000,23205,6,62848,65728,6,6,4,1460,425,1,992,60,49964,38876,65700,0,21720,0,0,0
i,0x00000000,1680090777.668193,172.16.1.2,46707,172.16.3.2,5201,48000,23205,6,62848,65728,6,6,4,1460,425,1,992,60,49964,38876,65700,0,23168,0,0,0
o,0x00000000,1680090777.668211,172.16.1.2,46707,172.16.3.2,5201,48000,26101,6,62848,65728,6,6,4,1460,408,1,992,57,49964,35980,65700,0,20272,0,0,0
o,0x00000000,1680090777.668335,172.16.1.2,46707,172.16.3.2,5201,48000,26101,6,62848,65728,6,6,4,1460,408,1,992,57,49964,35980,65700,0,21720,0,0,0
o,0x00000000,1680090777.668429,172.16.1.2,46707,172.16.3.2,5201,48000,26101,6,62848,65728,6,6,4,1460,408,1,992,57,49964,35980,65700,0,23168,0,0,0
o,0x00000000,1680090777.668530,172.16.1.2,46707,172.16.3.2,5201,48000,26101,6,62848,65728,6,6,4,1460,408,1,992,57,49964,35980,65700,0,24616,0,0,0
i,0x00000000,1680090777.697442,172.16.1.2,46707,172.16.3.2,5201,48000,26101,6,62848,65728,6,6,4,1460,408,1,992,57,58156,58156,65700,0,26064,0,0,0
o,0x00000000,1680090777.697495,172.16.1.2,46707,172.16.3.2,5201,48000,28997,6,64256,65728,6,6,4,1460,405,1,992,51,58156,55260,65700,0,23168,0,0,0
o,0x00000000,1680090777.697589,172.16.1.2,46707,172.16.3.2,5201,48000,28997,6,64256,65728,6,6,4,1460,405,1,992,51,58156,55260,65700,0,24616,0,0,0
o,0x00000000,1680090777.697684,172.16.1.2,46707,172.16.3.2,5201,48000,28997,6,64256,65728,6,6,4,1460,405,1,992,51,58156,55260,65700,0,26064,0,0,0
o,0x00000000,1680090777.697837,172.16.1.2,46707,172.16.3.2,5201,48000,28997,6,64256,65728,6,6,4,1460,405,1,992,51,66348,55260,65700,0,27512,0,0,0
i,0x00000000,1680090777.697956,172.16.1.2,46707,172.16.3.2,5201,48000,28997,6,64256,65728,6,6,4,1460,405,1,992,51,66348,55260,65700,0,28960,0,0,0
o,0x00000000,1680090777.697974,172.16.1.2,46707,172.16.3.2,5201,48000,31893,6,64256,65728,6,6,4,1460,375,1,992,53,66348,52364,65700,0,26064,0,0,0
o,0x00000000,1680090777.698074,172.16.1.2,46707,172.16.3.2,5201,48000,31893,6,64256,65728,6,6,4,1460,375,1,992,53,66348,52364,65700,0,27512,0,0,0
o,0x00000000,1680090777.698171,172.16.1.2,46707,172.16.3.2,5201,48000,31893,6,64256,65728,6,6,4,1460,375,1,992,53,66348,52364,65700,0,28960,0,0,0
o,0x00000000,1680090777.698260,172.16.1.2,46707,172.16.3.2,5201,48000,31893,6,64256,65728,6,6,4,1460,375,1,992,53,66348,52364,65700,0,30408,0,0,0
i,0x00000000,1680090777.717712,172.16.1.2,46707,172.16.3.2,5201,48000,31893,6,64256,65728,6,6,4,1460,375,1,992,53,66348,66348,65700,0,31856,0,0,0
o,0x00000000,1680090777.717732,172.16.1.2,46707,172.16.3.2,5201,48000,34789,6,64256,65728,6,6,4,1460,357,1,992,52,74540,63452,65700,0,28960,0,0,0
o,0x00000000,1680090777.717839,172.16.1.2,46707,172.16.3.2,5201,48000,34789,6,64256,65728,6,6,4,1460,357,1,992,52,74540,63452,65700,0,30408,0,0,0
o,0x00000000,1680090777.717942,172.16.1.2,46707,172.16.3.2,5201,48000,34789,6,64256,65728,6,6,4,1460,357,1,992,52,74540,63452,65700,0,31856,0,0,0
o,0x00000000,1680090777.718049,172.16.1.2,46707,172.16.3.2,5201,48000,34789,6,64256,65728,6,6,4,1460,357,1,992,52,74540,63452,65700,0,33304,0,0,0
i,0x00000000,1680090777.718145,172.16.1.2,46707,172.16.3.2,5201,48000,34789,6,64256,65728,6,6,4,1460,357,1,992,52,74540,63452,65700,0,34752,0,0,0
o,0x00000000,1680090777.718183,172.16.1.2,46707,172.16.3.2,5201,48000,37685,6,62848,65728,6,6,4,1460,341,1,992,50,74540,60556,65700,0,31856,0,0,0
o,0x00000000,1680090777.718291,172.16.1.2,46707,172.16.3.2,5201,48000,37685,6,62848,65728,6,6,4,1460,341,1,992,50,74540,60556,65700,0,33304,0,0,0
o,0x00000000,1680090777.718400,172.16.1.2,46707,172.16.3.2,5201,48000,37685,6,62848,65728,6,6,4,1460,341,1,992,50,74540,60556,65700,0,34752,0,0,0
o,0x00000000,1680090777.718509,172.16.1.2,46707,172.16.3.2,5201,48000,37685,6,62848,65728,6,6,4,1460,341,1,992,50,74540,60556,65700,0,36200,0,0,0
i,0x00000000,1680090777.736807,172.16.1.2,46707,172.16.3.2,5201,48000,37685,6,62848,65728,6,6,4,1460,341,1,992,50,82732,82732,65700,0,37648,0,0,0
o,0x00000000,1680090777.736983,172.16.1.2,46707,172.16.3.2,5201,48000,40581,6,62848,65728,6,6,4,1460,335,1,992,46,82732,79836,65700,0,34752,0,0,0
o,0x00000000,1680090777.737211,172.16.1.2,46707,172.16.3.2,5201,48000,40581,6,62848,65728,6,6,4,1460,335,1,992,46,82732,79836,65700,0,36200,0,0,0
o,0x00000000,1680090777.737399,172.16.1.2,46707,172.16.3.2,5201,48000,40581,6,62848,65728,6,6,4,1460,335,1,992,46,82732,79836,65700,0,37648,0,0,0
o,0x00000000,1680090777.737547,172.16.1.2,46707,172.16.3.2,5201,48000,40581,6,62848,65728,6,6,4,1460,335,1,992,46,82732,79836,65700,0,39096,0,0,0
i,0x00000000,1680090777.756848,172.16.1.2,46707,172.16.3.2,5201,48000,40581,6,62848,65728,6,6,4,1460,335,1,992,46,82732,82732,65700,0,40544,0,0,0
o,0x00000000,1680090777.756945,172.16.1.2,46707,172.16.3.2,5201,48000,43477,6,64256,65728,6,6,4,1460,330,1,992,44,82732,79836,65700,0,37648,0,0,0
o,0x00000000,1680090777.757040,172.16.1.2,46707,172.16.3.2,5201,48000,43477,6,64256,65728,6,6,4,1460,330,1,992,44,82732,79836,65700,0,39096,0,0,0
o,0x00000000,1680090777.757128,172.16.1.2,46707,172.16.3.2,5201,48000,43477,6,64256,65728,6,6,4,1460,330,1,992,44,82732,79836,65700,0,40544,0,0,0
o,0x00000000,1680090777.757217,172.16.1.2,46707,172.16.3.2,5201,48000,43477,6,64256,65728,6,6,4,1460,330,1,992,44,82732,79836,65700,0,41992,0,0,0
i,0x00000000,1680090777.757312,172.16.1.2,46707,172.16.3.2,5201,48000,43477,6,64256,65728,6,6,4,1460,330,1,992,44,82732,79836,65700,0,43440,0,0,0
o,0x00000000,1680090777.757329,172.16.1.2,46707,172.16.3.2,5201,48000,46373,6,64256,65728,6,6,4,1460,325,1,992,41,82732,76940,65700,0,40544,0,0,0
o,0x00000000,1680090777.757416,172.16.1.2,46707,172.16.3.2,5201,48000,46373,6,64256,65728,6,6,4,1460,325,1,992,41,82732,76940,65700,0,41992,0,0,0
o,0x00000000,1680090777.757518,172.16.1.2,46707,172.16.3.2,5201,48000,46373,6,64256,65728,6,6,4,1460,325,1,992,41,82732,76940,65700,0,43440,0,0,0
o,0x00000000,1680090777.757607,172.16.1.2,46707,172.16.3.2,5201,48000,46373,6,64256,65728,6,6,4,1460,325,1,992,41,82732,76940,65700,0,44888,0,0,0
i,0x00000000,1680090777.777199,172.16.1.2,46707,172.16.3.2,5201,48000,46373,6,64256,65728,6,6,4,1460,325,1,992,41,82732,82732,65700,0,46336,0,0,0
o,0x00000000,1680090777.777233,172.16.1.2,46707,172.16.3.2,5201,48000,49269,6,64256,65728,6,6,4,1460,329,1,992,40,82732,79836,65700,0,43440,0,0,0
o,0x00000000,1680090777.777475,172.16.1.2,46707,172.16.3.2,5201,48000,49269,6,64256,65728,6,6,4,1460,329,1,992,40,82732,79836,65700,0,44888,0,0,0
o,0x00000000,1680090777.777567,172.16.1.2,46707,172.16.3.2,5201,48000,49269,6,64256,65728,6,6,4,1460,329,1,992,40,82732,79836,65700,0,46336,0,0,0
o,0x00000000,1680090777.777687,172.16.1.2,46707,172.16.3.2,5201,48000,49269,6,64256,65728,6,6,4,1460,329,1,992,40,82732,79836,65700,0,47784,0,0,0
i,0x00000000,1680090777.777819,172.16.1.2,46707,172.16.3.2,5201,48000,49269,6,64256,65728,6,6,4,1460,329,1,992,40,82732,79836,65700,0,49232,0,0,0
o,0x00000000,1680090777.777840,172.16.1.2,46707,172.16.3.2,5201,48000,49269,6,62848,65728,6,6,4,1460,332,1,992,38,82732,76940,65700,0,46336,0,0,0
o,0x00000000,1680090777.777950,172.16.1.2,46707,172.16.3.2,5201,48000,49269,6,62848,65728,6,6,4,1460,332,1,992,38,82732,76940,65700,0,47784,0,0,0
i,0x00000000,1680090777.797394,172.16.1.2,46707,172.16.3.2,5201,48000,49269,6,62848,65728,6,6,4,1460,332,1,992,38,82732,82732,65700,0,49232,0,0,0
o,0x00000000,1680090777.797510,172.16.1.2,46707,172.16.3.2,5201,48000,49269,6,62848,65728,6,6,4,1460,331,1,992,36,82732,79836,65700,0,46336,0,0,0
o,0x00000000,1680090777.797654,172.16.1.2,46707,172.16.3.2,5201,48000,49269,6,62848,65728,6,6,4,1460,331,1,992,36,82732,79836,65700,0,47784,0,0,0
i,0x00000000,1680090777.825435,172.16.1.2,46707,172.16.3.2,5201,48000,49269,6,62848,65728,6,6,4,1460,331,1,992,36,82732,82732,65700,0,49232,0,0,0
o,0x00000000,1680090777.825474,172.16.1.2,46707,172.16.3.2,5201,48000,49269,6,64256,65728,6,6,4,1460,342,1,992,38,82732,79836,65700,0,46336,0,0,0
o,0x00000000,1680090777.825599,172.16.1.2,46707,172.16.3.2,5201,48000,49269,6,64256,65728,6,6,4,1460,342,1,992,38,82732,79836,65700,0,47784,0,0,0
i,0x00000000,1680090777.825708,172.16.1.2,46707,172.16.3.2,5201,48000,49269,6,64256,65728,6,6,4,1460,342,1,992,38,82732,79836,65700,0,49232,0,0,0
o,0x00000000,1680090777.825736,172.16.1.2,46707,172.16.3.2,5201,48000,49269,6,64256,65728,6,6,4,1460,352,1,992,39,82732,76940,65700,0,46336,0,0,0
o,0x00000000,1680090777.825859,172.16.1.2,46707,172.16.3.2,5201,48000,49269,6,64256,65728,6,6,4,1460,352,1,992,39,82732,76940,65700,0,47784,0,0,0
i,0x00000000,1680090777.837676,172.16.1.2,46707,172.16.3.2,5201,48000,49269,6,64256,65728,6,6,4,1460,352,1,992,39,82732,82732,65700,0,49232,0,0,0
o,0x00000000,1680090777.837702,172.16.1.2,46707,172.16.3.2,5201,48000,49269,6,64256,65728,6,6,4,1460,364,1,992,40,82732,79836,65700,0,46336,0,0,0
o,0x00000000,1680090777.837824,172.16.1.2,46707,172.16.3.2,5201,48000,49269,6,64256,65728,6,6,4,1460,364,1,992,40,82732,79836,65700,0,47784,0,0,0
i,0x00000000,1680090777.837932,172.16.1.2,46707,172.16.3.2,5201,48000,49269,6,64256,65728,6,6,4,1460,364,1,992,40,82732,79836,65700,0,49232,0,0,0
o,0x00000000,1680090777.837963,172.16.1.2,46707,172.16.3.2,5201,48000,49269,6,62848,65728,6,6,4,1460,363,1,992,38,82732,76940,65700,0,46336,0,0,0
o,0x00000000,1680090777.838068,172.16.1.2,46707,172.16.3.2,5201,48000,49269,6,62848,65728,6,6,4,1460,363,1,992,38,82732,76940,65700,0,47784,0,0,0
i,0x00000000,1680090777.857213,172.16.1.2,46707,172.16.3.2,5201,48000,49269,6,62848,65728,6,6,4,1460,363,1,992,38,82732,82732,65700,0,49232,0,0,0
o,0x00000000,1680090777.857240,172.16.1.2,46707,172.16.3.2,5201,48000,49269,6,62848,65728,6,6,4,1460,374,1,992,40,82732,79836,65700,0,46336,0,0,0
o,0x00000000,1680090777.857363,172.16.1.2,46707,172.16.3.2,5201,48000,49269,6,62848,65728,6,6,4,1460,374,1,992,40,82732,79836,65700,0,47784,0,0,0
i,0x00000000,1680090777.877899,172.16.1.2,46707,172.16.3.2,5201,48000,49269,6,62848,65728,6,6,4,1460,374,1,992,40,82732,82732,65700,0,49232,0,0,0
o,0x00000000,1680090777.877952,172.16.1.2,46707,172.16.3.2,5201,48000,49269,6,64256,65728,6,6,4,1460,392,1,992,43,82732,79836,65700,0,46336,0,0,0
o,0x00000000,1680090777.878384,172.16.1.2,46707,172.16.3.2,5201,48000,49269,6,64256,65728,6,6,4,1460,392,1,992,43,82732,79836,65700,0,47784,0,0,0
i,0x00000000,1680090777.878598,172.16.1.2,46707,172.16.3.2,5201,48000,49269,6,64256,65728,6,6,4,1460,392,1,992,43,82732,79836,65700,0,49232,0,0,0
o,0x00000000,1680090777.878632,172.16.1.2,46707,172.16.3.2,5201,48000,49269,6,64256,65728,6,6,4,1460,407,1,992,44,82732,76940,65700,0,46336,0,0,0
o,0x00000000,1680090777.878867,172.16.1.2,46707,172.16.3.2,5201,48000,49269,6,64256,65728,6,6,4,1460,407,1,992,44,82732,76940,65700,0,47784,0,0,0
i,0x00000000,1680090777.899578,172.16.1.2,46707,172.16.3.2,5201,48000,49269,6,64256,65728,6,6,4,1460,407,1,992,44,82732,82732,65700,0,49232,0,0,0
o,0x00000000,1680090777.899603,172.16.1.2,46707,172.16.3.2,5201,48000,49269,6,64256,65728,6,6,4,1460,421,1,992,45,82732,79836,65700,0,46336,0,0,0
o,0x00000000,1680090777.899764,172.16.1.2,46707,172.16.3.2,5201,48000,49269,6,64256,65728,6,6,4,1460,421,1,992,45,82732,79836,65700,0,47784,0,0,0
i,0x00000000,1680090777.899853,172.16.1.2,46707,172.16.3.2,5201,48000,49269,6,64256,65728,6,6,4,1460,421,1,992,45,82732,79836,65700,0,49232,0,0,0
o,0x00000000,1680090777.899871,172.16.1.2,46707,172.16.3.2,5201,48000,49269,6,62848,65728,6,6,4,1460,433,1,992,46,82732,76940,65700,0,46336,0,0,0
o,0x00000000,1680090777.899959,172.16.1.2,46707,172.16.3.2,5201,48000,49269,6,62848,65728,6,6,4,1460,433,1,992,46,82732,76940,65700,0,47784,0,0,0
i,0x00000000,1680090777.918627,172.16.1.2,46707,172.16.3.2,5201,48000,49269,6,62848,65728,6,6,4,1460,433,1,992,46,82732,82732,65700,0,49232,0,0,0
o,0x00000000,1680090777.918723,172.16.1.2,46707,172.16.3.2,5201,48000,49269,6,62848,65728,6,6,4,1460,439,1,992,44,82732,79836,65700,0,46336,0,0,0
o,0x00000000,1680090777.918832,172.16.1.2,46707,172.16.3.2,5201,48000,49269,6,62848,65728,6,6,4,1460,439,1,992,44,82732,79836,65700,0,47784,0,0,0
i,0x00000000,1680090777.936473,172.16.1.2,46707,172.16.3.2,5201,48000,49269,6,62848,65728,6,6,4,1460,439,1,992,44,82732,82732,65700,0,49232,0,0,0
o,0x00000000,1680090777.936496,172.16.1.2,46707,172.16.3.2,5201,48000,49269,6,64256,65728,6,6,4,1460,453,1,992,45,82732,79836,65700,0,46336,0,0,0
o,0x00000000,1680090777.936671,172.16.1.2,46707,172.16.3.2,5201,48000,49269,6,64256,65728,6,6,4,1460,453,1,992,45,82732,79836,65700,0,47784,0,0,0
i,0x00000000,1680090777.936765,172.16.1.2,46707,172.16.3.2,5201,48000,49269,6,64256,65728,6,6,4,1460,453,1,992,45,82732,79836,65700,0,49232,0,0,0
o,0x00000000,1680090777.936784,172.16.1.2,46707,172.16.3.2,5201,48000,49269,6,64256,65728,6,6,4,1460,465,1,992,46,82732,76940,65700,0,46336,0,0,0
o,0x00000000,1680090777.936880,172.16.1.2,46707,172.16.3.2,5201,48000,49269,6,64256,65728,6,6,4,1460,465,1,992,46,82732,76940,65700,0,47784,0,0,0
i,0x00000000,1680090777.957698,172.16.1.2,46707,172.16.3.2,5201,48000,49269,6,64256,65728,6,6,4,1460,465,1,992,46,82732,82732,65700,0,49232,0,0,0
o,0x00000000,1680090777.957723,172.16.1.2,46707,172.16.3.2,5201,48000,49269,6,64256,65728,6,6,4,1460,483,1,992,48,82732,79836,65700,0,46336,0,0,0
o,0x00000000,1680090777.957836,172.16.1.2,46707,172.16.3.2,5201,48000,49269,6,64256,65728,6,6,4,1460,483,1,992,48,82732,79836,65700,0,47784,0,0,0
i,0x00000000,1680090777.957982,172.16.1.2,46707,172.16.3.2,5201,48000,49269,6,64256,65728,6,6,4,1460,483,1,992,48,82732,79836,65700,0,49232,0,0,0
o,0x00000000,1680090777.958014,172.16.1.2,46707,172.16.3.2,5201,48000,49269,6,62848,65728,6,6,4,1460,491,1,992,47,82732,76940,65700,0,46336,0,0,0
o,0x00000000,1680090777.958133,172.16.1.2,46707,172.16.3.2,5201,48000,49269,6,62848,65728,6,6,4,1460,491,1,992,47,82732,76940,65700,0,47784,0,0,0
i,0x00000000,1680090777.979120,172.16.1.2,46707,172.16.3.2,5201,48000,49269,6,62848,65728,6,6,4,1460,491,1,992,47,82732,82732,65700,0,49232,0,0,0
o,0x00000000,1680090777.979484,172.16.1.2,46707,172.16.3.2,5201,48000,49269,6,62848,65728,6,6,4,1460,506,1,992,48,82732,79836,65700,0,46336,0,0,0
o,0x00000000,1680090777.979874,172.16.1.2,46707,172.16.3.2,5201,48000,49269,6,62848,65728,6,6,4,1460,506,1,992,48,82732,79836,65700,0,47784,0,0,0
i,0x00000000,1680090777.997867,172.16.1.2,46707,172.16.3.2,5201,48000,49269,6,62848,65728,6,6,4,1460,506,1,992,48,82732,82732,65700,0,49232,0,0,0
o,0x00000000,1680090777.997944,172.16.1.2,46707,172.16.3.2,5201,48000,49269,6,64256,65728,6,6,4,1460,527,1,992,51,82732,79836,65700,0,46336,0,0,0
o,0x00000000,1680090777.998284,172.16.1.2,46707,172.16.3.2,5201,48000,49269,6,64256,65728,6,6,4,1460,527,1,992,51,82732,79836,65700,0,47784,0,0,0
i,0x00000000,1680090777.998514,172.16.1.2,46707,172.16.3.2,5201,48000,49269,6,64256,65728,6,6,4,1460,527,1,992,51,82732,79836,65700,0,49232,0,0,0
o,0x00000000,1680090777.998559,172.16.1.2,46707,172.16.3.2,5201,48000,49269,6,64256,65728,6,6,4,1460,538,1,992,50,82732,76940,65700,0,46336,0,0,0
o,0x00000000,1680090777.998791,172.16.1.2,46707,172.16.3.2,5201,48000,49269,6,64256,65728,6,6,4,1460,538,1,992,50,82732,76940,65700,0,47784,0,0,0
i,0x00000000,1680090778.018094,172.16.1.2,46707,172.16.3.2,5201,48000,49269,6,64256,65728,6,6,4,1460,538,1,992,50,82732,82732,65700,0,49232,0,0,0
o,0x00000000,1680090778.018205,172.16.1.2,46707,172.16.3.2,5201,48000,49269,6,64256,65728,6,6,4,1460,543,1,992,48,82732,79836,65700,0,46336,0,0,0
o,0x00000000,1680090778.018315,172.16.1.2,46707,172.16.3.2,5201,48000,49269,6,64256,65728,6,6,4,1460,543,1,992,48,82732,79836,65700,0,47784,0,0,0
i,0x00000000,1680090778.018416,172.16.1.2,46707,172.16.3.2,5201,48000,49269,6,64256,65728,6,6,4,1460,543,1,992,48,82732,79836,65700,0,49232,0,0,0
o,0x00000000,1680090778.018439,172.16.1.2,46707,172.16.3.2,5201,48000,49269,6,62848,65728,6,6,4,1460,548,1,992,47,82732,76940,65700,0,46336,0,0,0
o,0x00000000,1680090778.018538,172.16.1.2,46707,172.16.3.2,5201,48000,49269,6,62848,65728,6,6,4,1460,548,1,992,47,82732,76940,65700,0,47784,0,0,0
i,0x00000000,1680090778.043151,172.16.1.2,46707,172.16.3.2,5201,48000,49269,6,62848,65728,6,6,4,1460,548,1,992,47,82732,82732,65700,0,49232,0,0,0
o,0x00000000,1680090778.043177,172.16.1.2,46707,172.16.3.2,5201,48000,49269,6,62848,65728,6,6,4,1460,564,1,992,49,82732,79836,65700,0,46336,0,0,0
o,0x00000000,1680090778.043281,172.16.1.2,46707,172.16.3.2,5201,48000,49269,6,62848,65728,6,6,4,1460,564,1,992,49,82732,79836,65700,0,47784,0,0,0
i,0x00000000,1680090778.057137,172.16.1.2,46707,172.16.3.2,5201,48000,49269,6,62848,65728,6,6,4,1460,564,1,992,49,82732,82732,65700,0,49232,0,0,0
o,0x00000000,1680090778.057165,172.16.1.2,46707,172.16.3.2,5201,48000,49269,6,64256,65728,6,6,4,1460,582,1,992,51,82732,79836,65700,0,46336,0,0,0
o,0x00000000,1680090778.057338,172.16.1.2,46707,172.16.3.2,5201,48000,49269,6,64256,65728,6,6,4,1460,582,1,992,51,82732,79836,65700,0,47784,0,0,0
i,0x00000000,1680090778.057425,172.16.1.2,46707,172.16.3.2,5201,48000,49269,6,64256,65728,6,6,4,1460,582,1,992,51,82732,79836,65700,0,49232,0,0,0
o,0x00000000,1680090778.057443,172.16.1.2,46707,172.16.3.2,5201,48000,49269,6,64256,65728,6,6,4,1460,586,1,992,49,82732,76940,65700,0,46336,0,0,0
o,0x00000000,1680090778.057530,172.16.1.2,46707,172.16.3.2,5201,48000,49269,6,64256,65728,6,6,4,1460,586,1,992,49,82732,76940,65700,0,47784,0,0,0
i,0x00000000,1680090778.077249,172.16.1.2,46707,172.16.3.2,5201,48000,49269,6,64256,65728,6,6,4,1460,586,1,992,49,82732,82732,65700,0,49232,0,0,0
o,0x00000000,1680090778.077321,172.16.1.2,46707,172.16.3.2,5201,48000,49269,6,64256,65728,6,6,4,1460,589,1,992,47,82732,79836,65700,0,46336,0,0,0
o,0x00000000,1680090778.077612,172.16.1.2,46707,172.16.3.2,5201,48000,49269,6,64256,65728,6,6,4,1460,589,1,992,47,82732,79836,65700,0,47784,0,0,0
i,0x00000000,1680090778.078050,172.16.1.2,46707,172.16.3.2,5201,48000,49269,6,64256,65728,6,6,4,1460,589,1,992,47,82732,79836,65700,0,49232,0,0,0
o,0x00000000,1680090778.078134,172.16.1.2,46707,172.16.3.2,5201,48000,49269,6,62848,65728,6,6,4,1460,592,1,992,46,82732,79836,65700,0,46336,0,0,0
o,0x00000000,1680090778.078235,172.16.1.2,46707,172.16.3.2,5201,48000,49269,6,62848,65728,6,6,4,1460,592,1,992,46,82732,79836,65700,0,47784,0,0,0
i,0x00000000,1680090778.098295,172.16.1.2,46707,172.16.3.2,5201,48000,49269,6,62848,65728,6,6,4,1460,592,1,992,46,82732,82732,65700,0,49232,0,0,0
o,0x00000000,1680090778.098340,172.16.1.2,46707,172.16.3.2,5201,48000,49269,6,62848,65728,6,6,4,1460,594,1,992,45,82732,79836,65700,0,46336,0,0,0
o,0x00000000,1680090778.099444,172.16.1.2,46707,172.16.3.2,5201,48000,49269,6,62848,65728,6,6,4,1460,594,1,992,45,82732,79836,65700,0,47784,0,0,0
i,0x00000000,1680090778.117641,172.16.1.2,46707,172.16.3.2,5201,48000,49269,6,62848,65728,6,6,4,1460,594,1,992,45,82732,82732,65700,0,49232,0,0,0
o,0x00000000,1680090778.117663,172.16.1.2,46707,172.16.3.2,5201,48000,49269,6,64256,65728,6,6,4,1460,604,1,992,46,82732,79836,65700,0,46336,0,0,0
o,0x00000000,1680090778.117825,172.16.1.2,46707,172.16.3.2,5201,48000,49269,6,64256,65728,6,6,4,1460,604,1,992,46,82732,79836,65700,0,47784,0,0,0
i,0x00000000,1680090778.117912,172.16.1.2,46707,172.16.3.2,5201,48000,49269,6,64256,65728,6,6,4,1460,604,1,992,46,82732,79836,65700,0,49232,0,0,0
o,0x00000000,1680090778.117930,172.16.1.2,46707,172.16.3.2,5201,48000,49269,6,64256,65728,6,6,4,1460,605,1,992,44,82732,76940,65700,0,46336,0,0,0
o,0x00000000,1680090778.118027,172.16.1.2,46707,172.16.3.2,5201,48000,49269,6,64256,65728,6,6,4,1460,605,1,992,44,82732,76940,65700,0,47784,0,0,0
i,0x00000000,1680090778.137339,172.16.1.2,46707,172.16.3.2,5201,48000,49269,6,64256,65728,6,6,4,1460,605,1,992,44,82732,82732,65700,0,49232,0,0,0
o,0x00000000,1680090778.137453,172.16.1.2,46707,172.16.3.2,5201,48000,49269,6,64256,65728,6,6,4,1460,610,1,992,44,82732,79836,65700,0,46336,0,0,0
o,0x00000000,1680090778.137598,172.16.1.2,46707,172.16.3.2,5201,48000,49269,6,64256,65728,6,6,4,1460,610,1,992,44,82732,79836,65700,0,47784,0,0,0
i,0x00000000,1680090778.137715,172.16.1.2,46707,172.16.3.2,5201,48000,49269,6,64256,65728,6,6,4,1460,610,1,992,44,82732,79836,65700,0,49232,0,0,0
o,0x00000000,1680090778.137741,172.16.1.2,46707,172.16.3.2,5201,48000,49269,6,62848,65728,6,6,4,1460,614,1,992,44,82732,76940,65700,0,46336,0,0,0
o,0x00000000,1680090778.138023,172.16.1.2,46707,172.16.3.2,5201,48000,49269,6,62848,65728,6,6,4,1460,614,1,992,44,82732,76940,65700,0,47784,0,0,0
i,0x00000000,1680090778.157291,172.16.1.2,46707,172.16.3.2,5201,48000,49269,6,62848,65728,6,6,4,1460,614,1,992,44,82732,82732,65700,0,49232,0,0,0
o,0x00000000,1680090778.157398,172.16.1.2,46707,172.16.3.2,5201,48000,49269,6,62848,65728,6,6,4,1460,618,1,992,44,82732,79836,65700,0,46336,0,0,0
o,0x00000000,1680090778.157532,172.16.1.2,46707,172.16.3.2,5201,48000,49269,6,62848,65728,6,6,4,1460,618,1,992,44,82732,79836,65700,0,47784,0,0,0
i,0x00000000,1680090778.177166,172.16.1.2,46707,172.16.3.2,5201,48000,49269,6,62848,65728,6,6,4,1460,618,1,992,44,82732,82732,65700,0,49232,0,0,0
o,0x00000000,1680090778.177215,172.16.1.2,46707,172.16.3.2,5201,48000,49269,6,64256,65728,6,6,4,1460,629,1,992,46,82732,79836,65700,0,46336,0,0,0
o,0x00000000,1680090778.177480,172.16.1.2,46707,172.16.3.2,5201,48000,49269,6,64256,65728,6,6,4,1460,629,1,992,46,82732,79836,65700,0,47784,0,0,0
i,0x00000000,1680090778.177568,172.16.1.2,46707,172.16.3.2,5201,48000,49269,6,64256,65728,6,6,4,1460,629,1,992,46,82732,79836,65700,0,49232,0,0,0
o,0x00000000,1680090778.177591,172.16.1.2,46707,172.16.3.2,5201,48000,49269,6,64256,65728,6,6,4,1460,631,1,992,45,82732,76940,65700,0,46336,0,0,0
o,0x00000000,1680090778.177724,172.16.1.2,46707,172.16.3.2,5201,48000,49269,6,64256,65728,6,6,4,1460,631,1,992,45,82732,76940,65700,0,47784,0,0,0
i,0x00000000,1680090778.198872,172.16.1.2,46707,172.16.3.2,5201,48000,49269,6,64256,65728,6,6,4,1460,631,1,992,45,82732,82732,65700,0,49232,0,0,0
o,0x00000000,1680090778.198895,172.16.1.2,46707,172.16.3.2,5201,48000,49269,6,64256,65728,6,6,4,1460,633,1,992,44,82732,79836,65700,0,46336,0,0,0
o,0x00000000,1680090778.199015,172.16.1.2,46707,172.16.3.2,5201,48000,49269,6,64256,65728,6,6,4,1460,633,1,992,44,82732,79836,65700,0,47784,0,0,0
i,0x00000000,1680090778.200555,172.16.1.2,46707,172.16.3.2,5201,48000,49269,6,64256,65728,6,6,4,1460,633,1,992,44,82732,82732,65700,0,49232,0,0,0
o,0x00000000,1680090778.200656,172.16.1.2,46707,172.16.3.2,5201,48000,49269,6,62848,65728,6,6,4,1460,634,1,992,43,82732,79836,65700,0,46336,0,0,0
o,0x00000000,1680090778.200754,172.16.1.2,46707,172.16.3.2,5201,48000,49269,6,62848,65728,6,6,4,1460,634,1,992,43,82732,79836,65700,0,47784,0,0,0
i,0x00000000,1680090778.217862,172.16.1.2,46707,172.16.3.2,5201,48000,49269,6,62848,65728,6,6,4,1460,634,1,992,43,82732,82732,65700,0,49232,0,0,0
o,0x00000000,1680090778.217963,172.16.1.2,46707,172.16.3.2,5201,48000,49269,6,62848,65728,6,6,4,1460,635,1,992,43,82732,79836,65700,0,46336,0,0,0
o,0x00000000,1680090778.218122,172.16.1.2,46707,172.16.3.2,5201,48000,49269,6,62848,65728,6,6,4,1460,635,1,992,43,82732,79836,65700,0,47784,0,0,0
i,0x00000000,1680090778.237647,172.16.1.2,46707,172.16.3.2,5201,48000,49269,6,62848,65728,6,6,4,1460,635,1,992,43,82732,82732,65700,0,49232,0,0,0
o,0x00000000,1680090778.237702,172.16.1.2,46707,172.16.3.2,5201,48000,49269,6,64256,65728,6,6,4,1460,640,1,992,43,82732,79836,65700,0,46336,0,0,0
o,0x00000000,1680090778.237897,172.16.1.2,46707,172.16.3.2,5201,48000,49269,6,64256,65728,6,6,4,1460,640,1,992,43,82732,79836,65700,0,47784,0,0,0
i,0x00000000,1680090778.238042,172.16.1.2,46707,172.16.3.2,5201,48000,49269,6,64256,65728,6,6,4,1460,640,1,992,43,82732,79836,65700,0,49232,0,0,0
o,0x00000000,1680090778.238103,172.16.1.2,46707,172.16.3.2,5201,48000,49269,6,64256,65728,6,6,4,1460,636,1,992,43,82732,76940,65700,0,46336,0,0,0
o,0x00000000,1680090778.238236,172.16.1.2,46707,172.16.3.2,5201,48000,49269,6,64256,65728,6,6,4,1460,636,1,992,43,82732,76940,65700,0,47784,0,0,0
i,0x00000000,1680090778.257856,172.16.1.2,46707,172.16.3.2,5201,48000,49269,6,64256,65728,6,6,4,1460,636,1,992,43,82732,82732,65700,0,49232,0,0,0
o,0x00000000,1680090778.257885,172.16.1.2,46707,172.16.3.2,5201,48000,49269,6,64256,65728,6,6,4,1460,637,1,992,43,82732,79836,65700,0,46336,0,0,0
o,0x00000000,1680090778.257989,172.16.1.2,46707,172.16.3.2,5201,48000,49269,6,64256,65728,6,6,4,1460,637,1,992,43,82732,79836,65700,0,47784,0,0,0
i,0x00000000,1680090778.258082,172.16.1.2,46707,172.16.3.2,5201,48000,49269,6,64256,65728,6,6,4,1460,637,1,992,43,82732,79836,65700,0,49232,0,0,0
o,0x00000000,1680090778.258100,172.16.1.2,46707,172.16.3.2,5201,48000,49269,6,62848,65728,6,6,4,1460,638,1,992,42,82732,76940,65700,0,46336,0,0,0
o,0x00000000,1680090778.258229,172.16.1.2,46707,172.16.3.2,5201,48000,49269,6,62848,65728,6,6,4,1460,638,1,992,42,82732,76940,65700,0,47784,0,0,0
i,0x00000000,1680090778.279388,172.16.1.2,46707,172.16.3.2,5201,48000,49269,6,62848,65728,6,6,4,1460,638,1,992,42,82732,82732,65700,0,49232,0,0,0
o,0x00000000,1680090778.279473,172.16.1.2,46707,172.16.3.2,5201,48000,49269,6,62848,65728,6,6,4,1460,639,1,992,42,82732,79836,65700,0,46336,0,0,0
o,0x00000000,1680090778.280154,172.16.1.2,46707,172.16.3.2,5201,48000,49269,6,62848,65728,6,6,4,1460,639,1,992,42,82732,79836,65700,0,47784,0,0,0
i,0x00000000,1680090778.301541,172.16.1.2,46707,172.16.3.2,5201,48000,49269,6,62848,65728,6,6,4,1460,639,1,992,42,82732,82732,65700,0,49232,0,0,0
o,0x00000000,1680090778.301566,172.16.1.2,46707,172.16.3.2,5201,48000,49269,6,64256,65728,6,6,4,1460,652,1,992,45,82732,79836,65700,0,46336,0,0,0
o,0x00000000,1680090778.301700,172.16.1.2,46707,172.16.3.2,5201,48000,49269,6,64256,65728,6,6,4,1460,652,1,992,45,82732,79836,65700,0,47784,0,0,0
i,0x00000000,1680090778.301823,172.16.1.2,46707,172.16.3.2,5201,48000,49269,6,64256,65728,6,6,4,1460,652,1,992,45,82732,79836,65700,0,49232,0,0,0
o,0x00000000,1680090778.301841,172.16.1.2,46707,172.16.3.2,5201,48000,49269,6,64256,65728,6,6,4,1460,655,1,992,45,82732,76940,65700,0,46336,0,0,0
o,0x00000000,1680090778.301946,172.16.1.2,46707,172.16.3.2,5201,48000,49269,6,64256,65728,6,6,4,1460,655,1,992,45,82732,76940,65700,0,47784,0,0,0
i,0x00000000,1680090778.316663,172.16.1.2,46707,172.16.3.2,5201,48000,49269,6,64256,65728,6,6,4,1460,655,1,992,45,82732,82732,65700,0,49232,0,0,0
o,0x00000000,1680090778.316702,172.16.1.2,46707,172.16.3.2,5201,48000,49269,6,64256,65728,6,6,4,1460,654,1,992,44,82732,79836,65700,0,46336,0,0,0
o,0x00000000,1680090778.316821,172.16.1.2,46707,172.16.3.2,5201,48000,49269,6,64256,65728,6,6,4,1460,654,1,992,44,82732,79836,65700,0,47784,0,0,0
i,0x00000000,1680090778.316917,172.16.1.2,46707,172.16.3.2,5201,48000,49269,6,64256,65728,6,6,4,1460,654,1,992,44,82732,79836,65700,0,49232,0,0,0
o,0x00000000,1680090778.316934,172.16.1.2,46707,172.16.3.2,5201,48000,49269,6,62848,65728,6,6,4,1460,653,1,992,43,82732,76940,65700,0,46336,0,0,0
o,0x00000000,1680090778.317032,172.16.1.2,46707,172.16.3.2,5201,48000,49269,6,62848,65728,6,6,4,1460,653,1,992,43,82732,76940,65700,0,47784,0,0,0
i,0x00000000,1680090778.337741,172.16.1.2,46707,172.16.3.2,5201,48000,49269,6,62848,65728,6,6,4,1460,653,1,992,43,82732,82732,65700,0,49232,0,0,0
o,0x00000000,1680090778.337839,172.16.1.2,46707,172.16.3.2,5201,48000,49269,6,62848,65728,6,6,4,1460,648,1,992,44,82732,79836,65700,0,46336,0,0,0
o,0x00000000,1680090778.337941,172.16.1.2,46707,172.16.3.2,5201,48000,49269,6,62848,65728,6,6,4,1460,648,1,992,44,82732,79836,65700,0,47784,0,0,0
i,0x00000000,1680090778.356883,172.16.1.2,46707,172.16.3.2,5201,48000,49269,6,62848,65728,6,6,4,1460,648,1,992,44,82732,82732,65700,0,49232,0,0,0
o,0x00000000,1680090778.357013,172.16.1.2,46707,172.16.3.2,5201,48000,49269,6,64256,65728,6,6,4,1460,655,1,992,45,82732,79836,65700,0,46336,0,0,0
o,0x00000000,1680090778.357119,172.16.1.2,46707,172.16.3.2,5201,48000,49269,6,64256,65728,6,6,4,1460,655,1,992,45,82732,79836,65700,0,47784,0,0,0
i,0x00000000,1680090778.357241,172.16.1.2,46707,172.16.3.2,5201,48000,49269,6,64256,65728,6,6,4,1460,655,1,992,45,82732,79836,65700,0,49232,0,0,0
o,0x00000000,1680090778.357263,172.16.1.2,46707,172.16.3.2,5201,48000,49269,6,64256,65728,6,6,4,1460,654,1,992,44,82732,76940,65700,0,46336,0,0,0
o,0x00000000,1680090778.357352,172.16.1.2,46707,172.16.3.2,5201,48000,49269,6,64256,65728,6,6,4,1460,654,1,992,44,82732,76940,65700,0,47784,0,0,0
i,0x00000000,1680090778.376252,172.16.1.2,46707,172.16.3.2,5201,48000,49269,6,64256,65728,6,6,4,1460,654,1,992,44,82732,82732,65700,0,49232,0,0,0
o,0x00000000,1680090778.376278,172.16.1.2,46707,172.16.3.2,5201,48000,49269,6,64256,65728,6,6,4,1460,653,1,992,43,82732,79836,65700,0,46336,0,0,0
o,0x00000000,1680090778.376382,172.16.1.2,46707,172.16.3.2,5201,48000,49269,6,64256,65728,6,6,4,1460,653,1,992,43,82732,79836,65700,0,47784,0,0,0
i,0x00000000,1680090778.376501,172.16.1.2,46707,172.16.3.2,5201,48000,49269,6,64256,65728,6,6,4,1460,653,1,992,43,82732,79836,65700,0,49232,0,0,0
o,0x00000000,1680090778.376537,172.16.1.2,46707,172.16.3.2,5201,48000,49269,6,62848,65728,6,6,4,1460,652,1,992,43,82732,76940,65700,0,46336,0,0,0
o,0x00000000,1680090778.376635,172.16.1.2,46707,172.16.3.2,5201,48000,49269,6,62848,65728,6,6,4,1460,652,1,992,43,82732,76940,65700,0,47784,0,0,0
i,0x00000000,1680090778.397134,172.16.1.2,46707,172.16.3.2,5201,48000,49269,6,62848,65728,6,6,4,1460,652,1,992,43,82732,82732,65700,0,49232,0,0,0
o,0x00000000,1680090778.397157,172.16.1.2,46707,172.16.3.2,5201,48000,49269,6,62848,65728,6,6,4,1460,647,1,992,43,82732,79836,65700,0,46336,0,0,0
o,0x00000000,1680090778.397284,172.16.1.2,46707,172.16.3.2,5201,48000,49269,6,62848,65728,6,6,4,1460,647,1,992,43,82732,79836,65700,0,47784,0,0,0
i,0x00000000,1680090778.417401,172.16.1.2,46707,172.16.3.2,5201,48000,49269,6,62848,65728,6,6,4,1460,647,1,992,43,82732,82732,65700,0,49232,0,0,0
o,0x00000000,1680090778.417423,172.16.1.2,46707,172.16.3.2,5201,48000,49269,6,64256,65728,6,6,4,1460,651,1,992,44,82732,79836,65700,0,46336,0,0,0
o,0x00000000,1680090778.417592,172.16.1.2,46707,172.16.3.2,5201,48000,49269,6,64256,65728,6,6,4,1460,651,1,992,44,82732,79836,65700,0,47784,0,0,0
i,0x00000000,1680090778.417685,172.16.1.2,46707,172.16.3.2,5201,48000,49269,6,64256,65728,6,6,4,1460,651,1,992,44,82732,79836,65700,0,49232,0,0,0
o,0x00000000,1680090778.417702,172.16.1.2,46707,172.16.3.2,5201,48000,49269,6,64256,65728,6,6,4,1460,650,1,992,43,82732,76940,65700,0,46336,0,0,0
o,0x00000000,1680090778.417792,172.16.1.2,46707,172.16.3.2,5201,48000,49269,6,64256,65728,6,6,4,1460,650,1,992,43,82732,76940,65700,0,47784,0,0,0
i,0x00000000,1680090778.437639,172.16.1.2,46707,172.16.3.2,5201,48000,49269,6,64256,65728,6,6,4,1460,650,1,992,43,82732,82732,65700,0,49232,0,0,0
o,0x00000000,1680090778.437662,172.16.1.2,46707,172.16.3.2,5201,48000,49269,6,64256,65728,6,6,4,1460,649,1,992,43,82732,79836,65700,0,46336,0,0,0
o,0x00000000,1680090778.437768,172.16.1.2,46707,172.16.3.2,5201,48000,49269,6,64256,65728,6,6,4,1460,649,1,992,43,82732,79836,65700,0,47784,0,0,0
i,0x00000000,1680090778.437857,172.16.1.2,46707,172.16.3.2,5201,48000,49269,6,64256,65728,6,6,4,1460,649,1,992,43,82732,79836,65700,0,49232,0,0,0
o,0x00000000,1680090778.437875,172.16.1.2,46707,172.16.3.2,5201,48000,49269,6,62848,65728,6,6,4,1460,648,1,992,42,82732,76940,65700,0,46336,0,0,0
o,0x00000000,1680090778.437977,172.16.1.2,46707,172.16.3.2,5201,48000,49269,6,62848,65728,6,6,4,1460,648,1,992,42,82732,76940,65700,0,47784,0,0,0
i,0x00000000,1680090778.463713,172.16.1.2,46707,172.16.3.2,5201,48000,49269,6,62848,65728,6,6,4,1460,648,1,992,42,82732,82732,65700,0,49232,0,0,0
o,0x00000000,1680090778.463882,172.16.1.2,46707,172.16.3.2,5201,48000,49269,6,62848,65728,6,6,4,1460,651,1,992,43,82732,79836,65700,0,46336,0,0,0
o,0x00000000,1680090778.464013,172.16.1.2,46707,172.16.3.2,5201,48000,49269,6,62848,65728,6,6,4,1460,651,1,992,43,82732,79836,65700,0,47784,0,0,0
i,0x00000000,1680090778.478795,172.16.1.2,46707,172.16.3.2,5201,48000,49269,6,62848,65728,6,6,4,1460,651,1,992,43,82732,82732,65700,0,49232,0,0,0
o,0x00000000,1680090778.478861,172.16.1.2,46707,172.16.3.2,5201,48000,49269,6,64256,65728,6,6,4,1460,658,1,992,44,82732,79836,65700,0,46336,0,0,0
o,0x00000000,1680090778.479145,172.16.1.2,46707,172.16.3.2,5201,48000,49269,6,64256,65728,6,6,4,1460,658,1,992,44,82732,79836,65700,0,47784,0,0,0
i,0x00000000,1680090778.479430,172.16.1.2,46707,172.16.3.2,5201,48000,49269,6,64256,65728,6,6,4,1460,658,1,992,44,82732,79836,65700,0,49232,0,0,0
o,0x00000000,1680090778.479480,172.16.1.2,46707,172.16.3.2,5201,48000,49269,6,64256,65728,6,6,4,1460,656,1,992,44,82732,76940,65700,0,46336,0,0,0
o,0x00000000,1680090778.479768,172.16.1.2,46707,172.16.3.2,5201,48000,49269,6,64256,65728,6,6,4,1460,656,1,992,44,82732,76940,65700,0,47784,0,0,0
i,0x00000000,1680090778.499328,172.16.1.2,46707,172.16.3.2,5201,48000,49269,6,64256,65728,6,6,4,1460,656,1,992,44,82732,82732,65700,0,49232,0,0,0
o,0x00000000,1680090778.499575,172.16.1.2,46707,172.16.3.2,5201,48000,49269,6,64256,65728,6,6,4,1460,650,1,992,44,82732,79836,65700,0,46336,0,0,0
o,0x00000000,1680090778.499851,172.16.1.2,46707,172.16.3.2,5201,48000,49269,6,64256,65728,6,6,4,1460,650,1,992,44,82732,79836,65700,0,47784,0,0,0
i,0x00000000,1680090778.500093,172.16.1.2,46707,172.16.3.2,5201,48000,49269,6,64256,65728,6,6,4,1460,650,1,992,44,82732,79836,65700,0,49232,0,0,0
o,0x00000000,1680090778.500133,172.16.1.2,46707,172.16.3.2,5201,48000,49269,6,62848,65728,6,6,4,1460,645,1,992,44,82732,76940,65700,0,46336,0,0,0
o,0x00000000,1680090778.500668,172.16.1.2,46707,172.16.3.2,5201,48000,49269,6,62848,65728,6,6,4,1460,645,1,992,44,82732,76940,65700,0,47784,0,0,0
i,0x00000000,1680090778.518820,172.16.1.2,46707,172.16.3.2,5201,48000,49269,6,62848,65728,6,6,4,1460,645,1,992,44,82732,82732,65700,0,49232,0,0,0
o,0x00000000,1680090778.518844,172.16.1.2,46707,172.16.3.2,5201,48000,49269,6,62848,65728,6,6,4,1460,645,1,992,43,82732,79836,65700,0,46336,0,0,0
o,0x00000000,1680090778.518943,172.16.1.2,46707,172.16.3.2,5201,48000,49269,6,62848,65728,6,6,4,1460,645,1,992,43,82732,79836,65700,0,47784,0,0,0
i,0x00000000,1680090778.538126,172.16.1.2,46707,172.16.3.2,5201,48000,49269,6,62848,65728,6,6,4,1460,645,1,992,43,82732,82732,65700,0,49232,0,0,0
o,0x00000000,1680090778.538149,172.16.1.2,46707,172.16.3.2,5201,48000,49269,6,64256,65728,6,6,4,1460,653,1,992,45,82732,79836,65700,0,46336,0,0,0
o,0x00000000,1680090778.538243,172.16.1.2,46707,172.16.3.2,5201,48000,49269,6,64256,65728,6,6,4,1460,653,1,992,45,82732,79836,65700,0,47784,0,0,0
i,0x00000000,1680090778.538514,172.16.1.2,46707,172.16.3.2,5201,48000,49269,6,64256,65728,6,6,4,1460,653,1,992,45,82732,79836,65700,0,49232,0,0,0
o,0x00000000,1680090778.538534,172.16.1.2,46707,172.16.3.2,5201,48000,49269,6,64256,65728,6,6,4,1460,652,1,992,44,82732,76940,65700,0,46336,0,0,0
o,0x00000000,1680090778.538634,172.16.1.2,46707,172.16.3.2,5201,48000,49269,6,64256,65728,6,6,4,1460,652,1,992,44,82732,76940,65700,0,47784,0,0,0
i,0x00000000,1680090778.557615,172.16.1.2,46707,172.16.3.2,5201,48000,49269,6,64256,65728,6,6,4,1460,652,1,992,44,82732,82732,65700,0,49232,0,0,0
o,0x00000000,1680090778.557669,172.16.1.2,46707,172.16.3.2,5201,48000,49269,6,64256,65728,6,6,4,1460,647,1,992,44,82732,79836,65700,0,46336,0,0,0
o,0x00000000,1680090778.557829,172.16.1.2,46707,172.16.3.2,5201,48000,49269,6,64256,65728,6,6,4,1460,647,1,992,44,82732,79836,65700,0,47784,0,0,0
i,0x00000000,1680090778.558538,172.16.1.2,46707,172.16.3.2,5201,48000,49269,6,64256,65728,6,6,4,1460,647,1,992,44,82732,79836,65700,0,49232,0,0,0
o,0x00000000,1680090778.558587,172.16.1.2,46707,172.16.3.2,5201,48000,49269,6,62848,65728,6,6,4,1460,643,1,992,44,82732,76940,65700,0,46336,0,0,0
o,0x00000000,1680090778.558730,172.16.1.2,46707,172.16.3.2,5201,48000,49269,6,62848,65728,6,6,4,1460,643,1,992,44,82732,76940,65700,0,47784,0,0,0
i,0x00000000,1680090778.576607,172.16.1.2,46707,172.16.3.2,5201,48000,49269,6,62848,65728,6,6,4,1460,643,1,992,44,82732,82732,65700,0,49232,0,0,0
o,0x00000000,1680090778.576628,172.16.1.2,46707,172.16.3.2,5201,48000,49269,6,62848,65728,6,6,4,1460,639,1,992,44,82732,79836,65700,0,46336,0,0,0
o,0x00000000,1680090778.576727,172.16.1.2,46707,172.16.3.2,5201,48000,49269,6,62848,65728,6,6,4,1460,639,1,992,44,82732,79836,65700,0,47784,0,0,0
i,0x00000000,1680090778.599832,172.16.1.2,46707,172.16.3.2,5201,48000,49269,6,62848,65728,6,6,4,1460,639,1,992,44,82732,82732,65700,0,49232,0,0,0
o,0x00000000,1680090778.599926,172.16.1.2,46707,172.16.3.2,5201,48000,49269,6,64256,65728,6,6,4,1460,644,1,992,44,82732,79836,65700,0,46336,0,0,0
o,0x00000000,1680090778.600289,172.16.1.2,46707,172.16.3.2,5201,48000,49269,6,64256,65728,6,6,4,1460,644,1,992,44,82732,79836,65700,0,47784,0,0,0
i,0x00000000,1680090778.600629,172.16.1.2,46707,172.16.3.2,5201,48000,49269,6,64256,65728,6,6,4,1460,644,1,992,44,82732,79836,65700,0,49232,0,0,0
o,0x00000000,1680090778.600689,172.16.1.2,46707,172.16.3.2,5201,48000,49269,6,64256,65728,6,6,4,1460,640,1,992,44,82732,76940,65700,0,46336,0,0,0
o,0x00000000,1680090778.601732,172.16.1.2,46707,172.16.3.2,5201,48000,49269,6,64256,65728,6,6,4,1460,640,1,992,44,82732,76940,65700,0,47784,0,0,0
i,0x00000000,1680090778.618614,172.16.1.2,46707,172.16.3.2,5201,48000,49269,6,64256,65728,6,6,4,1460,640,1,992,44,82732,82732,65700,0,49232,0,0,0
o,0x00000000,1680090778.618640,172.16.1.2,46707,172.16.3.2,5201,48000,49269,6,64256,65728,6,6,4,1460,636,1,992,44,82732,79836,65700,0,46336,0,0,0
o,0x00000000,1680090778.618759,172.16.1.2,46707,172.16.3.2,5201,48000,49269,6,64256,65728,6,6,4,1460,636,1,992,44,82732,79836,65700,0,47784,0,0,0
i,0x00000000,1680090778.618866,172.16.1.2,46707,172.16.3.2,5201,48000,49269,6,64256,65728,6,6,4,1460,636,1,992,44,82732,79836,65700,0,49232,0,0,0
o,0x00000000,1680090778.618887,172.16.1.2,46707,172.16.3.2,5201,48000,49269,6,62848,65728,6,6,4,1460,633,1,992,44,82732,76940,65700,0,46336,0,0,0
o,0x00000000,1680090778.618996,172.16.1.2,46707,172.16.3.2,5201,48000,49269,6,62848,65728,6,6,4,1460,633,1,992,44,82732,76940,65700,0,47784,0,0,0
i,0x00000000,1680090778.639103,172.16.1.2,46707,172.16.3.2,5201,48000,49269,6,62848,65728,6,6,4,1460,633,1,992,44,82732,82732,65700,0,49232,0,0,0
o,0x00000000,1680090778.639225,172.16.1.2,46707,172.16.3.2,5201,48000,49269,6,62848,65728,6,6,4,1460,630,1,992,43,82732,79836,65700,0,46336,0,0,0
o,0x00000000,1680090778.639379,172.16.1.2,46707,172.16.3.2,5201,48000,49269,6,62848,65728,6,6,4,1460,630,1,992,43,82732,79836,65700,0,47784,0,0,0
i,0x00000000,1680090778.657273,172.16.1.2,46707,172.16.3.2,5201,48000,49269,6,62848,65728,6,6,4,1460,630,1,992,43,82732,82732,65700,0,49232,0,0,0
o,0x00000000,1680090778.657327,172.16.1.2,46707,172.16.3.2,5201,48000,49269,6,64256,65728,6,6,4,1460,636,1,992,44,82732,79836,65700,0,46336,0,0,0
o,0x00000000,1680090778.657437,172.16.1.2,46707,172.16.3.2,5201,48000,49269,6,64256,65728,6,6,4,1460,636,1,992,44,82732,79836,65700,0,47784,0,0,0
i,0x00000000,1680090778.657713,172.16.1.2,46707,172.16.3.2,5201,48000,49269,6,64256,65728,6,6,4,1460,636,1,992,44,82732,79836,65700,0,49232,0,0,0
o,0x00000000,1680090778.657740,172.16.1.2,46707,172.16.3.2,5201,48000,49269,6,64256,65728,6,6,4,1460,629,1,992,44,82732,76940,65700,0,46336,0,0,0
o,0x00000000,1680090778.657859,172.16.1.2,46707,172.16.3.2,5201,48000,49269,6,64256,65728,6,6,4,1460,629,1,992,44,82732,76940,65700,0,47784,0,0,0
i,0x00000000,1680090778.678215,172.16.1.2,46707,172.16.3.2,5201,48000,49269,6,64256,65728,6,6,4,1460,629,1,992,44,82732,82732,65700,0,49232,0,0,0
o,0x00000000,1680090778.678245,172.16.1.2,46707,172.16.3.2,5201,48000,49269,6,64256,65728,6,6,4,1460,631,1,992,44,82732,79836,65700,0,46336,0,0,0
o,0x00000000,1680090778.678357,172.16.1.2,46707,172.16.3.2,5201,48000,49269,6,64256,65728,6,6,4,1460,631,1,992,44,82732,79836,65700,0,47784,0,0,0
i,0x00000000,1680090778.678456,172.16.1.2,46707,172.16.3.2,5201,48000,49269,6,64256,65728,6,6,4,1460,631,1,992,44,82732,79836,65700,0,49232,0,0,0
o,0x00000000,1680090778.678488,172.16.1.2,46707,172.16.3.2,5201,48000,49269,6,62848,65728,6,6,4,1460,633,1,992,43,82732,76940,65700,0,46336,0,0,0
o,0x00000000,1680090778.678619,172.16.1.2,46707,172.16.3.2,5201,48000,49269,6,62848,65728,6,6,4,1460,633,1,992,43,82732,76940,65700,0,47784,0,0,0
i,0x00000000,1680090778.697187,172.16.1.2,46707,172.16.3.2,5201,48000,49269,6,62848,65728,6,6,4,1460,633,1,992,43,82732,82732,65700,0,49232,0,0,0
o,0x00000000,1680090778.697284,172.16.1.2,46707,172.16.3.2,5201,48000,49269,6,62848,65728,6,6,4,1460,630,1,992,43,82732,79836,65700,0,46336,0,0,0
o,0x00000000,1680090778.697382,172.16.1.2,46707,172.16.3.2,5201,48000,49269,6,62848,65728,6,6,4,1460,630,1,992,43,82732,79836,65700,0,47784,0,0,0
i,0x00000000,1680090778.717040,172.16.1.2,46707,172.16.3.2,5201,48000,49269,6,62848,65728,6,6,4,1460,630,1,992,43,82732,82732,65700,0,49232,0,0,0
o,0x00000000,1680090778.717141,172.16.1.2,46707,172.16.3.2,5201,48000,49269,6,64256,65728,6,6,4,1460,636,1,992,44,82732,79836,65700,0,46336,0,0,0
o,0x00000000,1680090778.717239,172.16.1.2,46707,172.16.3.2,5201,48000,49269,6,64256,65728,6,6,4,1460,636,1,992,44,82732,79836,65700,0,47784,0,0,0
i,0x00000000,1680090778.717331,172.16.1.2,46707,172.16.3.2,5201,48000,49269,6,64256,65728,6,6,4,1460,636,1,992,44,82732,79836,65700,0,49232,0,0,0
o,0x00000000,1680090778.717348,172.16.1.2,46707,172.16.3.2,5201,48000,49269,6,64256,65728,6,6,4,1460,637,1,992,43,82732,76940,65700,0,46336,0,0,0
o,0x00000000,1680090778.717437,172.16.1.2,46707,172.16.3.2,5201,48000,49269,6,64256,65728,6,6,4,1460,637,1,992,43,82732,76940,65700,0,47784,0,0,0
i,0x00000000,1680090778.736619,172.16.1.2,46707,172.16.3.2,5201,48000,49269,6,64256,65728,6,6,4,1460,637,1,992,43,82732,82732,65700,0,49232,0,0,0
o,0x00000000,1680090778.736642,172.16.1.2,46707,172.16.3.2,5201,48000,49269,6,64256,65728,6,6,4,1460,638,1,992,43,82732,79836,65700,0,46336,0,0,0
o,0x00000000,1680090778.736778,172.16.1.2,46707,172.16.3.2,5201,48000,49269,6,64256,65728,6,6,4,1460,638,1,992,43,82732,79836,65700,0,47784,0,0,0
i,0x00000000,1680090778.736877,172.16.1.2,46707,172.16.3.2,5201,48000,49269,6,64256,65728,6,6,4,1460,638,1,992,43,82732,79836,65700,0,49232,0,0,0
o,0x00000000,1680090778.736899,172.16.1.2,46707,172.16.3.2,5201,48000,49269,6,62848,65728,6,6,4,1460,639,1,992,42,82732,76940,65700,0,46336,0,0,0
o,0x00000000,1680090778.737002,172.16.1.2,46707,172.16.3.2,5201,48000,49269,6,62848,65728,6,6,4,1460,639,1,992,42,82732,76940,65700,0,47784,0,0,0
i,0x00000000,1680090778.757911,172.16.1.2,46707,172.16.3.2,5201,48000,49269,6,62848,65728,6,6,4,1460,639,1,992,42,82732,82732,65700,0,49232,0,0,0
o,0x00000000,1680090778.758037,172.16.1.2,46707,172.16.3.2,5201,48000,49269,6,62848,65728,6,6,4,1460,640,1,992,42,82732,79836,65700,0,46336,0,0,0
o,0x00000000,1680090778.758159,172.16.1.2,46707,172.16.3.2,5201,48000,49269,6,62848,65728,6,6,4,1460,640,1,992,42,82732,79836,65700,0,47784,0,0,0
i,0x00000000,1680090778.778164,172.16.1.2,46707,172.16.3.2,5201,48000,49269,6,62848,65728,6,6,4,1460,640,1,992,42,82732,82732,65700,0,49232,0,0,0
o,0x00000000,1680090778.778188,172.16.1.2,46707,172.16.3.2,5201,48000,49269,6,64256,65728,6,6,4,1460,648,1,992,44,82732,79836,65700,0,46336,0,0,0
o,0x00000000,1680090778.778292,172.16.1.2,46707,172.16.3.2,5201,48000,49269,6,64256,65728,6,6,4,1460,648,1,992,44,82732,79836,65700,0,47784,0,0,0
i,0x00000000,1680090778.778380,172.16.1.2,46707,172.16.3.2,5201,48000,49269,6,64256,65728,6,6,4,1460,648,1,992,44,82732,79836,65700,0,49232,0,0,0
o,0x00000000,1680090778.778398,172.16.1.2,46707,172.16.3.2,5201,48000,49269,6,64256,65728,6,6,4,1460,647,1,992,43,82732,76940,65700,0,46336,0,0,0
o,0x00000000,1680090778.778491,172.16.1.2,46707,172.16.3.2,5201,48000,49269,6,64256,65728,6,6,4,1460,647,1,992,43,82732,76940,65700,0,47784,0,0,0
i,0x00000000,1680090778.797379,172.16.1.2,46707,172.16.3.2,5201,48000,49269,6,64256,65728,6,6,4,1460,647,1,992,43,82732,82732,65700,0,49232,0,0,0
o,0x00000000,1680090778.797400,172.16.1.2,46707,172.16.3.2,5201,48000,49269,6,64256,65728,6,6,4,1460,647,1,992,42,82732,79836,65700,0,46336,0,0,0
o,0x00000000,1680090778.797514,172.16.1.2,46707,172.16.3.2,5201,48000,49269,6,64256,65728,6,6,4,1460,647,1,992,42,82732,79836,65700,0,47784,0,0,0
i,0x00000000,1680090778.797608,172.16.1.2,46707,172.16.3.2,5201,48000,49269,6,64256,65728,6,6,4,1460,647,1,992,42,82732,79836,65700,0,49232,0,0,0
o,0x00000000,1680090778.797625,172.16.1.2,46707,172.16.3.2,5201,48000,49269,6,62848,65728,6,6,4,1460,647,1,992,42,82732,76940,65700,0,46336,0,0,0
o,0x00000000,1680090778.797714,172.16.1.2,46707,172.16.3.2,5201,48000,49269,6,62848,65728,6,6,4,1460,647,1,992,42,82732,76940,65700,0,47784,0,0,0
i,0x00000000,1680090778.820453,172.16.1.2,46707,172.16.3.2,5201,48000,49269,6,62848,65728,6,6,4,1460,647,1,992,42,82732,82732,65700,0,49232,0,0,0
o,0x00000000,1680090778.820568,172.16.1.2,46707,172.16.3.2,5201,48000,49269,6,62848,65728,6,6,4,1460,647,1,992,41,82732,79836,65700,0,46336,0,0,0
o,0x00000000,1680090778.820694,172.16.1.2,46707,172.16.3.2,5201,48000,49269,6,62848,65728,6,6,4,1460,647,1,992,41,82732,79836,65700,0,47784,0,0,0
i,0x00000000,1680090778.838296,172.16.1.2,46707,172.16.3.2,5201,48000,49269,6,62848,65728,6,6,4,1460,647,1,992,41,82732,82732,65700,0,49232,0,0,0
o,0x00000000,1680090778.838394,172.16.1.2,46707,172.16.3.2,5201,48000,49269,6,64256,65728,6,6,4,1460,655,1,992,43,82732,79836,65700,0,46336,0,0,0
o,0x00000000,1680090778.838492,172.16.1.2,46707,172.16.3.2,5201,48000,49269,6,64256,65728,6,6,4,1460,655,1,992,43,82732,79836,65700,0,47784,0,0,0
i,0x00000000,1680090778.838601,172.16.1.2,46707,172.16.3.2,5201,48000,49269,6,64256,65728,6,6,4,1460,655,1,992,43,82732,79836,65700,0,49232,0,0,0
o,0x00000000,1680090778.838631,172.16.1.2,46707,172.16.3.2,5201,48000,49269,6,64256,65728,6,6,4,1460,654,1,992,43,82732,76940,65700,0,46336,0,0,0
o,0x00000000,1680090778.838858,172.16.1.2,46707,172.16.3.2,5201,48000,49269,6,64256,65728,6,6,4,1460,654,1,992,43,82732,76940,65700,0,47784,0,0,0
i,0x00000000,1680090778.857956,172.16.1.2,46707,172.16.3.2,5201,48000,49269,6,64256,65728,6,6,4,1460,654,1,992,43,82732,82732,65700,0,49232,0,0,0
o,0x00000000,1680090778.858050,172.16.1.2,46707,172.16.3.2,5201,48000,49269,6,64256,65728,6,6,4,1460,653,1,992,42,82732,79836,65700,0,46336,0,0,0
o,0x00000000,1680090778.858165,172.16.1.2,46707,172.16.3.2,5201,48000,49269,6,64256,65728,6,6,4,1460,653,1,992,42,82732,79836,65700,0,47784,0,0,0
i,0x00000000,1680090778.858276,172.16.1.2,46707,172.16.3.2,5201,48000,49269,6,64256,65728,6,6,4,1460,653,1,992,42,82732,79836,65700,0,49232,0,0,0
o,0x00000000,1680090778.858295,172.16.1.2,46707,172.16.3.2,5201,48000,49269,6,62848,65728,6,6,4,1460,652,1,992,42,82732,76940,65700,0,46336,0,0,0
o,0x00000000,1680090778.858418,172.16.1.2,46707,172.16.3.2,5201,48000,49269,6,62848,65728,6,6,4,1460,652,1,992,42,82732,76940,65700,0,47784,0,0,0
i,0x00000000,1680090778.877858,172.16.1.2,46707,172.16.3.2,5201,48000,49269,6,62848,65728,6,6,4,1460,652,1,992,42,82732,82732,65700,0,49232,0,0,0
o,0x00000000,1680090778.877880,172.16.1.2,46707,172.16.3.2,5201,48000,49269,6,62848,65728,6,6,4,1460,651,1,992,42,82732,79836,65700,0,46336,0,0,0
o,0x00000000,1680090778.878132,172.16.1.2,46707,172.16.3.2,5201,48000,49269,6,62848,65728,6,6,4,1460,651,1,992,42,82732,79836,65700,0,47784,0,0,0
i,0x00000000,1680090778.896762,172.16.1.2,46707,172.16.3.2,5201,48000,49269,6,62848,65728,6,6,4,1460,651,1,992,42,82732,82732,65700,0,49232,0,0,0
o,0x00000000,1680090778.896856,172.16.1.2,46707,172.16.3.2,5201,48000,49269,6,64256,65728,6,6,4,1460,658,1,992,43,82732,79836,65700,0,46336,0,0,0
o,0x00000000,1680090778.897076,172.16.1.2,46707,172.16.3.2,5201,48000,49269,6,64256,65728,6,6,4,1460,658,1,992,43,82732,79836,65700,0,47784,0,0,0
i,0x00000000,1680090778.897260,172.16.1.2,46707,172.16.3.2,5201,48000,49269,6,64256,65728,6,6,4,1460,658,1,992,43,82732,79836,65700,0,49232,0,0,0
o,0x00000000,1680090778.897325,172.16.1.2,46707,172.16.3.2,5201,48000,49269,6,64256,65728,6,6,4,1460,656,1,992,43,82732,76940,65700,0,46336,0,0,0
o,0x00000000,1680090778.897471,172.16.1.2,46707,172.16.3.2,5201,48000,49269,6,64256,65728,6,6,4,1460,656,1,992,43,82732,76940,65700,0,47784,0,0,0
i,0x00000000,1680090778.917926,172.16.1.2,46707,172.16.3.2,5201,48000,49269,6,64256,65728,6,6,4,1460,656,1,992,43,82732,82732,65700,0,49232,0,0,0
