enable_time_secs=1680088108	enable_time_usecs=346410	siftrver=1.2.4	hz=100	tcp_rtt_scale=32	sysname=FreeBSD	sysver=1400084	ipmode=4
o,0x00000000,1680088108.346728,10.0.2.15,22,10.0.2.2,58211,1073725440,17202,1026,65535,65700,0,0,4,1460,1,0,4,24,33580,68,65700,0,0,0,0,0
o,0x00000000,1680088108.347013,10.0.2.15,22,10.0.2.2,58211,1073725440,17202,1026,65535,65700,0,0,4,1460,1,0,4,24,33580,244,65700,0,68,0,0,0
i,0x00000000,1680088108.347662,10.0.2.15,22,10.0.2.2,58211,1073725440,17202,1026,65535,65700,0,0,4,1460,1,0,4,24,33580,244,65700,0,244,0,0,0
i,0x00000000,1680088108.347694,10.0.2.15,22,10.0.2.2,58211,1073725440,17270,1026,65535,65700,0,0,4,1460,1,0,4,24,33580,176,65700,0,176,0,0,0
i,0x00000000,1680088108.348379,10.0.2.15,22,10.0.2.2,58211,1073725440,17446,1026,65535,65700,0,0,4,1460,1,0,4,24,33580,0,65700,0,0,0,0,0
i,0x00000000,1680088108.348660,10.0.2.15,22,10.0.2.2,58211,1073725440,17446,1026,65535,65700,0,0,4,1460,1,0,4,24,33580,0,65700,36,0,0,0,0
o,0x00000000,1680088108.348678,10.0.2.15,22,10.0.2.2,58211,1073725440,17446,1026,65535,65700,0,0,4,1460,1,0,5,24,33580,0,65700,96,0,0,0,0
i,0x00000000,1680088108.348811,10.0.2.15,22,10.0.2.2,58211,1073725440,17446,1026,65535,65700,0,0,4,1460,1,0,4,24,33580,0,65700,96,0,0,0,0
o,0x00000000,1680088108.348829,10.0.2.15,22,10.0.2.2,58211,1073725440,17446,1026,65535,65604,0,0,5,1460,1,0,7,24,33580,0,65700,96,0,0,0,0
o,0x00000000,1680088108.349559,10.0.2.15,22,10.0.2.2,58211,1073725440,17446,1026,65535,65604,0,0,8,1460,1,0,4,24,33580,0,65700,0,0,0,0,0
i,0x00000000,1680088108.350077,10.0.2.15,22,10.0.2.2,58211,1073725440,17446,1026,65535,65604,0,0,8,1460,1,0,67108884,24,33580,0,65700,0,1,0,0,0
i,0x00000000,1680088109.658056,10.0.2.15,22,10.0.2.2,58216,1073725440,14600,0,65535,65700,0,0,4,1460,1,0,0,27,33580,0,65700,0,0,0,0,0
o,0x00000000,1680088109.670066,10.0.2.15,22,10.0.2.2,58216,1073725440,14600,1026,65535,65700,0,0,4,1460,1,0,0,27,33580,38,65700,41,0,0,0,0
i,0x00000000,1680088109.670965,10.0.2.15,22,10.0.2.2,58216,1073725440,14600,1026,65535,65700,0,0,4,1460,1,0,0,27,33580,38,65700,0,38,0,0,0
i,0x00000000,1680088109.671957,10.0.2.15,22,10.0.2.2,58216,1073725440,14638,1026,65535,65700,0,0,4,1460,1,0,0,24,33580,0,65700,0,0,0,0,0
i,0x00000000,1680088109.671978,10.0.2.15,22,10.0.2.2,58216,1073725440,14638,1026,65535,65700,0,0,4,1460,1,0,0,24,33580,0,65700,1460,0,0,0,0
o,0x00000000,1680088109.672001,10.0.2.15,22,10.0.2.2,58216,1073725440,14638,1026,65535,65700,0,0,4,1460,1,0,1,24,33580,0,65700,1504,0,0,0,0
o,0x00000000,1680088109.673978,10.0.2.15,22,10.0.2.2,58216,1073725440,14638,1026,65535,65700,0,0,4,1460,1,0,0,24,33580,1056,65700,1504,0,0,0,0
i,0x00000000,1680088109.675300,10.0.2.15,22,10.0.2.2,58216,1073725440,14638,1026,65535,65700,0,0,4,1460,1,0,0,24,33580,1056,65700,0,1056,0,0,0
i,0x00000000,1680088109.676721,10.0.2.15,22,10.0.2.2,58216,1073725440,15694,1026,65535,65700,0,0,4,1460,1,0,0,24,33580,0,65700,0,0,0,0,0
o,0x00000000,1680088109.679749,10.0.2.15,22,10.0.2.2,58216,1073725440,15694,1026,65535,65700,0,0,4,1460,1,0,0,24,33580,484,65700,0,0,0,0,0
i,0x00000000,1680088109.681358,10.0.2.15,22,10.0.2.2,58216,1073725440,15694,1026,65535,65700,0,0,4,1460,1,0,0,24,33580,484,65700,0,484,0,0,0
i,0x00000000,1680088109.685632,10.0.2.15,22,10.0.2.2,58216,1073725440,16178,1026,65535,65700,0,0,4,1460,1,0,0,23,33580,0,65700,0,0,0,0,0
i,0x00000000,1680088109.691015,10.0.2.15,22,10.0.2.2,58216,1073725440,16178,1026,65535,65700,0,0,4,1460,1,0,0,23,33580,0,65700,0,0,0,0,0
o,0x00000000,1680088109.691043,10.0.2.15,22,10.0.2.2,58216,1073725440,16178,1026,65535,65700,0,0,4,1460,1,0,1,23,33580,0,65700,44,0,0,0,0
o,0x00000000,1680088109.691387,10.0.2.15,22,10.0.2.2,58216,1073725440,16178,1026,65535,65700,0,0,4,1460,1,0,0,23,33580,44,65700,0,0,0,0,0
i,0x00000000,1680088109.692501,10.0.2.15,22,10.0.2.2,58216,1073725440,16178,1026,65535,65700,0,0,4,1460,1,0,0,23,33580,44,65700,0,44,0,0,0
i,0x00000000,1680088109.692525,10.0.2.15,22,10.0.2.2,58216,1073725440,16222,1026,65535,65700,0,0,4,1460,1,0,0,23,33580,0,65700,0,0,0,0,0
o,0x00000000,1680088109.698228,10.0.2.15,22,10.0.2.2,58216,1073725440,16222,1026,65535,65700,0,0,4,1460,1,0,0,23,33580,68,65700,0,0,0,0,0
i,0x00000000,1680088109.699021,10.0.2.15,22,10.0.2.2,58216,1073725440,16222,1026,65535,65700,0,0,4,1460,1,0,0,23,33580,68,65700,0,68,0,0,0
i,0x00000000,1680088109.702025,10.0.2.15,22,10.0.2.2,58216,1073725440,16290,1026,65535,65700,0,0,4,1460,1,0,0,23,33580,0,65700,0,0,0,0,0
o,0x00000000,1680088109.708502,10.0.2.15,22,10.0.2.2,58216,1073725440,16290,1026,65535,65700,0,0,4,1460,1,0,0,23,33580,28,65700,0,0,0,0,0
i,0x00000000,1680088109.708972,10.0.2.15,22,10.0.2.2,58216,1073725440,16290,1026,65535,65700,0,0,4,1460,1,0,0,23,33580,28,65700,0,28,0,0,0
i,0x00000000,1680088109.709607,10.0.2.15,22,10.0.2.2,58216,1073725440,16318,1026,65535,65700,0,0,4,1460,1,0,0,23,33580,0,65700,0,0,0,0,0
o,0x00000000,1680088109.710638,10.0.2.15,22,10.0.2.2,58216,1073725440,16318,1026,65535,65700,0,0,4,1460,1,0,0,23,33580,768,65700,112,0,0,0,0
i,0x00000000,1680088109.712290,10.0.2.15,22,10.0.2.2,58216,1073725440,16318,1026,65535,65700,0,0,4,1460,1,0,0,23,33580,768,65700,0,768,0,0,0
o,0x00000000,1680088109.712313,10.0.2.15,22,10.0.2.2,58216,1073725440,17086,1026,65535,65700,0,0,4,1460,1,0,0,24,33580,44,65700,0,0,0,0,0
i,0x00000000,1680088109.713013,10.0.2.15,22,10.0.2.2,58216,1073725440,17086,1026,65535,65700,0,0,4,1460,1,0,0,24,33580,44,65700,0,44,0,0,0
i,0x00000000,1680088109.715361,10.0.2.15,22,10.0.2.2,58216,1073725440,17130,1026,65535,65700,0,0,4,1460,1,0,0,24,33580,0,65700,0,0,0,0,0
o,0x00000000,1680088109.716365,10.0.2.15,22,10.0.2.2,58216,1073725440,17130,1026,65535,65700,0,0,4,1460,1,0,4,24,33580,72,65700,0,0,0,0,0
i,0x00000000,1680088109.716923,10.0.2.15,22,10.0.2.2,58216,1073725440,17130,1026,65535,65700,0,0,4,1460,1,0,4,24,33580,72,65700,0,72,0,0,0
o,0x00000000,1680088109.727405,172.16.1.2,53214,172.16.3.2,5201,1073725440,1073725440,2,0,0,0,0,2,536,0,1,672,100,32768,0,65536,0,0,0,0,0
i,0x00000000,1680088109.780910,172.16.1.2,53214,172.16.3.2,5201,1073725440,1073725440,2,0,0,0,0,2,536,0,1,672,100,32768,0,65536,0,1,0,0,0
o,0x00000000,1680088109.781065,172.16.1.2,53214,172.16.3.2,5201,1073725440,14480,2,65535,65700,6,6,4,1460,633,1,993,66,33580,0,65700,0,0,0,0,0
o,0x00000000,1680088109.781535,172.16.1.2,53214,172.16.3.2,5201,1073725440,14480,2,65535,65700,6,6,4,1460,633,1,996,66,33580,37,65700,0,0,0,0,0
i,0x00000000,1680088109.837065,172.16.1.2,53214,172.16.3.2,5201,1073725440,14480,2,65535,65700,6,6,4,1460,633,1,996,66,33580,37,65700,0,37,0,0,0
o,0x00000000,1680088109.837968,172.16.1.2,53214,172.16.3.2,5201,1073725440,14517,1026,65728,65728,6,6,4,1460,574,1,996,72,33580,4,65700,0,0,0,0,0
o,0x00000000,1680088109.838451,172.16.1.2,53214,172.16.3.2,5201,1073725440,14517,1026,65728,65728,6,6,4,1460,574,1,996,72,33580,128,65700,0,4,0,0,0
i,0x00000000,1680088109.898159,172.16.1.2,53214,172.16.3.2,5201,1073725440,14517,1026,65728,65728,6,6,4,1460,574,1,996,72,33580,128,65700,0,128,0,0,0
i,0x00000000,1680088109.898930,172.16.1.2,53214,172.16.3.2,5201,1073725440,14645,1026,65600,65728,6,6,4,1460,527,1,996,74,33580,0,65700,0,0,0,0,0
o,0x00000000,1680088109.900181,172.16.1.2,65242,172.16.3.2,5201,1073725440,1073725440,2,0,0,0,0,2,536,0,1,672,100,32768,0,65536,0,0,0,0,0
o,0x00000000,1680088109.932869,172.16.1.2,53214,172.16.3.2,5201,1073725440,14645,1026,65728,65728,6,6,4,1460,527,1,997,74,33580,0,65700,0,0,0,0,0
i,0x00000000,1680088109.961952,172.16.1.2,65242,172.16.3.2,5201,1073725440,1073725440,2,0,0,0,0,2,536,0,1,672,100,32768,0,65536,0,1,0,0,0
o,0x00000000,1680088109.962084,172.16.1.2,65242,172.16.3.2,5201,1073725440,14480,2,65535,65700,6,6,4,1460,637,1,993,65,33580,0,65700,0,0,0,0,0
o,0x00000000,1680088109.962371,172.16.1.2,65242,172.16.3.2,5201,1073725440,14480,2,65535,65700,6,6,4,1460,637,1,992,65,33580,37,65700,0,0,0,0,0
i,0x00000000,1680088110.017655,172.16.1.2,53214,172.16.3.2,5201,1073725440,14645,1026,65728,65728,6,6,4,1460,527,1,996,74,33580,0,65700,0,0,0,0,0
i,0x00000000,1680088110.017673,172.16.1.2,53214,172.16.3.2,5201,1073725440,14645,1026,65728,65728,6,6,4,1460,527,1,996,74,33580,0,65700,1,0,0,0,0
o,0x00000000,1680088110.017692,172.16.1.2,53214,172.16.3.2,5201,1073725440,14645,1026,65728,65728,6,6,4,1460,527,1,997,74,33580,0,65700,2,0,0,0,0
o,0x00000000,1680088110.017961,172.16.1.2,65242,172.16.3.2,5201,1073725440,14480,6,65535,65700,6,6,4,1460,637,1,992,65,33580,33580,65700,0,37,0,0,0
o,0x00000000,1680088110.018059,172.16.1.2,65242,172.16.3.2,5201,1073725440,14480,6,65535,65700,6,6,4,1460,637,1,992,65,33580,33580,65700,0,1485,0,0,0
o,0x00000000,1680088110.018159,172.16.1.2,65242,172.16.3.2,5201,1073725440,14480,6,65535,65700,6,6,4,1460,637,1,992,65,33580,33580,65700,0,2933,0,0,0
o,0x00000000,1680088110.018246,172.16.1.2,65242,172.16.3.2,5201,1073725440,14480,6,65535,65700,6,6,4,1460,637,1,992,65,33580,33580,65700,0,4381,0,0,0
o,0x00000000,1680088110.018345,172.16.1.2,65242,172.16.3.2,5201,1073725440,14480,6,65535,65700,6,6,4,1460,637,1,992,65,33580,33580,65700,0,5829,0,0,0
o,0x00000000,1680088110.018444,172.16.1.2,65242,172.16.3.2,5201,1073725440,14480,6,65535,65700,6,6,4,1460,637,1,992,65,33580,33580,65700,0,7277,0,0,0
o,0x00000000,1680088110.018533,172.16.1.2,65242,172.16.3.2,5201,1073725440,14480,6,65535,65700,6,6,4,1460,637,1,992,65,33580,33580,65700,0,8725,0,0,0
o,0x00000000,1680088110.018657,172.16.1.2,65242,172.16.3.2,5201,1073725440,14480,6,65535,65700,6,6,4,1460,637,1,992,65,33580,33580,65700,0,10173,0,0,0
o,0x00000000,1680088110.018746,172.16.1.2,65242,172.16.3.2,5201,1073725440,14480,6,65535,65700,6,6,4,1460,637,1,992,65,33580,33580,65700,0,11621,0,0,0
i,0x00000000,1680088110.068277,172.16.1.2,65242,172.16.3.2,5201,1073725440,14480,6,65535,65700,6,6,4,1460,637,1,992,65,33580,33580,65700,0,13069,0,0,0
o,0x00000000,1680088110.068394,172.16.1.2,65242,172.16.3.2,5201,1073725440,14517,6,65728,65728,6,6,4,1460,598,1,992,67,33580,33543,65700,0,13032,0,0,0
i,0x00000000,1680088110.107057,172.16.1.2,65242,172.16.3.2,5201,1073725440,14517,6,65728,65728,6,6,4,1460,598,1,992,67,33580,33543,65700,0,14480,0,0,0
o,0x00000000,1680088110.107223,172.16.1.2,65242,172.16.3.2,5201,1073725440,17413,6,64256,65728,6,6,4,1460,560,1,992,69,33580,30647,65700,0,11584,0,0,0
o,0x00000000,1680088110.107456,172.16.1.2,65242,172.16.3.2,5201,1073725440,17413,6,64256,65728,6,6,4,1460,560,1,992,69,33580,30647,65700,0,13032,0,0,0
o,0x00000000,1680088110.107587,172.16.1.2,65242,172.16.3.2,5201,1073725440,17413,6,64256,65728,6,6,4,1460,560,1,992,69,41772,30647,65700,0,14480,0,0,0
o,0x00000000,1680088110.107714,172.16.1.2,65242,172.16.3.2,5201,1073725440,17413,6,64256,65728,6,6,4,1460,560,1,992,69,41772,30647,65700,0,15928,0,0,0
i,0x00000000,1680088110.107895,172.16.1.2,65242,172.16.3.2,5201,1073725440,17413,6,64256,65728,6,6,4,1460,560,1,992,69,41772,30647,65700,0,17376,0,0,0
o,0x00000000,1680088110.107948,172.16.1.2,65242,172.16.3.2,5201,1073725440,20309,6,64256,65728,6,6,4,1460,526,1,992,68,41772,27751,65700,0,14480,0,0,0
o,0x00000000,1680088110.108122,172.16.1.2,65242,172.16.3.2,5201,1073725440,20309,6,64256,65728,6,6,4,1460,526,1,992,68,41772,27751,65700,0,15928,0,0,0
o,0x00000000,1680088110.108245,172.16.1.2,65242,172.16.3.2,5201,1073725440,20309,6,64256,65728,6,6,4,1460,526,1,992,68,41772,27751,65700,0,17376,0,0,0
o,0x00000000,1680088110.108354,172.16.1.2,65242,172.16.3.2,5201,1073725440,20309,6,64256,65728,6,6,4,1460,526,1,992,68,41772,27751,65700,0,18824,0,0,0
i,0x00000000,1680088110.108487,172.16.1.2,65242,172.16.3.2,5201,1073725440,20309,6,64256,65728,6,6,4,1460,526,1,992,68,41772,27751,65700,0,20272,0,0,0
o,0x00000000,1680088110.108514,172.16.1.2,65242,172.16.3.2,5201,1073725440,23205,6,62848,65728,6,6,4,1460,497,1,992,67,41772,24855,65700,0,17376,0,0,0
o,0x00000000,1680088110.108619,172.16.1.2,65242,172.16.3.2,5201,1073725440,23205,6,62848,65728,6,6,4,1460,497,1,992,67,41772,24855,65700,0,18824,0,0,0
o,0x00000000,1680088110.108738,172.16.1.2,65242,172.16.3.2,5201,1073725440,23205,6,62848,65728,6,6,4,1460,497,1,992,67,41772,24855,65700,0,20272,0,0,0
o,0x00000000,1680088110.108855,172.16.1.2,65242,172.16.3.2,5201,1073725440,23205,6,62848,65728,6,6,4,1460,497,1,992,67,41772,24855,65700,0,21720,0,0,0
i,0x00000000,1680088110.108953,172.16.1.2,65242,172.16.3.2,5201,1073725440,23205,6,62848,65728,6,6,4,1460,497,1,992,67,41772,24855,65700,0,23168,0,0,0
o,0x00000000,1680088110.108973,172.16.1.2,65242,172.16.3.2,5201,1073725440,26101,6,62848,65728,6,6,4,1460,471,1,992,64,41772,21959,65700,0,20272,0,0,0
o,0x00000000,1680088110.109203,172.16.1.2,65242,172.16.3.2,5201,1073725440,26101,6,62848,65728,6,6,4,1460,471,1,992,64,49964,41772,65700,0,21720,0,0,0
o,0x00000000,1680088110.109293,172.16.1.2,65242,172.16.3.2,5201,1073725440,26101,6,62848,65728,6,6,4,1460,471,1,992,64,49964,41772,65700,0,23168,0,0,0
o,0x00000000,1680088110.109381,172.16.1.2,65242,172.16.3.2,5201,1073725440,26101,6,62848,65728,6,6,4,1460,471,1,992,64,49964,41772,65700,0,24616,0,0,0
i,0x00000000,1680088110.147395,172.16.1.2,65242,172.16.3.2,5201,1073725440,26101,6,62848,65728,6,6,4,1460,471,1,992,64,58156,58156,65700,0,26064,0,0,0
o,0x00000000,1680088110.147642,172.16.1.2,65242,172.16.3.2,5201,1073725440,28997,6,64256,65728,6,6,4,1460,465,1,992,58,58156,55260,65700,0,23168,0,0,0
o,0x00000000,1680088110.148068,172.16.1.2,65242,172.16.3.2,5201,1073725440,28997,6,64256,65728,6,6,4,1460,465,1,992,58,58156,55260,65700,0,24616,0,0,0
o,0x00000000,1680088110.148264,172.16.1.2,65242,172.16.3.2,5201,1073725440,28997,6,64256,65728,6,6,4,1460,465,1,992,58,58156,55260,65700,0,26064,0,0,0
o,0x00000000,1680088110.148502,172.16.1.2,65242,172.16.3.2,5201,1073725440,28997,6,64256,65728,6,6,4,1460,465,1,992,58,66348,55260,65700,0,27512,0,0,0
i,0x00000000,1680088110.177754,172.16.1.2,65242,172.16.3.2,5201,1073725440,28997,6,64256,65728,6,6,4,1460,465,1,992,58,66348,66348,65700,0,28960,0,0,0
o,0x00000000,1680088110.177845,172.16.1.2,65242,172.16.3.2,5201,1073725440,31893,6,64256,65728,6,6,4,1460,435,1,992,59,66348,63452,65700,0,26064,0,0,0
o,0x00000000,1680088110.178054,172.16.1.2,65242,172.16.3.2,5201,1073725440,31893,6,64256,65728,6,6,4,1460,435,1,992,59,66348,63452,65700,0,27512,0,0,0
o,0x00000000,1680088110.178241,172.16.1.2,65242,172.16.3.2,5201,1073725440,31893,6,64256,65728,6,6,4,1460,435,1,992,59,66348,63452,65700,0,28960,0,0,0
o,0x00000000,1680088110.178424,172.16.1.2,65242,172.16.3.2,5201,1073725440,31893,6,64256,65728,6,6,4,1460,435,1,992,59,66348,63452,65700,0,30408,0,0,0
i,0x00000000,1680088110.178667,172.16.1.2,65242,172.16.3.2,5201,1073725440,31893,6,64256,65728,6,6,4,1460,435,1,992,59,74540,63452,65700,0,31856,0,0,0
o,0x00000000,1680088110.178738,172.16.1.2,65242,172.16.3.2,5201,1073725440,34789,6,64256,65728,6,6,4,1460,409,1,992,58,74540,60556,65700,0,28960,0,0,0
o,0x00000000,1680088110.178936,172.16.1.2,65242,172.16.3.2,5201,1073725440,34789,6,64256,65728,6,6,4,1460,409,1,992,58,74540,60556,65700,0,30408,0,0,0
o,0x00000000,1680088110.179089,172.16.1.2,65242,172.16.3.2,5201,1073725440,34789,6,64256,65728,6,6,4,1460,409,1,992,58,74540,60556,65700,0,31856,0,0,0
o,0x00000000,1680088110.179184,172.16.1.2,65242,172.16.3.2,5201,1073725440,34789,6,64256,65728,6,6,4,1460,409,1,992,58,74540,60556,65700,0,33304,0,0,0
i,0x00000000,1680088110.199594,172.16.1.2,65242,172.16.3.2,5201,1073725440,34789,6,64256,65728,6,6,4,1460,409,1,992,58,74540,74540,65700,0,34752,0,0,0
o,0x00000000,1680088110.199629,172.16.1.2,65242,172.16.3.2,5201,1073725440,37685,6,64256,65728,6,6,4,1460,394,1,992,55,74540,71644,65700,0,31856,0,0,0
o,0x00000000,1680088110.199743,172.16.1.2,65242,172.16.3.2,5201,1073725440,37685,6,64256,65728,6,6,4,1460,394,1,992,55,74540,71644,65700,0,33304,0,0,0
o,0x00000000,1680088110.199845,172.16.1.2,65242,172.16.3.2,5201,1073725440,37685,6,64256,65728,6,6,4,1460,394,1,992,55,82732,71644,65700,0,34752,0,0,0
o,0x00000000,1680088110.199972,172.16.1.2,65242,172.16.3.2,5201,1073725440,37685,6,64256,65728,6,6,4,1460,394,1,992,55,82732,71644,65700,0,36200,0,0,0
i,0x00000000,1680088110.200097,172.16.1.2,65242,172.16.3.2,5201,1073725440,37685,6,64256,65728,6,6,4,1460,394,1,992,55,82732,71644,65700,0,37648,0,0,0
o,0x00000000,1680088110.200155,172.16.1.2,65242,172.16.3.2,5201,1073725440,40581,6,62848,65728,6,6,4,1460,381,1,992,52,82732,68748,65700,0,34752,0,0,0
o,0x00000000,1680088110.200399,172.16.1.2,65242,172.16.3.2,5201,1073725440,40581,6,62848,65728,6,6,4,1460,381,1,992,52,82732,68748,65700,0,36200,0,0,0
o,0x00000000,1680088110.200544,172.16.1.2,65242,172.16.3.2,5201,1073725440,40581,6,62848,65728,6,6,4,1460,381,1,992,52,82732,68748,65700,0,37648,0,0,0
o,0x00000000,1680088110.200658,172.16.1.2,65242,172.16.3.2,5201,1073725440,40581,6,62848,65728,6,6,4,1460,381,1,992,52,82732,68748,65700,0,39096,0,0,0
i,0x00000000,1680088110.217955,172.16.1.2,65242,172.16.3.2,5201,1073725440,40581,6,62848,65728,6,6,4,1460,381,1,992,52,82732,82732,65700,0,40544,0,0,0
o,0x00000000,1680088110.217982,172.16.1.2,65242,172.16.3.2,5201,1073725440,43477,6,62848,65728,6,6,4,1460,378,1,992,48,82732,79836,65700,0,37648,0,0,0
o,0x00000000,1680088110.218083,172.16.1.2,65242,172.16.3.2,5201,1073725440,43477,6,62848,65728,6,6,4,1460,378,1,992,48,82732,79836,65700,0,39096,0,0,0
o,0x00000000,1680088110.218174,172.16.1.2,65242,172.16.3.2,5201,1073725440,43477,6,62848,65728,6,6,4,1460,378,1,992,48,82732,79836,65700,0,40544,0,0,0
o,0x00000000,1680088110.218264,172.16.1.2,65242,172.16.3.2,5201,1073725440,43477,6,62848,65728,6,6,4,1460,378,1,992,48,82732,79836,65700,0,41992,0,0,0
i,0x00000000,1680088110.257163,172.16.1.2,65242,172.16.3.2,5201,1073725440,43477,6,62848,65728,6,6,4,1460,378,1,992,48,82732,82732,65700,0,43440,0,0,0
o,0x00000000,1680088110.257353,172.16.1.2,65242,172.16.3.2,5201,1073725440,46373,6,64256,65728,6,6,4,1460,391,1,992,47,82732,79836,65700,0,40544,0,0,0
o,0x00000000,1680088110.257949,172.16.1.2,65242,172.16.3.2,5201,1073725440,46373,6,64256,65728,6,6,4,1460,391,1,992,47,82732,79836,65700,0,41992,0,0,0
o,0x00000000,1680088110.258175,172.16.1.2,65242,172.16.3.2,5201,1073725440,46373,6,64256,65728,6,6,4,1460,391,1,992,47,82732,79836,65700,0,43440,0,0,0
o,0x00000000,1680088110.258374,172.16.1.2,65242,172.16.3.2,5201,1073725440,46373,6,64256,65728,6,6,4,1460,391,1,992,47,82732,79836,65700,0,44888,0,0,0
i,0x00000000,1680088110.258552,172.16.1.2,65242,172.16.3.2,5201,1073725440,46373,6,64256,65728,6,6,4,1460,391,1,992,47,82732,79836,65700,0,46336,0,0,0
o,0x00000000,1680088110.258647,172.16.1.2,65242,172.16.3.2,5201,1073725440,49269,6,61376,65728,6,6,4,1460,403,1,992,47,82732,76940,65700,0,43440,0,0,0
o,0x00000000,1680088110.258818,172.16.1.2,65242,172.16.3.2,5201,1073725440,49269,6,61376,65728,6,6,4,1460,403,1,992,47,82732,76940,65700,0,44888,0,0,0
o,0x00000000,1680088110.258985,172.16.1.2,65242,172.16.3.2,5201,1073725440,49269,6,61376,65728,6,6,4,1460,403,1,992,47,82732,76940,65700,0,46336,0,0,0
o,0x00000000,1680088110.259139,172.16.1.2,65242,172.16.3.2,5201,1073725440,49269,6,61376,65728,6,6,4,1460,403,1,992,47,82732,76940,65700,0,47784,0,0,0
i,0x00000000,1680088110.259279,172.16.1.2,65242,172.16.3.2,5201,1073725440,49269,6,61376,65728,6,6,4,1460,403,1,992,47,82732,76940,65700,0,49232,0,0,0
o,0x00000000,1680088110.259339,172.16.1.2,65242,172.16.3.2,5201,1073725440,52165,6,64256,65728,6,6,4,1460,413,1,992,46,82732,74044,65700,0,46336,0,0,0
o,0x00000000,1680088110.259471,172.16.1.2,65242,172.16.3.2,5201,1073725440,52165,6,64256,65728,6,6,4,1460,413,1,992,46,82732,74044,65700,0,47784,0,0,0
o,0x00000000,1680088110.259615,172.16.1.2,65242,172.16.3.2,5201,1073725440,52165,6,64256,65728,6,6,4,1460,413,1,992,46,82732,74044,65700,0,49232,0,0,0
o,0x00000000,1680088110.259737,172.16.1.2,65242,172.16.3.2,5201,1073725440,52165,6,64256,65728,6,6,4,1460,413,1,992,46,82732,74044,65700,0,50680,0,0,0
i,0x00000000,1680088110.277686,172.16.1.2,65242,172.16.3.2,5201,1073725440,52165,6,64256,65728,6,6,4,1460,413,1,992,46,82732,82732,65700,0,52128,0,0,0
o,0x00000000,1680088110.277707,172.16.1.2,65242,172.16.3.2,5201,1073725440,55061,6,62848,65728,6,6,4,1460,410,1,992,44,82732,79836,65700,0,49232,0,0,0
o,0x00000000,1680088110.277834,172.16.1.2,65242,172.16.3.2,5201,1073725440,55061,6,62848,65728,6,6,4,1460,410,1,992,44,82732,79836,65700,0,50680,0,0,0
o,0x00000000,1680088110.277971,172.16.1.2,65242,172.16.3.2,5201,1073725440,55061,6,62848,65728,6,6,4,1460,410,1,992,44,82732,79836,65700,0,52128,0,0,0
o,0x00000000,1680088110.278071,172.16.1.2,65242,172.16.3.2,5201,1073725440,55061,6,62848,65728,6,6,4,1460,410,1,992,44,82732,79836,65700,0,53576,0,0,0
i,0x00000000,1680088110.278174,172.16.1.2,65242,172.16.3.2,5201,1073725440,55061,6,62848,65728,6,6,4,1460,410,1,992,44,82732,79836,65700,0,55024,0,0,0
o,0x00000000,1680088110.278192,172.16.1.2,65242,172.16.3.2,5201,1073725440,57957,6,62848,65728,6,6,4,1460,407,1,992,41,82732,76940,65700,0,52128,0,0,0
o,0x00000000,1680088110.278285,172.16.1.2,65242,172.16.3.2,5201,1073725440,57957,6,62848,65728,6,6,4,1460,407,1,992,41,82732,76940,65700,0,53576,0,0,0
o,0x00000000,1680088110.278374,172.16.1.2,65242,172.16.3.2,5201,1073725440,57957,6,62848,65728,6,6,4,1460,407,1,992,41,82732,76940,65700,0,55024,0,0,0
o,0x00000000,1680088110.278461,172.16.1.2,65242,172.16.3.2,5201,1073725440,57957,6,62848,65728,6,6,4,1460,407,1,992,41,82732,76940,65700,0,56472,0,0,0
i,0x00000000,1680088110.297429,172.16.1.2,65242,172.16.3.2,5201,1073725440,57957,6,62848,65728,6,6,4,1460,407,1,992,41,82732,82732,65700,0,57920,0,0,0
o,0x00000000,1680088110.297454,172.16.1.2,65242,172.16.3.2,5201,1073725440,60853,6,64256,65728,6,6,4,1460,401,1,992,41,82732,79836,65700,0,55024,0,0,0
o,0x00000000,1680088110.297583,172.16.1.2,65242,172.16.3.2,5201,1073725440,60853,6,64256,65728,6,6,4,1460,401,1,992,41,82732,79836,65700,0,56472,0,0,0
o,0x00000000,1680088110.297680,172.16.1.2,65242,172.16.3.2,5201,1073725440,60853,6,64256,65728,6,6,4,1460,401,1,992,41,82732,79836,65700,0,57920,0,0,0
o,0x00000000,1680088110.297776,172.16.1.2,65242,172.16.3.2,5201,1073725440,60853,6,64256,65728,6,6,4,1460,401,1,992,41,82732,79836,65700,0,59368,0,0,0
i,0x00000000,1680088110.297877,172.16.1.2,65242,172.16.3.2,5201,1073725440,60853,6,64256,65728,6,6,4,1460,401,1,992,41,82732,79836,65700,0,60816,0,0,0
o,0x00000000,1680088110.297893,172.16.1.2,65242,172.16.3.2,5201,1073725440,63749,6,64256,65728,6,6,4,1460,395,1,992,40,82732,76940,65700,0,57920,0,0,0
o,0x00000000,1680088110.297977,172.16.1.2,65242,172.16.3.2,5201,1073725440,63749,6,64256,65728,6,6,4,1460,395,1,992,40,82732,76940,65700,0,59368,0,0,0
o,0x00000000,1680088110.297977,172.16.1.2,65242,172.16.3.2,5201,1073725440,63749,6,64256,65728,6,6,4,1460,395,1,992,40,82732,76940,65700,0,60816,0,0,0
o,0x00000000,1680088110.297977,172.16.1.2,65242,172.16.3.2,5201,1073725440,63749,6,64256,65728,6,6,4,1460,395,1,992,40,82732,76940,65700,0,62264,0,0,0
i,0x00000000,1680088110.318619,172.16.1.2,65242,172.16.3.2,5201,1073725440,63749,6,64256,65728,6,6,4,1460,395,1,992,40,82732,81840,65700,0,63712,0,0,0
o,0x00000000,1680088110.318642,172.16.1.2,65242,172.16.3.2,5201,1073725440,66645,6,64256,65728,6,6,4,1460,398,1,992,39,82732,78944,65700,0,60816,0,0,0
o,0x00000000,1680088110.318762,172.16.1.2,65242,172.16.3.2,5201,1073725440,66645,6,64256,65728,6,6,4,1460,398,1,992,39,82732,78944,65700,0,62264,0,0,0
i,0x00000000,1680088110.327496,172.16.1.2,65242,172.16.3.2,5201,1073725440,66645,6,64256,65728,6,6,4,1460,398,1,992,39,82732,82732,65700,0,63712,0,0,0
o,0x00000000,1680088110.327522,172.16.1.2,65242,172.16.3.2,5201,1073725440,66645,6,62848,65728,6,6,4,1460,405,1,992,39,82732,79836,65700,0,60816,0,0,0
i,0x00000000,1680088110.327638,172.16.1.2,65242,172.16.3.2,5201,1073725440,66645,6,62848,65728,6,6,4,1460,405,1,992,39,82732,79836,65700,0,62264,0,0,0
i,0x00000000,1680088110.357151,172.16.1.2,65242,172.16.3.2,5201,1073725440,66645,6,59968,65728,6,6,4,1460,403,1,992,38,82732,82732,65700,0,59368,0,0,0
o,0x00000000,1680088110.357253,172.16.1.2,65242,172.16.3.2,5201,1073725440,66645,6,64256,65728,6,6,4,1460,413,1,992,39,82732,79836,65700,0,56472,0,0,0
o,0x00000000,1680088110.357368,172.16.1.2,65242,172.16.3.2,5201,1073725440,66645,6,64256,65728,6,6,4,1460,413,1,992,39,82732,79836,65700,0,57920,0,0,0
o,0x00000000,1680088110.357467,172.16.1.2,65242,172.16.3.2,5201,1073725440,66645,6,64256,65728,6,6,4,1460,413,1,992,39,82732,79836,65700,0,59368,0,0,0
o,0x00000000,1680088110.357586,172.16.1.2,65242,172.16.3.2,5201,1073725440,66645,6,64256,65728,6,6,4,1460,413,1,992,39,82732,79836,65700,0,60816,0,0,0
o,0x00000000,1680088110.357682,172.16.1.2,65242,172.16.3.2,5201,1073725440,66645,6,64256,65728,6,6,4,1460,413,1,992,39,82732,79836,65700,0,62264,0,0,0
i,0x00000000,1680088110.357807,172.16.1.2,65242,172.16.3.2,5201,1073725440,66645,6,64256,65728,6,6,4,1460,413,1,992,39,82732,79836,65700,0,63712,0,0,0
o,0x00000000,1680088110.357825,172.16.1.2,65242,172.16.3.2,5201,1073725440,66645,6,64256,65728,6,6,4,1460,422,1,992,40,82732,76940,65700,0,60816,0,0,0
o,0x00000000,1680088110.357932,172.16.1.2,65242,172.16.3.2,5201,1073725440,66645,6,64256,65728,6,6,4,1460,422,1,992,40,82732,76940,65700,0,62264,0,0,0
i,0x00000000,1680088110.378378,172.16.1.2,65242,172.16.3.2,5201,1073725440,66645,6,64256,65728,6,6,4,1460,422,1,992,40,82732,82732,65700,0,63712,0,0,0
o,0x00000000,1680088110.378474,172.16.1.2,65242,172.16.3.2,5201,1073725440,66645,6,64256,65728,6,6,4,1460,438,1,992,43,82732,79836,65700,0,60816,0,0,0
o,0x00000000,1680088110.378570,172.16.1.2,65242,172.16.3.2,5201,1073725440,66645,6,64256,65728,6,6,4,1460,438,1,992,43,82732,79836,65700,0,62264,0,0,0
i,0x00000000,1680088110.378658,172.16.1.2,65242,172.16.3.2,5201,1073725440,66645,6,64256,65728,6,6,4,1460,438,1,992,43,82732,79836,65700,0,63712,0,0,0
o,0x00000000,1680088110.378688,172.16.1.2,65242,172.16.3.2,5201,1073725440,66645,6,62848,65728,6,6,4,1460,444,1,992,42,82732,76940,65700,0,60816,0,0,0
i,0x00000000,1680088110.398307,172.16.1.2,65242,172.16.3.2,5201,1073725440,66645,6,62848,65728,6,6,4,1460,444,1,992,42,82732,82732,65700,0,62264,0,0,0
o,0x00000000,1680088110.398335,172.16.1.2,65242,172.16.3.2,5201,1073725440,66645,6,62848,65728,6,6,4,1460,457,1,992,44,82732,79836,65700,0,59368,0,0,0
o,0x00000000,1680088110.398546,172.16.1.2,65242,172.16.3.2,5201,1073725440,66645,6,62848,65728,6,6,4,1460,457,1,992,44,82732,79836,65700,0,60816,0,0,0
i,0x00000000,1680088110.428609,172.16.1.2,65242,172.16.3.2,5201,1073725440,66645,6,62848,65728,6,6,4,1460,457,1,992,44,82732,82732,65700,0,62264,0,0,0
o,0x00000000,1680088110.428657,172.16.1.2,65242,172.16.3.2,5201,1073725440,66645,6,64256,65728,6,6,4,1460,464,1,992,43,82732,79836,65700,0,59368,0,0,0
o,0x00000000,1680088110.428772,172.16.1.2,65242,172.16.3.2,5201,1073725440,66645,6,64256,65728,6,6,4,1460,464,1,992,43,82732,79836,65700,0,60816,0,0,0
o,0x00000000,1680088110.428930,172.16.1.2,65242,172.16.3.2,5201,1073725440,66645,6,64256,65728,6,6,4,1460,464,1,992,43,82732,79836,65700,0,62264,0,0,0
i,0x00000000,1680088110.429077,172.16.1.2,65242,172.16.3.2,5201,1073725440,66645,6,64256,65728,6,6,4,1460,464,1,992,43,82732,79836,65700,0,63712,0,0,0
o,0x00000000,1680088110.429105,172.16.1.2,65242,172.16.3.2,5201,1073725440,66645,6,64256,65728,6,6,4,1460,470,1,992,43,82732,76940,65700,0,60816,0,0,0
o,0x00000000,1680088110.429349,172.16.1.2,65242,172.16.3.2,5201,1073725440,66645,6,64256,65728,6,6,4,1460,470,1,992,43,82732,76940,65700,0,62264,0,0,0
i,0x00000000,1680088110.447253,172.16.1.2,65242,172.16.3.2,5201,1073725440,66645,6,64256,65728,6,6,4,1460,470,1,992,43,82732,82732,65700,0,63712,0,0,0
o,0x00000000,1680088110.447277,172.16.1.2,65242,172.16.3.2,5201,1073725440,66645,6,64256,65728,6,6,4,1460,484,1,992,45,82732,79836,65700,0,60816,0,0,0
o,0x00000000,1680088110.447388,172.16.1.2,65242,172.16.3.2,5201,1073725440,66645,6,64256,65728,6,6,4,1460,484,1,992,45,82732,79836,65700,0,62264,0,0,0
i,0x00000000,1680088110.447494,172.16.1.2,65242,172.16.3.2,5201,1073725440,66645,6,64256,65728,6,6,4,1460,484,1,992,45,82732,79836,65700,0,63712,0,0,0
o,0x00000000,1680088110.447511,172.16.1.2,65242,172.16.3.2,5201,1073725440,66645,6,62848,65728,6,6,4,1460,496,1,992,46,82732,76940,65700,0,60816,0,0,0
i,0x00000000,1680088110.468679,172.16.1.2,65242,172.16.3.2,5201,1073725440,66645,6,62848,65728,6,6,4,1460,496,1,992,46,82732,82732,65700,0,62264,0,0,0
o,0x00000000,1680088110.468708,172.16.1.2,65242,172.16.3.2,5201,1073725440,66645,6,62848,65728,6,6,4,1460,514,1,992,48,82732,79836,65700,0,59368,0,0,0
o,0x00000000,1680088110.468853,172.16.1.2,65242,172.16.3.2,5201,1073725440,66645,6,62848,65728,6,6,4,1460,514,1,992,48,82732,79836,65700,0,60816,0,0,0
i,0x00000000,1680088110.489649,172.16.1.2,65242,172.16.3.2,5201,1073725440,66645,6,62848,65728,6,6,4,1460,514,1,992,48,82732,82732,65700,0,62264,0,0,0
o,0x00000000,1680088110.489672,172.16.1.2,65242,172.16.3.2,5201,1073725440,66645,6,64256,65728,6,6,4,1460,538,1,992,52,82732,79836,65700,0,59368,0,0,0
o,0x00000000,1680088110.489767,172.16.1.2,65242,172.16.3.2,5201,1073725440,66645,6,64256,65728,6,6,4,1460,538,1,992,52,82732,79836,65700,0,60816,0,0,0
o,0x00000000,1680088110.489893,172.16.1.2,65242,172.16.3.2,5201,1073725440,66645,6,64256,65728,6,6,4,1460,538,1,992,52,82732,79836,65700,0,62264,0,0,0
i,0x00000000,1680088110.489986,172.16.1.2,65242,172.16.3.2,5201,1073725440,66645,6,64256,65728,6,6,4,1460,538,1,992,52,82732,79836,65700,0,63712,0,0,0
o,0x00000000,1680088110.490002,172.16.1.2,65242,172.16.3.2,5201,1073725440,66645,6,64256,65728,6,6,4,1460,555,1,992,53,82732,76940,65700,0,60816,0,0,0
o,0x00000000,1680088110.490128,172.16.1.2,65242,172.16.3.2,5201,1073725440,66645,6,64256,65728,6,6,4,1460,555,1,992,53,82732,76940,65700,0,62264,0,0,0
i,0x00000000,1680088110.507856,172.16.1.2,65242,172.16.3.2,5201,1073725440,66645,6,64256,65728,6,6,4,1460,555,1,992,53,82732,82732,65700,0,63712,0,0,0
o,0x00000000,1680088110.508070,172.16.1.2,65242,172.16.3.2,5201,1073725440,66645,6,64256,65728,6,6,4,1460,578,1,992,55,82732,79836,65700,0,60816,0,0,0
o,0x00000000,1680088110.508181,172.16.1.2,65242,172.16.3.2,5201,1073725440,66645,6,64256,65728,6,6,4,1460,578,1,992,55,82732,79836,65700,0,62264,0,0,0
i,0x00000000,1680088110.508277,172.16.1.2,65242,172.16.3.2,5201,1073725440,66645,6,64256,65728,6,6,4,1460,578,1,992,55,82732,79836,65700,0,63712,0,0,0
o,0x00000000,1680088110.508303,172.16.1.2,65242,172.16.3.2,5201,1073725440,66645,6,62848,65728,6,6,4,1460,598,1,992,57,82732,76940,65700,0,60816,0,0,0
i,0x00000000,1680088110.528373,172.16.1.2,65242,172.16.3.2,5201,1073725440,66645,6,62848,65728,6,6,4,1460,598,1,992,57,82732,82732,65700,0,62264,0,0,0
o,0x00000000,1680088110.528395,172.16.1.2,65242,172.16.3.2,5201,1073725440,66645,6,62848,65728,6,6,4,1460,624,1,992,60,82732,79836,65700,0,59368,0,0,0
o,0x00000000,1680088110.528498,172.16.1.2,65242,172.16.3.2,5201,1073725440,66645,6,62848,65728,6,6,4,1460,624,1,992,60,82732,79836,65700,0,60816,0,0,0
i,0x00000000,1680088110.547608,172.16.1.2,65242,172.16.3.2,5201,1073725440,66645,6,62848,65728,6,6,4,1460,624,1,992,60,82732,82732,65700,0,62264,0,0,0
o,0x00000000,1680088110.547634,172.16.1.2,65242,172.16.3.2,5201,1073725440,66645,6,64256,65728,6,6,4,1460,646,1,992,61,82732,79836,65700,0,59368,0,0,0
o,0x00000000,1680088110.547743,172.16.1.2,65242,172.16.3.2,5201,1073725440,66645,6,64256,65728,6,6,4,1460,646,1,992,61,82732,79836,65700,0,60816,0,0,0
o,0x00000000,1680088110.547847,172.16.1.2,65242,172.16.3.2,5201,1073725440,66645,6,64256,65728,6,6,4,1460,646,1,992,61,82732,79836,65700,0,62264,0,0,0
i,0x00000000,1680088110.547979,172.16.1.2,65242,172.16.3.2,5201,1073725440,66645,6,64256,65728,6,6,4,1460,646,1,992,61,82732,79836,65700,0,63712,0,0,0
o,0x00000000,1680088110.548006,172.16.1.2,65242,172.16.3.2,5201,1073725440,66645,6,64256,65728,6,6,4,1460,666,1,992,61,82732,76940,65700,0,60816,0,0,0
o,0x00000000,1680088110.548118,172.16.1.2,65242,172.16.3.2,5201,1073725440,66645,6,64256,65728,6,6,4,1460,666,1,992,61,82732,76940,65700,0,62264,0,0,0
i,0x00000000,1680088110.567874,172.16.1.2,65242,172.16.3.2,5201,1073725440,66645,6,64256,65728,6,6,4,1460,666,1,992,61,82732,82732,65700,0,63712,0,0,0
o,0x00000000,1680088110.567896,172.16.1.2,65242,172.16.3.2,5201,1073725440,66645,6,64256,65728,6,6,4,1460,691,1,992,63,82732,79836,65700,0,60816,0,0,0
o,0x00000000,1680088110.568003,172.16.1.2,65242,172.16.3.2,5201,1073725440,66645,6,64256,65728,6,6,4,1460,691,1,992,63,82732,79836,65700,0,62264,0,0,0
i,0x00000000,1680088110.568102,172.16.1.2,65242,172.16.3.2,5201,1073725440,66645,6,64256,65728,6,6,4,1460,691,1,992,63,82732,79836,65700,0,63712,0,0,0
o,0x00000000,1680088110.568129,172.16.1.2,65242,172.16.3.2,5201,1073725440,66645,6,62848,65728,6,6,4,1460,713,1,992,64,82732,76940,65700,0,60816,0,0,0
i,0x00000000,1680088110.589332,172.16.1.2,65242,172.16.3.2,5201,1073725440,66645,6,62848,65728,6,6,4,1460,713,1,992,64,82732,82732,65700,0,62264,0,0,0
o,0x00000000,1680088110.589424,172.16.1.2,65242,172.16.3.2,5201,1073725440,66645,6,62848,65728,6,6,4,1460,732,1,992,64,82732,79836,65700,0,59368,0,0,0
o,0x00000000,1680088110.589516,172.16.1.2,65242,172.16.3.2,5201,1073725440,66645,6,62848,65728,6,6,4,1460,732,1,992,64,82732,79836,65700,0,60816,0,0,0
i,0x00000000,1680088110.607606,172.16.1.2,65242,172.16.3.2,5201,1073725440,66645,6,62848,65728,6,6,4,1460,732,1,992,64,82732,82732,65700,0,62264,0,0,0
o,0x00000000,1680088110.607723,172.16.1.2,65242,172.16.3.2,5201,1073725440,66645,6,64256,65728,6,6,4,1460,753,1,992,64,82732,79836,65700,0,59368,0,0,0
o,0x00000000,1680088110.607818,172.16.1.2,65242,172.16.3.2,5201,1073725440,66645,6,64256,65728,6,6,4,1460,753,1,992,64,82732,79836,65700,0,60816,0,0,0
o,0x00000000,1680088110.607939,172.16.1.2,65242,172.16.3.2,5201,1073725440,66645,6,64256,65728,6,6,4,1460,753,1,992,64,82732,79836,65700,0,62264,0,0,0
i,0x00000000,1680088110.608037,172.16.1.2,65242,172.16.3.2,5201,1073725440,66645,6,64256,65728,6,6,4,1460,753,1,992,64,82732,79836,65700,0,63712,0,0,0
o,0x00000000,1680088110.608055,172.16.1.2,65242,172.16.3.2,5201,1073725440,66645,6,64256,65728,6,6,4,1460,759,1,992,61,82732,76940,65700,0,60816,0,0,0
o,0x00000000,1680088110.608142,172.16.1.2,65242,172.16.3.2,5201,1073725440,66645,6,64256,65728,6,6,4,1460,759,1,992,61,82732,76940,65700,0,62264,0,0,0
i,0x00000000,1680088110.627481,172.16.1.2,65242,172.16.3.2,5201,1073725440,66645,6,64256,65728,6,6,4,1460,759,1,992,61,82732,82732,65700,0,63712,0,0,0
o,0x00000000,1680088110.627562,172.16.1.2,65242,172.16.3.2,5201,1073725440,66645,6,64256,65728,6,6,4,1460,773,1,992,60,82732,79836,65700,0,60816,0,0,0
o,0x00000000,1680088110.627762,172.16.1.2,65242,172.16.3.2,5201,1073725440,66645,6,64256,65728,6,6,4,1460,773,1,992,60,82732,79836,65700,0,62264,0,0,0
i,0x00000000,1680088110.628121,172.16.1.2,65242,172.16.3.2,5201,1073725440,66645,6,64256,65728,6,6,4,1460,773,1,992,60,82732,79836,65700,0,63712,0,0,0
o,0x00000000,1680088110.628157,172.16.1.2,65242,172.16.3.2,5201,1073725440,66645,6,62848,65728,6,6,4,1460,785,1,992,60,82732,76940,65700,0,60816,0,0,0
i,0x00000000,1680088110.647560,172.16.1.2,65242,172.16.3.2,5201,1073725440,66645,6,62848,65728,6,6,4,1460,785,1,992,60,82732,82732,65700,0,62264,0,0,0
o,0x00000000,1680088110.647597,172.16.1.2,65242,172.16.3.2,5201,1073725440,66645,6,62848,65728,6,6,4,1460,795,1,992,59,82732,79836,65700,0,59368,0,0,0
o,0x00000000,1680088110.647728,172.16.1.2,65242,172.16.3.2,5201,1073725440,66645,6,62848,65728,6,6,4,1460,795,1,992,59,82732,79836,65700,0,60816,0,0,0
i,0x00000000,1680088110.667776,172.16.1.2,65242,172.16.3.2,5201,1073725440,66645,6,62848,65728,6,6,4,1460,795,1,992,59,82732,82732,65700,0,62264,0,0,0
o,0x00000000,1680088110.667807,172.16.1.2,65242,172.16.3.2,5201,1073725440,66645,6,64256,65728,6,6,4,1460,812,1,992,60,82732,79836,65700,0,59368,0,0,0
o,0x00000000,1680088110.667917,172.16.1.2,65242,172.16.3.2,5201,1073725440,66645,6,64256,65728,6,6,4,1460,812,1,992,60,82732,79836,65700,0,60816,0,0,0
o,0x00000000,1680088110.668006,172.16.1.2,65242,172.16.3.2,5201,1073725440,66645,6,64256,65728,6,6,4,1460,812,1,992,60,82732,79836,65700,0,62264,0,0,0
i,0x00000000,1680088110.668107,172.16.1.2,65242,172.16.3.2,5201,1073725440,66645,6,64256,65728,6,6,4,1460,812,1,992,60,82732,79836,65700,0,63712,0,0,0
o,0x00000000,1680088110.668127,172.16.1.2,65242,172.16.3.2,5201,1073725440,66645,6,64256,65728,6,6,4,1460,819,1,992,58,82732,76940,65700,0,60816,0,0,0
o,0x00000000,1680088110.668231,172.16.1.2,65242,172.16.3.2,5201,1073725440,66645,6,64256,65728,6,6,4,1460,819,1,992,58,82732,76940,65700,0,62264,0,0,0
i,0x00000000,1680088110.687487,172.16.1.2,65242,172.16.3.2,5201,1073725440,66645,6,64256,65728,6,6,4,1460,819,1,992,58,82732,82732,65700,0,63712,0,0,0
o,0x00000000,1680088110.687540,172.16.1.2,65242,172.16.3.2,5201,1073725440,66645,6,64256,65728,6,6,4,1460,821,1,992,56,82732,79836,65700,0,60816,0,0,0
o,0x00000000,1680088110.687738,172.16.1.2,65242,172.16.3.2,5201,1073725440,66645,6,64256,65728,6,6,4,1460,821,1,992,56,82732,79836,65700,0,62264,0,0,0
i,0x00000000,1680088110.687926,172.16.1.2,65242,172.16.3.2,5201,1073725440,66645,6,64256,65728,6,6,4,1460,821,1,992,56,82732,79836,65700,0,63712,0,0,0
o,0x00000000,1680088110.687946,172.16.1.2,65242,172.16.3.2,5201,1073725440,66645,6,62848,65728,6,6,4,1460,823,1,992,54,82732,76940,65700,0,60816,0,0,0
i,0x00000000,1680088110.708297,172.16.1.2,65242,172.16.3.2,5201,1073725440,66645,6,62848,65728,6,6,4,1460,823,1,992,54,82732,82732,65700,0,62264,0,0,0
o,0x00000000,1680088110.708393,172.16.1.2,65242,172.16.3.2,5201,1073725440,66645,6,62848,65728,6,6,4,1460,825,1,992,52,82732,79836,65700,0,59368,0,0,0
o,0x00000000,1680088110.708488,172.16.1.2,65242,172.16.3.2,5201,1073725440,66645,6,62848,65728,6,6,4,1460,825,1,992,52,82732,79836,65700,0,60816,0,0,0
i,0x00000000,1680088110.728100,172.16.1.2,65242,172.16.3.2,5201,1073725440,66645,6,62848,65728,6,6,4,1460,825,1,992,52,82732,82732,65700,0,62264,0,0,0
o,0x00000000,1680088110.728204,172.16.1.2,65242,172.16.3.2,5201,1073725440,66645,6,64256,65728,6,6,4,1460,834,1,992,53,82732,79836,65700,0,59368,0,0,0
o,0x00000000,1680088110.728341,172.16.1.2,65242,172.16.3.2,5201,1073725440,66645,6,64256,65728,6,6,4,1460,834,1,992,53,82732,79836,65700,0,60816,0,0,0
o,0x00000000,1680088110.728556,172.16.1.2,65242,172.16.3.2,5201,1073725440,66645,6,64256,65728,6,6,4,1460,834,1,992,53,82732,79836,65700,0,62264,0,0,0
i,0x00000000,1680088110.728642,172.16.1.2,65242,172.16.3.2,5201,1073725440,66645,6,64256,65728,6,6,4,1460,834,1,992,53,82732,79836,65700,0,63712,0,0,0
o,0x00000000,1680088110.728675,172.16.1.2,65242,172.16.3.2,5201,1073725440,66645,6,64256,65728,6,6,4,1460,834,1,992,51,82732,76940,65700,0,60816,0,0,0
o,0x00000000,1680088110.728796,172.16.1.2,65242,172.16.3.2,5201,1073725440,66645,6,64256,65728,6,6,4,1460,834,1,992,51,82732,76940,65700,0,62264,0,0,0
i,0x00000000,1680088110.748198,172.16.1.2,65242,172.16.3.2,5201,1073725440,66645,6,64256,65728,6,6,4,1460,834,1,992,51,82732,82732,65700,0,63712,0,0,0
o,0x00000000,1680088110.748227,172.16.1.2,65242,172.16.3.2,5201,1073725440,66645,6,64256,65728,6,6,4,1460,830,1,992,51,82732,79836,65700,0,60816,0,0,0
o,0x00000000,1680088110.748348,172.16.1.2,65242,172.16.3.2,5201,1073725440,66645,6,64256,65728,6,6,4,1460,830,1,992,51,82732,79836,65700,0,62264,0,0,0
i,0x00000000,1680088110.748445,172.16.1.2,65242,172.16.3.2,5201,1073725440,66645,6,64256,65728,6,6,4,1460,830,1,992,51,82732,79836,65700,0,63712,0,0,0
o,0x00000000,1680088110.748473,172.16.1.2,65242,172.16.3.2,5201,1073725440,66645,6,62848,65728,6,6,4,1460,827,1,992,50,82732,76940,65700,0,60816,0,0,0
i,0x00000000,1680088110.768366,172.16.1.2,65242,172.16.3.2,5201,1073725440,66645,6,62848,65728,6,6,4,1460,827,1,992,50,82732,82732,65700,0,62264,0,0,0
o,0x00000000,1680088110.768394,172.16.1.2,65242,172.16.3.2,5201,1073725440,66645,6,62848,65728,6,6,4,1460,828,1,992,49,82732,79836,65700,0,59368,0,0,0
o,0x00000000,1680088110.768495,172.16.1.2,65242,172.16.3.2,5201,1073725440,66645,6,62848,65728,6,6,4,1460,828,1,992,49,82732,79836,65700,0,60816,0,0,0
i,0x00000000,1680088110.787999,172.16.1.2,65242,172.16.3.2,5201,1073725440,66645,6,62848,65728,6,6,4,1460,828,1,992,49,82732,82732,65700,0,62264,0,0,0
o,0x00000000,1680088110.788028,172.16.1.2,65242,172.16.3.2,5201,1073725440,66645,6,64256,65728,6,6,4,1460,837,1,992,51,82732,79836,65700,0,59368,0,0,0
o,0x00000000,1680088110.788133,172.16.1.2,65242,172.16.3.2,5201,1073725440,66645,6,64256,65728,6,6,4,1460,837,1,992,51,82732,79836,65700,0,60816,0,0,0
o,0x00000000,1680088110.788294,172.16.1.2,65242,172.16.3.2,5201,1073725440,66645,6,64256,65728,6,6,4,1460,837,1,992,51,82732,79836,65700,0,62264,0,0,0
i,0x00000000,1680088110.788426,172.16.1.2,65242,172.16.3.2,5201,1073725440,66645,6,64256,65728,6,6,4,1460,837,1,992,51,82732,79836,65700,0,63712,0,0,0
o,0x00000000,1680088110.788449,172.16.1.2,65242,172.16.3.2,5201,1073725440,66645,6,64256,65728,6,6,4,1460,833,1,992,51,82732,76940,65700,0,60816,0,0,0
o,0x00000000,1680088110.788545,172.16.1.2,65242,172.16.3.2,5201,1073725440,66645,6,64256,65728,6,6,4,1460,833,1,992,51,82732,76940,65700,0,62264,0,0,0
i,0x00000000,1680088110.808750,172.16.1.2,65242,172.16.3.2,5201,1073725440,66645,6,64256,65728,6,6,4,1460,833,1,992,51,82732,82732,65700,0,63712,0,0,0
o,0x00000000,1680088110.808772,172.16.1.2,65242,172.16.3.2,5201,1073725440,66645,6,64256,65728,6,6,4,1460,829,1,992,50,82732,79836,65700,0,60816,0,0,0
o,0x00000000,1680088110.808898,172.16.1.2,65242,172.16.3.2,5201,1073725440,66645,6,64256,65728,6,6,4,1460,829,1,992,50,82732,79836,65700,0,62264,0,0,0
i,0x00000000,1680088110.809011,172.16.1.2,65242,172.16.3.2,5201,1073725440,66645,6,64256,65728,6,6,4,1460,829,1,992,50,82732,79836,65700,0,63712,0,0,0
o,0x00000000,1680088110.809035,172.16.1.2,65242,172.16.3.2,5201,1073725440,66645,6,62848,65728,6,6,4,1460,826,1,992,50,82732,76940,65700,0,60816,0,0,0
i,0x00000000,1680088110.827744,172.16.1.2,65242,172.16.3.2,5201,1073725440,66645,6,62848,65728,6,6,4,1460,826,1,992,50,82732,82732,65700,0,62264,0,0,0
o,0x00000000,1680088110.827839,172.16.1.2,65242,172.16.3.2,5201,1073725440,66645,6,62848,65728,6,6,4,1460,823,1,992,49,82732,79836,65700,0,59368,0,0,0
o,0x00000000,1680088110.827940,172.16.1.2,65242,172.16.3.2,5201,1073725440,66645,6,62848,65728,6,6,4,1460,823,1,992,49,82732,79836,65700,0,60816,0,0,0
i,0x00000000,1680088110.838322,172.16.1.2,65242,172.16.3.2,5201,1073725440,66645,6,62848,65728,6,6,4,1460,823,1,992,49,82732,82732,65700,0,62264,0,0,0
o,0x00000000,1680088110.838354,172.16.1.2,65242,172.16.3.2,5201,1073725440,66645,6,64256,65728,6,6,4,1460,825,1,992,49,82732,79836,65700,0,59368,0,0,0
o,0x00000000,1680088110.838511,172.16.1.2,65242,172.16.3.2,5201,1073725440,66645,6,64256,65728,6,6,4,1460,825,1,992,49,82732,79836,65700,0,60816,0,0,0
o,0x00000000,1680088110.838639,172.16.1.2,65242,172.16.3.2,5201,1073725440,66645,6,64256,65728,6,6,4,1460,825,1,992,49,82732,79836,65700,0,62264,0,0,0
i,0x00000000,1680088110.838920,172.16.1.2,65242,172.16.3.2,5201,1073725440,66645,6,64256,65728,6,6,4,1460,825,1,992,49,82732,79836,65700,0,63712,0,0,0
o,0x00000000,1680088110.838953,172.16.1.2,65242,172.16.3.2,5201,1073725440,66645,6,64256,65728,6,6,4,1460,818,1,992,50,82732,76940,65700,0,60816,0,0,0
o,0x00000000,1680088110.839081,172.16.1.2,65242,172.16.3.2,5201,1073725440,66645,6,64256,65728,6,6,4,1460,818,1,992,50,82732,76940,65700,0,62264,0,0,0
i,0x00000000,1680088110.868678,172.16.1.2,65242,172.16.3.2,5201,1073725440,66645,6,64256,65728,6,6,4,1460,818,1,992,50,82732,82592,65700,0,63712,0,0,0
o,0x00000000,1680088110.868802,172.16.1.2,65242,172.16.3.2,5201,1073725440,66645,6,64256,65728,6,6,4,1460,816,1,992,49,82732,79696,65700,0,60816,0,0,0
o,0x00000000,1680088110.868905,172.16.1.2,65242,172.16.3.2,5201,1073725440,66645,6,64256,65728,6,6,4,1460,816,1,992,49,82732,79696,65700,0,62264,0,0,0
i,0x00000000,1680088110.869004,172.16.1.2,65242,172.16.3.2,5201,1073725440,66645,6,64256,65728,6,6,4,1460,816,1,992,49,82732,79696,65700,0,63712,0,0,0
o,0x00000000,1680088110.869022,172.16.1.2,65242,172.16.3.2,5201,1073725440,66645,6,62848,65728,6,6,4,1460,814,1,992,49,82732,76800,65700,0,60816,0,0,0
i,0x00000000,1680088110.898659,172.16.1.2,65242,172.16.3.2,5201,1073725440,66645,6,62848,65728,6,6,4,1460,814,1,992,49,82732,82732,65700,0,62264,0,0,0
o,0x00000000,1680088110.898788,172.16.1.2,65242,172.16.3.2,5201,1073725440,66645,6,62848,65728,6,6,4,1460,817,1,992,49,82732,79836,65700,0,59368,0,0,0
o,0x00000000,1680088110.898903,172.16.1.2,65242,172.16.3.2,5201,1073725440,66645,6,62848,65728,6,6,4,1460,817,1,992,49,82732,79836,65700,0,60816,0,0,0
i,0x00000000,1680088110.899008,172.16.1.2,65242,172.16.3.2,5201,1073725440,66645,6,62848,65728,6,6,4,1460,817,1,992,49,82732,79836,65700,0,62264,0,0,0
o,0x00000000,1680088110.899044,172.16.1.2,65242,172.16.3.2,5201,1073725440,66645,6,64256,65728,6,6,4,1460,819,1,992,49,82732,76940,65700,0,59368,0,0,0
o,0x00000000,1680088110.899142,172.16.1.2,65242,172.16.3.2,5201,1073725440,66645,6,64256,65728,6,6,4,1460,819,1,992,49,82732,76940,65700,0,60816,0,0,0
o,0x00000000,1680088110.899247,172.16.1.2,65242,172.16.3.2,5201,1073725440,66645,6,64256,65728,6,6,4,1460,819,1,992,49,82732,76940,65700,0,62264,0,0,0
i,0x00000000,1680088110.919016,172.16.1.2,65242,172.16.3.2,5201,1073725440,66645,6,64256,65728,6,6,4,1460,819,1,992,49,82732,82732,65700,0,63712,0,0,0
o,0x00000000,1680088110.919112,172.16.1.2,65242,172.16.3.2,5201,1073725440,66645,6,64256,65728,6,6,4,1460,821,1,992,48,82732,79836,65700,0,60816,0,0,0
o,0x00000000,1680088110.919211,172.16.1.2,65242,172.16.3.2,5201,1073725440,66645,6,64256,65728,6,6,4,1460,821,1,992,48,82732,79836,65700,0,62264,0,0,0
i,0x00000000,1680088110.919297,172.16.1.2,65242,172.16.3.2,5201,1073725440,66645,6,64256,65728,6,6,4,1460,821,1,992,48,82732,79836,65700,0,63712,0,0,0
o,0x00000000,1680088110.919314,172.16.1.2,65242,172.16.3.2,5201,1073725440,66645,6,64256,65728,6,6,4,1460,815,1,992,49,82732,76940,65700,0,60816,0,0,0
o,0x00000000,1680088110.919421,172.16.1.2,65242,172.16.3.2,5201,1073725440,66645,6,64256,65728,6,6,4,1460,815,1,992,49,82732,76940,65700,0,62264,0,0,0
i,0x00000000,1680088110.928231,172.16.1.2,65242,172.16.3.2,5201,1073725440,66645,6,64256,65728,6,6,4,1460,815,1,992,49,82732,82732,65700,0,63712,0,0,0
o,0x00000000,1680088110.928379,172.16.1.2,65242,172.16.3.2,5201,1073725440,66645,6,62848,65728,6,6,4,1460,814,1,992,48,82732,79836,65700,0,60816,0,0,0
i,0x00000000,1680088110.928508,172.16.1.2,65242,172.16.3.2,5201,1073725440,66645,6,62848,65728,6,6,4,1460,814,1,992,48,82732,79836,65700,0,62264,0,0,0
o,0x00000000,1680088110.928529,172.16.1.2,65242,172.16.3.2,5201,1073725440,66645,6,62848,65728,6,6,4,1460,805,1,992,49,82732,76940,65700,0,59368,0,0,0
o,0x00000000,1680088110.928661,172.16.1.2,65242,172.16.3.2,5201,1073725440,66645,6,62848,65728,6,6,4,1460,805,1,992,49,82732,76940,65700,0,60816,0,0,0
i,0x00000000,1680088110.969647,172.16.1.2,65242,172.16.3.2,5201,1073725440,66645,6,62848,65728,6,6,4,1460,805,1,992,49,82732,82732,65700,0,62264,0,0,0
o,0x00000000,1680088110.969710,172.16.1.2,65242,172.16.3.2,5201,1073725440,66645,6,64256,65728,6,6,4,1460,813,1,992,51,82732,79836,65700,0,59368,0,0,0
o,0x00000000,1680088110.969985,172.16.1.2,65242,172.16.3.2,5201,1073725440,66645,6,64256,65728,6,6,4,1460,813,1,992,51,82732,79836,65700,0,60816,0,0,0
o,0x00000000,1680088110.970255,172.16.1.2,65242,172.16.3.2,5201,1073725440,66645,6,64256,65728,6,6,4,1460,813,1,992,51,82732,79836,65700,0,62264,0,0,0
i,0x00000000,1680088110.970508,172.16.1.2,65242,172.16.3.2,5201,1073725440,66645,6,64256,65728,6,6,4,1460,813,1,992,51,82732,79836,65700,0,63712,0,0,0
i,0x00000000,1680088110.971274,172.16.1.2,65242,172.16.3.2,5201,1073725440,66645,6,61376,65728,6,6,4,1460,812,1,992,50,82732,82732,65700,0,60816,0,0,0
o,0x00000000,1680088110.971300,172.16.1.2,65242,172.16.3.2,5201,1073725440,66645,6,64256,65728,6,6,4,1460,807,1,992,50,82732,79836,65700,0,57920,0,0,0
o,0x00000000,1680088110.971420,172.16.1.2,65242,172.16.3.2,5201,1073725440,66645,6,64256,65728,6,6,4,1460,807,1,992,50,82732,79836,65700,0,59368,0,0,0
o,0x00000000,1680088110.971530,172.16.1.2,65242,172.16.3.2,5201,1073725440,66645,6,64256,65728,6,6,4,1460,807,1,992,50,82732,79836,65700,0,60816,0,0,0
o,0x00000000,1680088110.971640,172.16.1.2,65242,172.16.3.2,5201,1073725440,66645,6,64256,65728,6,6,4,1460,807,1,992,50,82732,79836,65700,0,62264,0,0,0
i,0x00000000,1680088110.989043,172.16.1.2,65242,172.16.3.2,5201,1073725440,66645,6,64256,65728,6,6,4,1460,807,1,992,50,82732,82732,65700,0,63712,0,0,0
o,0x00000000,1680088110.989080,172.16.1.2,65242,172.16.3.2,5201,1073725440,66645,6,62848,65728,6,6,4,1460,807,1,992,48,82732,79836,65700,0,60816,0,0,0
i,0x00000000,1680088110.989295,172.16.1.2,65242,172.16.3.2,5201,1073725440,66645,6,62848,65728,6,6,4,1460,807,1,992,48,82732,79836,65700,0,62264,0,0,0
o,0x00000000,1680088110.989325,172.16.1.2,65242,172.16.3.2,5201,1073725440,66645,6,62848,65728,6,6,4,1460,803,1,992,49,82732,76940,65700,0,59368,0,0,0
o,0x00000000,1680088110.989476,172.16.1.2,65242,172.16.3.2,5201,1073725440,66645,6,62848,65728,6,6,4,1460,803,1,992,49,82732,76940,65700,0,60816,0,0,0
i,0x00000000,1680088111.018503,172.16.1.2,65242,172.16.3.2,5201,1073725440,66645,6,62848,65728,6,6,4,1460,803,1,992,49,82732,82732,65700,0,62264,0,0,0
o,0x00000000,1680088111.018543,172.16.1.2,65242,172.16.3.2,5201,1073725440,66645,6,64256,65728,6,6,4,1460,811,1,992,50,82732,79836,65700,0,59368,0,0,0
o,0x00000000,1680088111.018643,172.16.1.2,65242,172.16.3.2,5201,1073725440,66645,6,64256,65728,6,6,4,1460,811,1,992,50,82732,79836,65700,0,60816,0,0,0
o,0x00000000,1680088111.018735,172.16.1.2,65242,172.16.3.2,5201,1073725440,66645,6,64256,65728,6,6,4,1460,811,1,992,50,82732,79836,65700,0,62264,0,0,0
i,0x00000000,1680088111.018821,172.16.1.2,65242,172.16.3.2,5201,1073725440,66645,6,64256,65728,6,6,4,1460,811,1,992,50,82732,79836,65700,0,63712,0,0,0
o,0x00000000,1680088111.018839,172.16.1.2,65242,172.16.3.2,5201,1073725440,66645,6,64256,65728,6,6,4,1460,810,1,992,49,82732,76940,65700,0,60816,0,0,0
o,0x00000000,1680088111.018930,172.16.1.2,65242,172.16.3.2,5201,1073725440,66645,6,64256,65728,6,6,4,1460,810,1,992,49,82732,76940,65700,0,62264,0,0,0
i,0x00000000,1680088111.038622,172.16.1.2,65242,172.16.3.2,5201,1073725440,66645,6,64256,65728,6,6,4,1460,810,1,992,49,82732,82732,65700,0,63712,0,0,0
o,0x00000000,1680088111.038670,172.16.1.2,65242,172.16.3.2,5201,1073725440,66645,6,64256,65728,6,6,4,1460,809,1,992,48,82732,79836,65700,0,60816,0,0,0
o,0x00000000,1680088111.038808,172.16.1.2,65242,172.16.3.2,5201,1073725440,66645,6,64256,65728,6,6,4,1460,809,1,992,48,82732,79836,65700,0,62264,0,0,0
i,0x00000000,1680088111.038905,172.16.1.2,65242,172.16.3.2,5201,1073725440,66645,6,64256,65728,6,6,4,1460,809,1,992,48,82732,79836,65700,0,63712,0,0,0
o,0x00000000,1680088111.038940,172.16.1.2,65242,172.16.3.2,5201,1073725440,66645,6,62848,65728,6,6,4,1460,808,1,992,48,82732,76940,65700,0,60816,0,0,0
i,0x00000000,1680088111.058904,172.16.1.2,65242,172.16.3.2,5201,1073725440,66645,6,62848,65728,6,6,4,1460,808,1,992,48,82732,82732,65700,0,62264,0,0,0
o,0x00000000,1680088111.059029,172.16.1.2,65242,172.16.3.2,5201,1073725440,66645,6,62848,65728,6,6,4,1460,807,1,992,47,82732,79836,65700,0,59368,0,0,0
o,0x00000000,1680088111.059306,172.16.1.2,65242,172.16.3.2,5201,1073725440,66645,6,62848,65728,6,6,4,1460,807,1,992,47,82732,79836,65700,0,60816,0,0,0
i,0x00000000,1680088111.077494,172.16.1.2,65242,172.16.3.2,5201,1073725440,66645,6,62848,65728,6,6,4,1460,807,1,992,47,82732,82732,65700,0,62264,0,0,0
o,0x00000000,1680088111.077525,172.16.1.2,65242,172.16.3.2,5201,1073725440,66645,6,64256,65728,6,6,4,1460,811,1,992,48,82732,79836,65700,0,59368,0,0,0
o,0x00000000,1680088111.077648,172.16.1.2,65242,172.16.3.2,5201,1073725440,66645,6,64256,65728,6,6,4,1460,811,1,992,48,82732,79836,65700,0,60816,0,0,0
o,0x00000000,1680088111.077737,172.16.1.2,65242,172.16.3.2,5201,1073725440,66645,6,64256,65728,6,6,4,1460,811,1,992,48,82732,79836,65700,0,62264,0,0,0
i,0x00000000,1680088111.077833,172.16.1.2,65242,172.16.3.2,5201,1073725440,66645,6,64256,65728,6,6,4,1460,811,1,992,48,82732,79836,65700,0,63712,0,0,0
o,0x00000000,1680088111.077850,172.16.1.2,65242,172.16.3.2,5201,1073725440,66645,6,64256,65728,6,6,4,1460,810,1,992,47,82732,76940,65700,0,60816,0,0,0
o,0x00000000,1680088111.077951,172.16.1.2,65242,172.16.3.2,5201,1073725440,66645,6,64256,65728,6,6,4,1460,810,1,992,47,82732,76940,65700,0,62264,0,0,0
i,0x00000000,1680088111.100986,172.16.1.2,65242,172.16.3.2,5201,1073725440,66645,6,64256,65728,6,6,4,1460,810,1,992,47,82732,82732,65700,0,63712,0,0,0
o,0x00000000,1680088111.101247,172.16.1.2,65242,172.16.3.2,5201,1073725440,66645,6,64256,65728,6,6,4,1460,813,1,992,48,82732,79836,65700,0,60816,0,0,0
o,0x00000000,1680088111.101368,172.16.1.2,65242,172.16.3.2,5201,1073725440,66645,6,64256,65728,6,6,4,1460,813,1,992,48,82732,79836,65700,0,62264,0,0,0
i,0x00000000,1680088111.101546,172.16.1.2,65242,172.16.3.2,5201,1073725440,66645,6,64256,65728,6,6,4,1460,813,1,992,48,82732,79836,65700,0,63712,0,0,0
o,0x00000000,1680088111.101568,172.16.1.2,65242,172.16.3.2,5201,1073725440,66645,6,62848,65728,6,6,4,1460,816,1,992,48,82732,76940,65700,0,60816,0,0,0
i,0x00000000,1680088111.118387,172.16.1.2,65242,172.16.3.2,5201,1073725440,66645,6,62848,65728,6,6,4,1460,816,1,992,48,82732,82732,65700,0,62264,0,0,0
o,0x00000000,1680088111.118514,172.16.1.2,65242,172.16.3.2,5201,1073725440,66645,6,62848,65728,6,6,4,1460,810,1,992,49,82732,79836,65700,0,59368,0,0,0
o,0x00000000,1680088111.118622,172.16.1.2,65242,172.16.3.2,5201,1073725440,66645,6,62848,65728,6,6,4,1460,810,1,992,49,82732,79836,65700,0,60816,0,0,0
i,0x00000000,1680088111.146209,172.16.1.2,65242,172.16.3.2,5201,1073725440,66645,6,62848,65728,6,6,4,1460,810,1,992,49,82732,82732,65700,0,62264,0,0,0
o,0x00000000,1680088111.146486,172.16.1.2,65242,172.16.3.2,5201,1073725440,66645,6,64256,65728,6,6,4,1460,821,1,992,51,82732,79836,65700,0,59368,0,0,0
o,0x00000000,1680088111.147255,172.16.1.2,65242,172.16.3.2,5201,1073725440,66645,6,64256,65728,6,6,4,1460,821,1,992,51,82732,79836,65700,0,60816,0,0,0
o,0x00000000,1680088111.147674,172.16.1.2,65242,172.16.3.2,5201,1073725440,66645,6,64256,65728,6,6,4,1460,821,1,992,51,82732,79836,65700,0,62264,0,0,0
i,0x00000000,1680088111.148029,172.16.1.2,65242,172.16.3.2,5201,1073725440,66645,6,64256,65728,6,6,4,1460,821,1,992,51,82732,79836,65700,0,63712,0,0,0
i,0x00000000,1680088111.148155,172.16.1.2,65242,172.16.3.2,5201,1073725440,66645,6,61376,65728,6,6,4,1460,819,1,992,50,82732,76940,65700,0,60816,0,0,0
o,0x00000000,1680088111.148269,172.16.1.2,65242,172.16.3.2,5201,1073725440,66645,6,64256,65728,6,6,4,1460,817,1,992,49,82732,74044,65700,0,57920,0,0,0
o,0x00000000,1680088111.148478,172.16.1.2,65242,172.16.3.2,5201,1073725440,66645,6,64256,65728,6,6,4,1460,817,1,992,49,82732,74044,65700,0,59368,0,0,0
o,0x00000000,1680088111.148720,172.16.1.2,65242,172.16.3.2,5201,1073725440,66645,6,64256,65728,6,6,4,1460,817,1,992,49,82732,74044,65700,0,60816,0,0,0
o,0x00000000,1680088111.148931,172.16.1.2,65242,172.16.3.2,5201,1073725440,66645,6,64256,65728,6,6,4,1460,817,1,992,49,82732,74044,65700,0,62264,0,0,0
i,0x00000000,1680088111.167382,172.16.1.2,65242,172.16.3.2,5201,1073725440,66645,6,64256,65728,6,6,4,1460,817,1,992,49,82732,82732,65700,0,63712,0,0,0
o,0x00000000,1680088111.167464,172.16.1.2,65242,172.16.3.2,5201,1073725440,66645,6,62848,65728,6,6,4,1460,815,1,992,49,82732,79836,65700,0,60816,0,0,0
i,0x00000000,1680088111.187972,172.16.1.2,65242,172.16.3.2,5201,1073725440,66645,6,62848,65728,6,6,4,1460,815,1,992,49,82732,82732,65700,0,62264,0,0,0
o,0x00000000,1680088111.187997,172.16.1.2,65242,172.16.3.2,5201,1073725440,66645,6,62848,65728,6,6,4,1460,822,1,992,50,82732,79836,65700,0,59368,0,0,0
o,0x00000000,1680088111.188097,172.16.1.2,65242,172.16.3.2,5201,1073725440,66645,6,62848,65728,6,6,4,1460,822,1,992,50,82732,79836,65700,0,60816,0,0,0
i,0x00000000,1680088111.208294,172.16.1.2,65242,172.16.3.2,5201,1073725440,66645,6,62848,65728,6,6,4,1460,822,1,992,50,82732,82732,65700,0,62264,0,0,0
o,0x00000000,1680088111.208406,172.16.1.2,65242,172.16.3.2,5201,1073725440,66645,6,64256,65728,6,6,4,1460,832,1,992,52,82732,79836,65700,0,59368,0,0,0
o,0x00000000,1680088111.208520,172.16.1.2,65242,172.16.3.2,5201,1073725440,66645,6,64256,65728,6,6,4,1460,832,1,992,52,82732,79836,65700,0,60816,0,0,0
o,0x00000000,1680088111.208622,172.16.1.2,65242,172.16.3.2,5201,1073725440,66645,6,64256,65728,6,6,4,1460,832,1,992,52,82732,79836,65700,0,62264,0,0,0
i,0x00000000,1680088111.208707,172.16.1.2,65242,172.16.3.2,5201,1073725440,66645,6,64256,65728,6,6,4,1460,832,1,992,52,82732,79836,65700,0,63712,0,0,0
o,0x00000000,1680088111.208836,172.16.1.2,65242,172.16.3.2,5201,1073725440,66645,6,64256,65728,6,6,4,1460,840,1,992,53,82732,76940,65700,0,60816,0,0,0
o,0x00000000,1680088111.208925,172.16.1.2,65242,172.16.3.2,5201,1073725440,66645,6,64256,65728,6,6,4,1460,840,1,992,53,82732,76940,65700,0,62264,0,0,0
i,0x00000000,1680088111.228367,172.16.1.2,65242,172.16.3.2,5201,1073725440,66645,6,64256,65728,6,6,4,1460,840,1,992,53,82732,82732,65700,0,63712,0,0,0
o,0x00000000,1680088111.228514,172.16.1.2,65242,172.16.3.2,5201,1073725440,66645,6,64256,65728,6,6,4,1460,839,1,992,51,82732,79836,65700,0,60816,0,0,0
o,0x00000000,1680088111.228631,172.16.1.2,65242,172.16.3.2,5201,1073725440,66645,6,64256,65728,6,6,4,1460,839,1,992,51,82732,79836,65700,0,62264,0,0,0
i,0x00000000,1680088111.228738,172.16.1.2,65242,172.16.3.2,5201,1073725440,66645,6,64256,65728,6,6,4,1460,839,1,992,51,82732,79836,65700,0,63712,0,0,0
o,0x00000000,1680088111.228766,172.16.1.2,65242,172.16.3.2,5201,1073725440,66645,6,62848,65728,6,6,4,1460,835,1,992,51,82732,76940,65700,0,60816,0,0,0
i,0x00000000,1680088111.247443,172.16.1.2,65242,172.16.3.2,5201,1073725440,66645,6,62848,65728,6,6,4,1460,835,1,992,51,82732,82732,65700,0,62264,0,0,0
o,0x00000000,1680088111.247544,172.16.1.2,65242,172.16.3.2,5201,1073725440,66645,6,62848,65728,6,6,4,1460,839,1,992,51,82732,79836,65700,0,59368,0,0,0
o,0x00000000,1680088111.247660,172.16.1.2,65242,172.16.3.2,5201,1073725440,66645,6,62848,65728,6,6,4,1460,839,1,992,51,82732,79836,65700,0,60816,0,0,0
i,0x00000000,1680088111.268403,172.16.1.2,65242,172.16.3.2,5201,1073725440,66645,6,62848,65728,6,6,4,1460,839,1,992,51,82732,82732,65700,0,62264,0,0,0
o,0x00000000,1680088111.268426,172.16.1.2,65242,172.16.3.2,5201,1073725440,66645,6,64256,65728,6,6,4,1460,847,1,992,52,82732,79836,65700,0,59368,0,0,0
o,0x00000000,1680088111.268588,172.16.1.2,65242,172.16.3.2,5201,1073725440,66645,6,64256,65728,6,6,4,1460,847,1,992,52,82732,79836,65700,0,60816,0,0,0
o,0x00000000,1680088111.268686,172.16.1.2,65242,172.16.3.2,5201,1073725440,66645,6,64256,65728,6,6,4,1460,847,1,992,52,82732,79836,65700,0,62264,0,0,0
i,0x00000000,1680088111.268773,172.16.1.2,65242,172.16.3.2,5201,1073725440,66645,6,64256,65728,6,6,4,1460,847,1,992,52,82732,79836,65700,0,63712,0,0,0
o,0x00000000,1680088111.268790,172.16.1.2,65242,172.16.3.2,5201,1073725440,66645,6,64256,65728,6,6,4,1460,854,1,992,52,82732,76940,65700,0,60816,0,0,0
o,0x00000000,1680088111.268891,172.16.1.2,65242,172.16.3.2,5201,1073725440,66645,6,64256,65728,6,6,4,1460,854,1,992,52,82732,76940,65700,0,62264,0,0,0
i,0x00000000,1680088111.288437,172.16.1.2,65242,172.16.3.2,5201,1073725440,66645,6,64256,65728,6,6,4,1460,854,1,992,52,82732,82732,65700,0,63712,0,0,0
o,0x00000000,1680088111.288465,172.16.1.2,65242,172.16.3.2,5201,1073725440,66645,6,64256,65728,6,6,4,1460,852,1,992,51,82732,79836,65700,0,60816,0,0,0
o,0x00000000,1680088111.288577,172.16.1.2,65242,172.16.3.2,5201,1073725440,66645,6,64256,65728,6,6,4,1460,852,1,992,51,82732,79836,65700,0,62264,0,0,0
i,0x00000000,1680088111.288687,172.16.1.2,65242,172.16.3.2,5201,1073725440,66645,6,64256,65728,6,6,4,1460,852,1,992,51,82732,79836,65700,0,63712,0,0,0
o,0x00000000,1680088111.288721,172.16.1.2,65242,172.16.3.2,5201,1073725440,66645,6,62848,65728,6,6,4,1460,850,1,992,51,82732,76940,65700,0,60816,0,0,0
i,0x00000000,1680088111.307415,172.16.1.2,65242,172.16.3.2,5201,1073725440,66645,6,62848,65728,6,6,4,1460,850,1,992,51,82732,82732,65700,0,62264,0,0,0
