enable_time_secs=1681814596	enable_time_usecs=368393	siftrver=1.2.4	hz=100	tcp_rtt_scale=32	sysname=FreeBSD	sysver=1400084	ipmode=4
o,0x00000000,1681814596.368816,10.0.2.15,22,10.0.2.2,54196,1073725440,17202,1026,65535,65700,0,0,4,1460,1,0,4,24,33580,68,65700,0,0,0,0,0
o,0x00000000,1681814596.369271,10.0.2.15,22,10.0.2.2,54196,1073725440,17202,1026,65535,65700,0,0,4,1460,1,0,4,24,33580,104,65700,0,68,0,0,0
i,0x00000000,1681814596.369840,10.0.2.15,22,10.0.2.2,54196,1073725440,17202,1026,65535,65700,0,0,4,1460,1,0,4,24,33580,104,65700,0,104,0,0,0
i,0x00000000,1681814596.369887,10.0.2.15,22,10.0.2.2,54196,1073725440,17270,1026,65535,65700,0,0,4,1460,1,0,4,24,33580,36,65700,0,36,0,0,0
o,0x00000000,1681814596.370840,10.0.2.15,22,10.0.2.2,54196,1073725440,17306,1026,65535,65700,0,0,4,1460,1,0,4,24,33580,140,65700,0,0,0,0,0
i,0x00000000,1681814596.372212,10.0.2.15,22,10.0.2.2,54196,1073725440,17306,1026,65535,65700,0,0,4,1460,1,0,4,24,33580,140,65700,0,140,0,0,0
i,0x00000000,1681814596.372314,10.0.2.15,22,10.0.2.2,54196,1073725440,17446,1026,65535,65700,0,0,4,1460,1,0,4,23,33580,0,65700,0,0,0,0,0
i,0x00000000,1681814596.372338,10.0.2.15,22,10.0.2.2,54196,1073725440,17446,1026,65535,65700,0,0,4,1460,1,0,4,23,33580,0,65700,36,0,0,0,0
o,0x00000000,1681814596.372368,10.0.2.15,22,10.0.2.2,54196,1073725440,17446,1026,65535,65700,0,0,4,1460,1,0,5,23,33580,0,65700,96,0,0,0,0
o,0x00000000,1681814596.373654,10.0.2.15,22,10.0.2.2,54196,1073725440,17446,1026,65535,65700,0,0,6,1460,1,0,4,23,33580,0,65700,0,0,0,0,0
i,0x00000000,1681814596.375514,10.0.2.15,22,10.0.2.2,54196,1073725440,17446,1026,65535,65700,0,0,6,1460,1,0,67108884,23,33580,0,65700,0,1,0,0,0
i,0x00000000,1681814596.995732,10.0.2.15,22,10.0.2.2,54194,1073725440,17555,1026,65535,65700,0,0,9,1460,1,0,67108884,24,33580,0,65700,0,0,0,0,0
o,0x00000000,1681814596.996387,10.0.2.15,22,10.0.2.2,54194,1073725440,14600,1026,65535,65700,0,0,10,1460,1,0,67108887,24,33580,0,65700,0,0,0,0,0
i,0x00000000,1681814596.998547,10.0.2.15,22,10.0.2.2,54196,1073725440,17447,1026,65535,65700,0,0,9,1460,1,0,67108884,23,33580,0,65700,0,0,0,0,0
o,0x00000000,1681814596.999129,10.0.2.15,22,10.0.2.2,54196,1073725440,14600,1026,65535,65700,0,0,10,1460,1,0,67108887,23,33580,0,65700,0,0,0,0,0
i,0x00000000,1681814597.703511,10.0.2.15,22,10.0.2.2,54200,1073725440,14600,0,65535,65700,0,0,4,1460,1,0,0,27,33580,0,65700,0,0,0,0,0
o,0x00000000,1681814597.716363,10.0.2.15,22,10.0.2.2,54200,1073725440,14600,1026,65535,65700,0,0,4,1460,1,0,0,27,33580,38,65700,41,0,0,0,0
i,0x00000000,1681814597.717109,10.0.2.15,22,10.0.2.2,54200,1073725440,14600,1026,65535,65700,0,0,4,1460,1,0,0,27,33580,38,65700,0,38,0,0,0
i,0x00000000,1681814597.720051,10.0.2.15,22,10.0.2.2,54200,1073725440,14638,1026,65535,65700,0,0,4,1460,1,0,0,23,33580,0,65700,0,0,0,0,0
i,0x00000000,1681814597.720087,10.0.2.15,22,10.0.2.2,54200,1073725440,14638,1026,65535,65700,0,0,4,1460,1,0,0,23,33580,0,65700,1460,0,0,0,0
o,0x00000000,1681814597.720127,10.0.2.15,22,10.0.2.2,54200,1073725440,14638,1026,65535,65700,0,0,4,1460,1,0,1,23,33580,0,65700,1504,0,0,0,0
o,0x00000000,1681814597.720814,10.0.2.15,22,10.0.2.2,54200,1073725440,14638,1026,65535,65700,0,0,4,1460,1,0,0,23,33580,1056,65700,1504,0,0,0,0
i,0x00000000,1681814597.722217,10.0.2.15,22,10.0.2.2,54200,1073725440,14638,1026,65535,65700,0,0,4,1460,1,0,0,23,33580,1056,65700,0,1056,0,0,0
i,0x00000000,1681814597.724123,10.0.2.15,22,10.0.2.2,54200,1073725440,15694,1026,65535,65700,0,0,4,1460,1,0,0,24,33580,0,65700,0,0,0,0,0
o,0x00000000,1681814597.730111,10.0.2.15,22,10.0.2.2,54200,1073725440,15694,1026,65535,65700,0,0,4,1460,1,0,0,24,33580,484,65700,0,0,0,0,0
i,0x00000000,1681814597.731011,10.0.2.15,22,10.0.2.2,54200,1073725440,15694,1026,65535,65700,0,0,4,1460,1,0,0,24,33580,484,65700,0,484,0,0,0
i,0x00000000,1681814597.737607,10.0.2.15,22,10.0.2.2,54200,1073725440,16178,1026,65535,65700,0,0,4,1460,1,0,0,24,33580,0,65700,0,0,0,0,0
i,0x00000000,1681814597.751848,10.0.2.15,22,10.0.2.2,54200,1073725440,16178,1026,65535,65700,0,0,4,1460,1,0,0,24,33580,0,65700,0,0,0,0,0
o,0x00000000,1681814597.751949,10.0.2.15,22,10.0.2.2,54200,1073725440,16178,1026,65535,65700,0,0,4,1460,1,0,1,24,33580,0,65700,44,0,0,0,0
o,0x00000000,1681814597.752480,10.0.2.15,22,10.0.2.2,54200,1073725440,16178,1026,65535,65700,0,0,4,1460,1,0,0,24,33580,44,65700,0,0,0,0,0
i,0x00000000,1681814597.754044,10.0.2.15,22,10.0.2.2,54200,1073725440,16178,1026,65535,65700,0,0,4,1460,1,0,0,24,33580,44,65700,0,44,0,0,0
i,0x00000000,1681814597.754796,10.0.2.15,22,10.0.2.2,54200,1073725440,16222,1026,65535,65700,0,0,4,1460,1,0,0,24,33580,0,65700,0,0,0,0,0
o,0x00000000,1681814597.760530,10.0.2.15,22,10.0.2.2,54200,1073725440,16222,1026,65535,65700,0,0,4,1460,1,0,0,24,33580,68,65700,0,0,0,0,0
i,0x00000000,1681814597.761253,10.0.2.15,22,10.0.2.2,54200,1073725440,16222,1026,65535,65700,0,0,4,1460,1,0,0,24,33580,68,65700,0,68,0,0,0
i,0x00000000,1681814597.763790,10.0.2.15,22,10.0.2.2,54200,1073725440,16290,1026,65535,65700,0,0,4,1460,1,0,0,24,33580,0,65700,0,0,0,0,0
o,0x00000000,1681814597.770325,10.0.2.15,22,10.0.2.2,54200,1073725440,16290,1026,65535,65700,0,0,4,1460,1,0,0,24,33580,28,65700,0,0,0,0,0
i,0x00000000,1681814597.770687,10.0.2.15,22,10.0.2.2,54200,1073725440,16290,1026,65535,65700,0,0,4,1460,1,0,0,24,33580,28,65700,0,28,0,0,0
i,0x00000000,1681814597.771037,10.0.2.15,22,10.0.2.2,54200,1073725440,16318,1026,65535,65700,0,0,4,1460,1,0,0,24,33580,0,65700,0,0,0,0,0
o,0x00000000,1681814597.772493,10.0.2.15,22,10.0.2.2,54200,1073725440,16318,1026,65535,65700,0,0,4,1460,1,0,0,24,33580,768,65700,112,0,0,0,0
i,0x00000000,1681814597.772876,10.0.2.15,22,10.0.2.2,54200,1073725440,16318,1026,65535,65700,0,0,4,1460,1,0,0,24,33580,768,65700,0,768,0,0,0
o,0x00000000,1681814597.772973,10.0.2.15,22,10.0.2.2,54200,1073725440,17086,1026,65535,65700,0,0,4,1460,1,0,0,24,33580,44,65700,0,0,0,0,0
i,0x00000000,1681814597.773584,10.0.2.15,22,10.0.2.2,54200,1073725440,17086,1026,65535,65700,0,0,4,1460,1,0,0,24,33580,44,65700,0,44,0,0,0
i,0x00000000,1681814597.774870,10.0.2.15,22,10.0.2.2,54200,1073725440,17130,1026,65535,65700,0,0,4,1460,1,0,0,24,33580,0,65700,0,0,0,0,0
o,0x00000000,1681814597.776848,10.0.2.15,22,10.0.2.2,54200,1073725440,17130,1026,65535,65700,0,0,4,1460,1,0,4,24,33580,72,65700,0,0,0,0,0
i,0x00000000,1681814597.778079,10.0.2.15,22,10.0.2.2,54200,1073725440,17130,1026,65535,65700,0,0,4,1460,1,0,4,24,33580,72,65700,0,72,0,0,0
o,0x00000000,1681814597.796627,172.16.1.2,49952,172.16.3.2,5201,1073725440,1073725440,2,0,0,0,0,2,536,0,1,672,100,32768,0,65536,0,0,0,0,0
i,0x00000000,1681814597.916901,172.16.1.2,49952,172.16.3.2,5201,1073725440,1073725440,2,0,0,0,0,2,536,0,1,672,100,32768,0,65536,0,1,0,0,0
o,0x00000000,1681814597.916956,172.16.1.2,49952,172.16.3.2,5201,54375,14480,2,65535,65700,6,6,4,1460,498,1,993,45,33580,0,65700,0,0,0,0,0
o,0x00000000,1681814597.917612,172.16.1.2,49952,172.16.3.2,5201,54375,14480,2,65535,65700,6,6,4,1460,498,1,996,45,33580,37,65700,0,0,0,0,0
i,0x00000000,1681814598.035977,172.16.1.2,49952,172.16.3.2,5201,54375,14480,2,65535,65700,6,6,4,1460,498,1,996,45,33580,37,65700,0,37,0,0,0
o,0x00000000,1681814598.036843,172.16.1.2,49952,172.16.3.2,5201,54375,14517,1026,65728,65728,6,6,4,1460,484,1,996,46,33580,4,65700,0,0,0,0,0
o,0x00000000,1681814598.040894,172.16.1.2,49952,172.16.3.2,5201,54375,14517,1026,65728,65728,6,6,4,1460,484,1,996,46,33580,128,65700,0,4,0,0,0
i,0x00000000,1681814598.160011,172.16.1.2,49952,172.16.3.2,5201,54375,14517,1026,65728,65728,6,6,4,1460,484,1,996,46,33580,128,65700,0,128,0,0,0
i,0x00000000,1681814598.160035,172.16.1.2,49952,172.16.3.2,5201,54375,14645,1026,65600,65728,6,6,4,1460,468,1,996,46,33580,0,65700,0,0,0,0,0
o,0x00000000,1681814598.160605,172.16.1.2,64734,172.16.3.2,5201,1073725440,1073725440,2,0,0,0,0,2,536,0,1,672,100,32768,0,65536,0,0,0,0,0
o,0x00000000,1681814598.238710,172.16.1.2,49952,172.16.3.2,5201,54375,14645,1026,65728,65728,6,6,4,1460,468,1,997,46,33580,0,65700,0,0,0,0,0
i,0x00000000,1681814598.264965,172.16.1.2,64734,172.16.3.2,5201,1073725440,1073725440,2,0,0,0,0,2,536,0,1,672,100,32768,0,65536,0,1,0,0,0
o,0x00000000,1681814598.265148,172.16.1.2,64734,172.16.3.2,5201,54375,14480,2,65535,65700,6,6,4,1460,494,1,993,46,33580,0,65700,0,0,0,0,0
o,0x00000000,1681814598.265367,172.16.1.2,64734,172.16.3.2,5201,54375,14480,2,65535,65700,6,6,4,1460,494,1,992,46,33580,37,65700,0,0,0,0,0
i,0x00000000,1681814598.387371,172.16.1.2,49952,172.16.3.2,5201,54375,14645,1026,65728,65728,6,6,4,1460,468,1,996,46,33580,0,65700,0,0,0,0,0
i,0x00000000,1681814598.387436,172.16.1.2,49952,172.16.3.2,5201,54375,14645,1026,65728,65728,6,6,4,1460,468,1,996,46,33580,0,65700,1,0,0,0,0
o,0x00000000,1681814598.387465,172.16.1.2,49952,172.16.3.2,5201,54375,14645,1026,65728,65728,6,6,4,1460,468,1,997,46,33580,0,65700,1,0,0,0,0
o,0x00000000,1681814598.387814,172.16.1.2,64734,172.16.3.2,5201,54375,14480,6,65535,65700,6,6,4,1460,494,1,992,46,33580,33580,65700,0,37,0,0,0
o,0x00000000,1681814598.388242,172.16.1.2,64734,172.16.3.2,5201,54375,14480,6,65535,65700,6,6,4,1460,494,1,992,46,33580,33580,65700,0,1485,0,0,0
o,0x00000000,1681814598.388602,172.16.1.2,64734,172.16.3.2,5201,54375,14480,6,65535,65700,6,6,4,1460,494,1,992,46,33580,33580,65700,0,2933,0,0,0
o,0x00000000,1681814598.388987,172.16.1.2,64734,172.16.3.2,5201,54375,14480,6,65535,65700,6,6,4,1460,494,1,992,46,33580,33580,65700,0,4381,0,0,0
o,0x00000000,1681814598.389351,172.16.1.2,64734,172.16.3.2,5201,54375,14480,6,65535,65700,6,6,4,1460,494,1,992,46,33580,33580,65700,0,5829,0,0,0
o,0x00000000,1681814598.389688,172.16.1.2,64734,172.16.3.2,5201,54375,14480,6,65535,65700,6,6,4,1460,494,1,992,46,33580,33580,65700,0,7277,0,0,0
o,0x00000000,1681814598.390066,172.16.1.2,64734,172.16.3.2,5201,54375,14480,6,65535,65700,6,6,4,1460,494,1,992,46,33580,33580,65700,0,8725,0,0,0
o,0x00000000,1681814598.390434,172.16.1.2,64734,172.16.3.2,5201,54375,14480,6,65535,65700,6,6,4,1460,494,1,992,46,33580,33580,65700,0,10173,0,0,0
o,0x00000000,1681814598.390862,172.16.1.2,64734,172.16.3.2,5201,54375,14480,6,65535,65700,6,6,4,1460,494,1,992,46,33580,33580,65700,0,11621,0,0,0
i,0x00000000,1681814598.415634,172.16.1.2,64734,172.16.3.2,5201,54375,14480,6,65535,65700,6,6,4,1460,494,1,992,46,33580,33580,65700,0,13069,0,0,0
o,0x00000000,1681814598.415789,172.16.1.2,64734,172.16.3.2,5201,54375,14517,6,65728,65728,6,6,4,1460,493,1,992,43,33580,33543,65700,0,13032,0,0,0
i,0x00000000,1681814598.627975,172.16.1.2,64734,172.16.3.2,5201,54375,14517,6,65728,65728,6,6,4,1460,493,1,992,43,33580,33543,65700,0,14480,0,0,0
o,0x00000000,1681814598.628017,172.16.1.2,64734,172.16.3.2,5201,54375,17413,6,64256,65728,6,6,4,1460,528,1,992,51,33580,30647,65700,0,11584,0,0,0
o,0x00000000,1681814598.628159,172.16.1.2,64734,172.16.3.2,5201,54375,17413,6,64256,65728,6,6,4,1460,528,1,992,51,33580,30647,65700,0,13032,0,0,0
o,0x00000000,1681814598.628251,172.16.1.2,64734,172.16.3.2,5201,54375,17413,6,64256,65728,6,6,4,1460,528,1,992,51,41772,30647,65700,0,14480,0,0,0
o,0x00000000,1681814598.628341,172.16.1.2,64734,172.16.3.2,5201,54375,17413,6,64256,65728,6,6,4,1460,528,1,992,51,41772,30647,65700,0,15928,0,0,0
i,0x00000000,1681814598.647809,172.16.1.2,64734,172.16.3.2,5201,54375,17413,6,64256,65728,6,6,4,1460,528,1,992,51,41772,41772,65700,0,17376,0,0,0
o,0x00000000,1681814598.647874,172.16.1.2,64734,172.16.3.2,5201,54375,20309,6,64256,65728,6,6,4,1460,566,1,992,58,41772,38876,65700,0,14480,0,0,0
o,0x00000000,1681814598.648097,172.16.1.2,64734,172.16.3.2,5201,54375,20309,6,64256,65728,6,6,4,1460,566,1,992,58,41772,38876,65700,0,15928,0,0,0
o,0x00000000,1681814598.648242,172.16.1.2,64734,172.16.3.2,5201,54375,20309,6,64256,65728,6,6,4,1460,566,1,992,58,41772,38876,65700,0,17376,0,0,0
o,0x00000000,1681814598.648355,172.16.1.2,64734,172.16.3.2,5201,54375,20309,6,64256,65728,6,6,4,1460,566,1,992,58,49964,38876,65700,0,18824,0,0,0
i,0x00000000,1681814598.679978,172.16.1.2,64734,172.16.3.2,5201,54375,20309,6,64256,65728,6,6,4,1460,566,1,992,58,49964,49964,65700,0,20272,0,0,0
o,0x00000000,1681814598.680025,172.16.1.2,64734,172.16.3.2,5201,54375,23205,6,64256,65728,6,6,4,1460,612,1,992,66,49964,47068,65700,0,17376,0,0,0
o,0x00000000,1681814598.680178,172.16.1.2,64734,172.16.3.2,5201,54375,23205,6,64256,65728,6,6,4,1460,612,1,992,66,49964,47068,65700,0,18824,0,0,0
o,0x00000000,1681814598.680299,172.16.1.2,64734,172.16.3.2,5201,54375,23205,6,64256,65728,6,6,4,1460,612,1,992,66,49964,47068,65700,0,20272,0,0,0
o,0x00000000,1681814598.680420,172.16.1.2,64734,172.16.3.2,5201,54375,23205,6,64256,65728,6,6,4,1460,612,1,992,66,49964,47068,65700,0,21720,0,0,0
i,0x00000000,1681814598.696855,172.16.1.2,64734,172.16.3.2,5201,54375,23205,6,64256,65728,6,6,4,1460,612,1,992,66,49964,49964,65700,0,23168,0,0,0
o,0x00000000,1681814598.697118,172.16.1.2,64734,172.16.3.2,5201,54375,26101,6,64256,65728,6,6,4,1460,660,1,992,73,49964,47068,65700,0,20272,0,0,0
o,0x00000000,1681814598.697411,172.16.1.2,64734,172.16.3.2,5201,54375,26101,6,64256,65728,6,6,4,1460,660,1,992,73,58156,47068,65700,0,21720,0,0,0
o,0x00000000,1681814598.697632,172.16.1.2,64734,172.16.3.2,5201,54375,26101,6,64256,65728,6,6,4,1460,660,1,992,73,58156,47068,65700,0,23168,0,0,0
o,0x00000000,1681814598.697928,172.16.1.2,64734,172.16.3.2,5201,54375,26101,6,64256,65728,6,6,4,1460,660,1,992,73,58156,47068,65700,0,24616,0,0,0
i,0x00000000,1681814598.729674,172.16.1.2,64734,172.16.3.2,5201,54375,26101,6,64256,65728,6,6,4,1460,660,1,992,73,58156,58156,65700,0,26064,0,0,0
o,0x00000000,1681814598.729815,172.16.1.2,64734,172.16.3.2,5201,54375,28997,6,64256,65728,6,6,4,1460,714,1,992,80,58156,55260,65700,0,23168,0,0,0
o,0x00000000,1681814598.729943,172.16.1.2,64734,172.16.3.2,5201,54375,28997,6,64256,65728,6,6,4,1460,714,1,992,80,58156,55260,65700,0,24616,0,0,0
o,0x00000000,1681814598.730039,172.16.1.2,64734,172.16.3.2,5201,54375,28997,6,64256,65728,6,6,4,1460,714,1,992,80,58156,55260,65700,0,26064,0,0,0
o,0x00000000,1681814598.730129,172.16.1.2,64734,172.16.3.2,5201,54375,28997,6,64256,65728,6,6,4,1460,714,1,992,80,66348,55260,65700,0,27512,0,0,0
i,0x00000000,1681814598.860285,172.16.1.2,64734,172.16.3.2,5201,54375,28997,6,64256,65728,6,6,4,1460,714,1,992,80,66348,66348,65700,0,28960,0,0,0
o,0x00000000,1681814598.860389,172.16.1.2,64734,172.16.3.2,5201,54375,31893,6,64256,65728,6,6,4,1460,717,1,992,71,66348,63452,65700,0,26064,0,0,0
o,0x00000000,1681814598.860498,172.16.1.2,64734,172.16.3.2,5201,54375,31893,6,64256,65728,6,6,4,1460,717,1,992,71,66348,63452,65700,0,27512,0,0,0
o,0x00000000,1681814598.860590,172.16.1.2,64734,172.16.3.2,5201,54375,31893,6,64256,65728,6,6,4,1460,717,1,992,71,66348,63452,65700,0,28960,0,0,0
o,0x00000000,1681814598.860695,172.16.1.2,64734,172.16.3.2,5201,54375,31893,6,64256,65728,6,6,4,1460,717,1,992,71,66348,63452,65700,0,30408,0,0,0
i,0x00000000,1681814598.950078,172.16.1.2,64734,172.16.3.2,5201,54375,31893,6,64256,65728,6,6,4,1460,717,1,992,71,74540,74540,65700,0,31856,0,0,0
o,0x00000000,1681814598.950515,172.16.1.2,64734,172.16.3.2,5201,54375,33341,6,65728,65728,6,6,4,1460,756,1,992,75,74540,73092,65700,0,30408,0,0,0
o,0x00000000,1681814598.950703,172.16.1.2,64734,172.16.3.2,5201,54375,33341,6,65728,65728,6,6,4,1460,756,1,992,75,74540,73092,65700,0,31856,0,0,0
i,0x00000000,1681814598.975360,172.16.1.2,64734,172.16.3.2,5201,54375,33341,6,65728,65728,6,6,4,1460,756,1,992,75,74540,73092,65700,0,33304,0,0,0
o,0x00000000,1681814598.975518,172.16.1.2,64734,172.16.3.2,5201,54375,36237,6,64256,65728,6,6,4,1460,802,1,992,80,74540,70196,65700,0,30408,0,0,0
o,0x00000000,1681814598.975682,172.16.1.2,64734,172.16.3.2,5201,54375,36237,6,64256,65728,6,6,4,1460,802,1,992,80,74540,70196,65700,0,31856,0,0,0
o,0x00000000,1681814598.975815,172.16.1.2,64734,172.16.3.2,5201,54375,36237,6,64256,65728,6,6,4,1460,802,1,992,80,74540,70196,65700,0,33304,0,0,0
o,0x00000000,1681814598.975946,172.16.1.2,64734,172.16.3.2,5201,54375,36237,6,64256,65728,6,6,4,1460,802,1,992,80,82732,70196,65700,0,34752,0,0,0
i,0x00000000,1681814599.044677,172.16.1.2,64734,172.16.3.2,5201,54375,36237,6,64256,65728,6,6,4,1460,802,1,992,80,82732,82732,65700,0,36200,0,0,0
o,0x00000000,1681814599.045027,172.16.1.2,64734,172.16.3.2,5201,54375,37685,6,65728,65728,6,6,4,1460,862,1,992,88,82732,81284,65700,0,34752,0,0,0
o,0x00000000,1681814599.045371,172.16.1.2,64734,172.16.3.2,5201,54375,37685,6,65728,65728,6,6,4,1460,862,1,992,88,82732,81284,65700,0,36200,0,0,0
i,0x00000000,1681814599.078324,172.16.1.2,64734,172.16.3.2,5201,54375,37685,6,65728,65728,6,6,4,1460,862,1,992,88,82732,81284,65700,0,37648,0,0,0
o,0x00000000,1681814599.078475,172.16.1.2,64734,172.16.3.2,5201,54375,40581,6,64256,65728,6,6,4,1460,927,1,992,96,82732,78388,65700,0,34752,0,0,0
o,0x00000000,1681814599.079157,172.16.1.2,64734,172.16.3.2,5201,54375,40581,6,64256,65728,6,6,4,1460,927,1,992,96,82732,78388,65700,0,36200,0,0,0
o,0x00000000,1681814599.079774,172.16.1.2,64734,172.16.3.2,5201,54375,40581,6,64256,65728,6,6,4,1460,927,1,992,96,82732,78388,65700,0,37648,0,0,0
o,0x00000000,1681814599.080496,172.16.1.2,64734,172.16.3.2,5201,54375,40581,6,64256,65728,6,6,4,1460,927,1,992,96,82732,78388,65700,0,39096,0,0,0
i,0x00000000,1681814599.098121,172.16.1.2,64734,172.16.3.2,5201,54375,40581,6,64256,65728,6,6,4,1460,927,1,992,96,82732,82732,65700,0,40544,0,0,0
o,0x00000000,1681814599.098208,172.16.1.2,64734,172.16.3.2,5201,54375,43477,6,64256,65728,6,6,4,1460,980,1,992,99,82732,79836,65700,0,37648,0,0,0
o,0x00000000,1681814599.098648,172.16.1.2,64734,172.16.3.2,5201,54375,43477,6,64256,65728,6,6,4,1460,980,1,992,99,82732,79836,65700,0,39096,0,0,0
o,0x00000000,1681814599.099130,172.16.1.2,64734,172.16.3.2,5201,54375,43477,6,64256,65728,6,6,4,1460,980,1,992,99,82732,79836,65700,0,40544,0,0,0
o,0x00000000,1681814599.099787,172.16.1.2,64734,172.16.3.2,5201,54375,43477,6,64256,65728,6,6,4,1460,980,1,992,99,82732,79836,65700,0,41992,0,0,0
i,0x00000000,1681814599.126728,172.16.1.2,64734,172.16.3.2,5201,54375,43477,6,64256,65728,6,6,4,1460,980,1,992,99,82732,82732,65700,0,43440,0,0,0
o,0x00000000,1681814599.126846,172.16.1.2,64734,172.16.3.2,5201,54375,46373,6,64256,65728,6,6,4,1460,1038,1,992,103,82732,79836,65700,0,40544,0,0,0
o,0x00000000,1681814599.127324,172.16.1.2,64734,172.16.3.2,5201,54375,46373,6,64256,65728,6,6,4,1460,1038,1,992,103,82732,79836,65700,0,41992,0,0,0
o,0x00000000,1681814599.127727,172.16.1.2,64734,172.16.3.2,5201,54375,46373,6,64256,65728,6,6,4,1460,1038,1,992,103,82732,79836,65700,0,43440,0,0,0
o,0x00000000,1681814599.128107,172.16.1.2,64734,172.16.3.2,5201,54375,46373,6,64256,65728,6,6,4,1460,1038,1,992,103,82732,79836,65700,0,44888,0,0,0
i,0x00000000,1681814599.169576,172.16.1.2,64734,172.16.3.2,5201,54375,46373,6,64256,65728,6,6,4,1460,1038,1,992,103,82732,82732,65700,0,46336,0,0,0
o,0x00000000,1681814599.169663,172.16.1.2,64734,172.16.3.2,5201,54375,47821,6,65728,65728,6,6,4,1460,1093,1,992,106,82732,81284,65700,0,44888,0,0,0
o,0x00000000,1681814599.170017,172.16.1.2,64734,172.16.3.2,5201,54375,47821,6,65728,65728,6,6,4,1460,1093,1,992,106,82732,81284,65700,0,46336,0,0,0
i,0x00000000,1681814599.208405,172.16.1.2,64734,172.16.3.2,5201,54375,47821,6,65728,65728,6,6,4,1460,1093,1,992,106,82732,81284,65700,0,47784,0,0,0
o,0x00000000,1681814599.208440,172.16.1.2,64734,172.16.3.2,5201,54375,50717,6,64256,65728,6,6,4,1460,1157,1,992,111,82732,78388,65700,0,44888,0,0,0
o,0x00000000,1681814599.208542,172.16.1.2,64734,172.16.3.2,5201,54375,50717,6,64256,65728,6,6,4,1460,1157,1,992,111,82732,78388,65700,0,46336,0,0,0
o,0x00000000,1681814599.208681,172.16.1.2,64734,172.16.3.2,5201,54375,50717,6,64256,65728,6,6,4,1460,1157,1,992,111,82732,78388,65700,0,47784,0,0,0
o,0x00000000,1681814599.208890,172.16.1.2,64734,172.16.3.2,5201,54375,50717,6,64256,65728,6,6,4,1460,1157,1,992,111,82732,78388,65700,0,49232,0,0,0
i,0x00000000,1681814599.240085,172.16.1.2,64734,172.16.3.2,5201,54375,50717,6,64256,65728,6,6,4,1460,1157,1,992,111,82732,82732,65700,0,50680,0,0,0
o,0x00000000,1681814599.240194,172.16.1.2,64734,172.16.3.2,5201,54375,53613,6,64256,65728,6,6,4,1460,1225,1,992,117,82732,79836,65700,0,47784,0,0,0
o,0x00000000,1681814599.240367,172.16.1.2,64734,172.16.3.2,5201,54375,53613,6,64256,65728,6,6,4,1460,1225,1,992,117,82732,79836,65700,0,49232,0,0,0
o,0x00000000,1681814599.240504,172.16.1.2,64734,172.16.3.2,5201,54375,53613,6,64256,65728,6,6,4,1460,1225,1,992,117,82732,79836,65700,0,50680,0,0,0
o,0x00000000,1681814599.240643,172.16.1.2,64734,172.16.3.2,5201,54375,53613,6,64256,65728,6,6,4,1460,1225,1,992,117,82732,79836,65700,0,52128,0,0,0
i,0x00000000,1681814599.291227,172.16.1.2,64734,172.16.3.2,5201,54375,53613,6,64256,65728,6,6,4,1460,1225,1,992,117,82732,82732,65700,0,53576,0,0,0
o,0x00000000,1681814599.291266,172.16.1.2,64734,172.16.3.2,5201,54375,56509,6,64256,65728,6,6,4,1460,1296,1,992,122,82732,79836,65700,0,50680,0,0,0
o,0x00000000,1681814599.291399,172.16.1.2,64734,172.16.3.2,5201,54375,56509,6,64256,65728,6,6,4,1460,1296,1,992,122,82732,79836,65700,0,52128,0,0,0
o,0x00000000,1681814599.291514,172.16.1.2,64734,172.16.3.2,5201,54375,56509,6,64256,65728,6,6,4,1460,1296,1,992,122,82732,79836,65700,0,53576,0,0,0
o,0x00000000,1681814599.291694,172.16.1.2,64734,172.16.3.2,5201,54375,56509,6,64256,65728,6,6,4,1460,1296,1,992,122,82732,79836,65700,0,55024,0,0,0
i,0x00000000,1681814599.322834,172.16.1.2,64734,172.16.3.2,5201,54375,56509,6,64256,65728,6,6,4,1460,1296,1,992,122,82732,82732,65700,0,56472,0,0,0
o,0x00000000,1681814599.322982,172.16.1.2,64734,172.16.3.2,5201,54375,56509,6,65728,65728,6,6,4,1460,1374,1,992,128,82732,81284,65700,0,55024,0,0,0
i,0x00000000,1681814599.415002,172.16.1.2,64734,172.16.3.2,5201,54375,56509,6,65728,65728,6,6,4,1460,1374,1,992,128,82732,81284,65700,0,56472,0,0,0
o,0x00000000,1681814599.415044,172.16.1.2,64734,172.16.3.2,5201,54375,57920,2,65728,65728,6,6,4,1460,1374,1,992,128,82732,81284,65700,0,56472,0,0,0
i,0x00000000,1681814599.490309,172.16.1.2,64734,172.16.3.2,5201,54375,56509,2,65728,65728,6,6,4,1460,1374,1,992,128,82732,81284,65700,0,57920,0,0,0
o,0x00000000,1681814599.490389,172.16.1.2,64734,172.16.3.2,5201,54375,59368,2,65728,65728,6,6,4,1460,1374,1,992,128,82732,81284,65700,0,57920,0,0,0
i,0x00000000,1681814599.551385,172.16.1.2,64734,172.16.3.2,5201,54375,56509,2,65728,65728,6,6,4,1460,1374,1,992,128,82732,81284,65700,0,59368,0,0,0
o,0x00000000,1681814599.551478,172.16.1.2,64734,172.16.3.2,5201,28254,1448,2,65728,65728,6,6,4,1460,1374,1,537920480,128,82732,81284,65700,0,59368,0,0,0
i,0x00000000,1681814599.624646,172.16.1.2,64734,172.16.3.2,5201,28254,1448,2,65728,65728,6,6,4,1460,1374,1,537920480,128,82732,81284,65700,0,59368,0,0,0
i,0x00000000,1681814599.647951,172.16.1.2,64734,172.16.3.2,5201,28254,1448,2,65728,65728,6,6,4,1460,1374,1,537920480,128,82732,81284,65700,0,59368,0,0,0
o,0x00000000,1681814599.647992,172.16.1.2,64734,172.16.3.2,5201,28254,2896,2,65728,65728,6,6,4,1460,1374,1,537920480,128,82732,81284,65700,0,59368,0,0,0
i,0x00000000,1681814599.654086,172.16.1.2,64734,172.16.3.2,5201,28254,2896,2,65728,65728,6,6,4,1460,1374,1,537920480,128,82732,81284,65700,0,59368,0,0,0
i,0x00000000,1681814599.728525,172.16.1.2,64734,172.16.3.2,5201,28254,2896,2,65728,65728,6,6,4,1460,1374,1,537920480,128,82732,81284,65700,0,59368,0,0,0
o,0x00000000,1681814599.728560,172.16.1.2,64734,172.16.3.2,5201,28254,4344,2,65728,65728,6,6,4,1460,1374,1,537920480,128,82732,81284,65700,0,59368,0,0,0
i,0x00000000,1681814599.748346,172.16.1.2,64734,172.16.3.2,5201,28254,4344,2,65728,65728,6,6,4,1460,1374,1,537920480,128,82732,81284,65700,0,59368,0,0,0
i,0x00000000,1681814599.754990,172.16.1.2,64734,172.16.3.2,5201,28254,4344,2,65728,65728,6,6,4,1460,1374,1,537920480,128,82732,81284,65700,0,59368,0,0,0
o,0x00000000,1681814599.755026,172.16.1.2,64734,172.16.3.2,5201,28254,5792,2,65728,65728,6,6,4,1460,1374,1,537920480,128,82732,81284,65700,0,59368,0,0,0
i,0x00000000,1681814599.789030,172.16.1.2,64734,172.16.3.2,5201,28254,5792,2,65728,65728,6,6,4,1460,1374,1,537920480,128,82732,81284,65700,0,59368,0,0,0
i,0x00000000,1681814599.789059,172.16.1.2,64734,172.16.3.2,5201,28254,5792,2,65728,65728,6,6,4,1460,1374,1,537920480,128,82732,81284,65700,0,59368,0,0,0
o,0x00000000,1681814599.789085,172.16.1.2,64734,172.16.3.2,5201,28254,7240,2,65728,65728,6,6,4,1460,1374,1,537920480,128,82732,81284,65700,0,59368,0,0,0
i,0x00000000,1681814599.790171,172.16.1.2,64734,172.16.3.2,5201,28254,7240,2,65728,65728,6,6,4,1460,1374,1,537920480,128,82732,81284,65700,0,59368,0,0,0
i,0x00000000,1681814599.831547,172.16.1.2,64734,172.16.3.2,5201,28254,7240,2,65728,65728,6,6,4,1460,1374,1,537920480,128,82732,81284,65700,0,59368,0,0,0
o,0x00000000,1681814599.831585,172.16.1.2,64734,172.16.3.2,5201,28254,8688,2,65728,65728,6,6,4,1460,1374,1,537920480,128,82732,81284,65700,0,59368,0,0,0
i,0x00000000,1681814599.831734,172.16.1.2,64734,172.16.3.2,5201,28254,8688,2,65728,65728,6,6,4,1460,1374,1,537920480,128,82732,81284,65700,0,59368,0,0,0
i,0x00000000,1681814599.831757,172.16.1.2,64734,172.16.3.2,5201,28254,8688,2,65728,65728,6,6,4,1460,1374,1,537920480,128,82732,81284,65700,0,59368,0,0,0
o,0x00000000,1681814599.831802,172.16.1.2,64734,172.16.3.2,5201,28254,10136,2,65728,65728,6,6,4,1460,1374,1,537920480,128,82732,81284,65700,0,59368,0,0,0
i,0x00000000,1681814599.862923,172.16.1.2,64734,172.16.3.2,5201,28254,10136,2,65728,65728,6,6,4,1460,1374,1,537920480,128,82732,81284,65700,0,59368,0,0,0
i,0x00000000,1681814599.863926,172.16.1.2,64734,172.16.3.2,5201,28254,10136,2,65728,65728,6,6,4,1460,1374,1,537920480,128,82732,81284,65700,0,59368,0,0,0
o,0x00000000,1681814599.863954,172.16.1.2,64734,172.16.3.2,5201,28254,11584,2,65728,65728,6,6,4,1460,1374,1,537920480,128,82732,81284,65700,0,59368,0,0,0
i,0x00000000,1681814599.894573,172.16.1.2,64734,172.16.3.2,5201,28254,11584,2,65728,65728,6,6,4,1460,1374,1,537920480,128,82732,81284,65700,0,59368,0,0,0
i,0x00000000,1681814599.894664,172.16.1.2,64734,172.16.3.2,5201,28254,11584,2,65728,65728,6,6,4,1460,1374,1,537920480,128,82732,81284,65700,0,59368,0,0,0
o,0x00000000,1681814599.894743,172.16.1.2,64734,172.16.3.2,5201,28254,13032,2,65728,65728,6,6,4,1460,1374,1,537920480,128,82732,81284,65700,0,59368,0,0,0
i,0x00000000,1681814599.935806,172.16.1.2,64734,172.16.3.2,5201,28254,13032,2,65728,65728,6,6,4,1460,1374,1,537920480,128,82732,81284,65700,0,59368,0,0,0
i,0x00000000,1681814599.954099,172.16.1.2,64734,172.16.3.2,5201,28254,13032,2,65728,65728,6,6,4,1460,1374,1,537920480,128,82732,81284,65700,0,59368,0,0,0
i,0x00000000,1681814599.954206,172.16.1.2,64734,172.16.3.2,5201,28254,13032,2,65728,65728,6,6,4,1460,1374,1,537920480,128,82732,81284,65700,0,59368,0,0,0
o,0x00000000,1681814599.954323,172.16.1.2,64734,172.16.3.2,5201,28254,14480,2,65728,65728,6,6,4,1460,1374,1,537920480,128,82732,81284,65700,0,59368,0,0,0
i,0x00000000,1681814599.985556,172.16.1.2,64734,172.16.3.2,5201,28254,14480,2,65728,65728,6,6,4,1460,1374,1,537920480,128,82732,81284,65700,0,59368,0,0,0
i,0x00000000,1681814599.985587,172.16.1.2,64734,172.16.3.2,5201,28254,14480,2,65728,65728,6,6,4,1460,1374,1,537920480,128,82732,81284,65700,0,59368,0,0,0
o,0x00000000,1681814599.985615,172.16.1.2,64734,172.16.3.2,5201,28254,14480,2,65728,65728,6,6,4,1460,1374,1,537920480,128,82732,81284,65700,0,59368,0,0,0
i,0x00000000,1681814600.035166,172.16.1.2,64734,172.16.3.2,5201,28254,14480,2,65728,65728,6,6,4,1460,1374,1,537920480,128,82732,81284,65700,0,59368,0,0,0
i,0x00000000,1681814600.035212,172.16.1.2,64734,172.16.3.2,5201,28254,13032,2,65728,65728,6,6,4,1460,1374,1,537920480,128,82732,81284,65700,0,59368,0,0,0
o,0x00000000,1681814600.035243,172.16.1.2,64734,172.16.3.2,5201,28254,13032,2,65728,65728,6,6,4,1460,1374,1,537920480,128,82732,81284,65700,0,59368,0,0,0
i,0x00000000,1681814600.075191,172.16.1.2,64734,172.16.3.2,5201,28254,13032,2,65728,65728,6,6,4,1460,1374,1,537920480,128,82732,81284,65700,0,59368,0,0,0
i,0x00000000,1681814600.129589,172.16.1.2,64734,172.16.3.2,5201,28254,11584,2,65728,65728,6,6,4,1460,1374,1,537920480,128,82732,81284,65700,0,59368,0,0,0
o,0x00000000,1681814600.129616,172.16.1.2,64734,172.16.3.2,5201,28254,11584,2,65728,65728,6,6,4,1460,1374,1,537920480,128,82732,81284,65700,0,59368,0,0,0
i,0x00000000,1681814600.158461,172.16.1.2,64734,172.16.3.2,5201,28254,11584,2,65728,65728,6,6,4,1460,1374,1,537920480,128,82732,81284,65700,0,59368,0,0,0
i,0x00000000,1681814600.267838,172.16.1.2,64734,172.16.3.2,5201,28254,10136,2,65728,65728,6,6,4,1460,1374,1,537920480,128,82732,81284,65700,0,59368,0,0,0
o,0x00000000,1681814600.267988,172.16.1.2,64734,172.16.3.2,5201,28254,11584,6,65728,65728,6,6,4,1460,1374,1,537920480,128,82732,81284,65700,0,59368,0,0,0
o,0x00000000,1681814600.268446,172.16.1.2,64734,172.16.3.2,5201,28254,11584,2,65728,65728,6,6,4,1460,1374,1,537920480,128,82732,81284,65700,0,59368,0,0,0
i,0x00000000,1681814600.411414,172.16.1.2,64734,172.16.3.2,5201,28254,11584,2,65728,65728,6,6,4,1460,1374,1,537920480,128,82732,81284,65700,0,59368,0,0,0
o,0x00000000,1681814600.411459,172.16.1.2,64734,172.16.3.2,5201,28254,13032,2,65728,65728,6,6,4,1460,1374,1,537920480,128,82732,81284,65700,0,59368,0,0,0
o,0x00000000,1681814600.411646,172.16.1.2,64734,172.16.3.2,5201,28254,13032,2,65728,65728,6,6,4,1460,1374,1,537920480,128,82732,81284,65700,0,59368,0,0,0
i,0x00000000,1681814600.413047,172.16.1.2,64734,172.16.3.2,5201,28254,13032,2,65728,65728,6,6,4,1460,1374,1,537920480,128,82732,81284,65700,0,59368,0,0,0
o,0x00000000,1681814600.413161,172.16.1.2,64734,172.16.3.2,5201,28254,14480,2,65728,65728,6,6,4,1460,1374,1,537920480,128,82732,81284,65700,0,59368,0,0,0
o,0x00000000,1681814600.413785,172.16.1.2,64734,172.16.3.2,5201,28254,14480,2,65728,65728,6,6,4,1460,1374,1,537920480,128,82732,81284,65700,0,59368,0,0,0
i,0x00000000,1681814600.546805,172.16.1.2,64734,172.16.3.2,5201,28254,14480,2,65728,65728,6,6,4,1460,1374,1,537920480,128,82732,81284,65700,0,60816,0,0,0
o,0x00000000,1681814600.547150,172.16.1.2,64734,172.16.3.2,5201,28254,15928,6,65728,65728,6,6,4,1460,1374,1,537920480,128,82732,81284,65700,0,60816,0,0,0
o,0x00000000,1681814600.547780,172.16.1.2,64734,172.16.3.2,5201,28254,15928,2,65728,65728,6,6,4,1460,1374,1,537920480,128,82732,81284,65700,0,62264,0,0,0
i,0x00000000,1681814600.547968,172.16.1.2,64734,172.16.3.2,5201,28254,15928,2,65728,65728,6,6,4,1460,1374,1,537920480,128,82732,81284,65700,0,63712,0,0,0
o,0x00000000,1681814600.548008,172.16.1.2,64734,172.16.3.2,5201,28254,17376,6,65728,65728,6,6,4,1460,1374,1,537920480,128,82732,81284,65700,0,63712,0,0,0
i,0x00000000,1681814600.576963,172.16.1.2,64734,172.16.3.2,5201,28254,17376,6,65728,65728,6,6,4,1460,1374,1,537920480,128,82732,81284,65700,0,65160,0,0,0
i,0x00000000,1681814600.577023,172.16.1.2,64734,172.16.3.2,5201,28254,18824,6,65728,65728,6,6,4,1460,1374,1,537920480,128,82732,81284,65700,0,65160,0,0,0
i,0x00000000,1681814600.676131,172.16.1.2,64734,172.16.3.2,5201,28254,20272,6,65728,65728,6,6,4,1460,1374,1,537920480,128,82732,81284,65700,0,65160,0,0,0
i,0x00000000,1681814600.676207,172.16.1.2,64734,172.16.3.2,5201,28254,21720,6,65728,65728,6,6,4,1460,1374,1,537920480,128,82732,81284,65700,0,65160,0,0,0
i,0x00000000,1681814600.712065,172.16.1.2,64734,172.16.3.2,5201,28254,23168,6,65728,65728,6,6,4,1460,1374,1,537920480,128,82732,81284,65700,0,65160,0,0,0
o,0x00000000,1681814600.834195,172.16.1.2,64734,172.16.3.2,5201,17211,1448,2,65728,65728,6,6,4,1460,1374,1,1075848161,236,82732,81284,65700,0,65160,0,0,0
i,0x00000000,1681814600.982953,172.16.1.2,64734,172.16.3.2,5201,17211,1448,2,65728,65728,6,6,4,1460,1374,1,1075848160,236,82732,81284,65700,0,65160,0,0,0
o,0x00000000,1681814600.982953,172.16.1.2,64734,172.16.3.2,5201,2896,2920,6,57088,65728,6,6,4,1460,1259,1,1075848160,137,82732,72596,65700,0,56472,0,0,0
o,0x00000000,1681814600.982953,172.16.1.2,64734,172.16.3.2,5201,2896,2920,6,57088,65728,6,6,4,1460,1259,1,1075848160,137,82732,72596,65700,0,56472,0,0,0
o,0x00000000,1681814600.982953,172.16.1.2,64734,172.16.3.2,5201,2896,2920,2,57088,65728,6,6,4,1460,1259,1,1075848160,137,82732,72596,65700,0,56472,0,0,0
i,0x00000000,1681814601.115189,172.16.1.2,64734,172.16.3.2,5201,2896,2920,2,57088,65728,6,6,4,1460,1259,1,1075848160,137,82732,82732,65700,0,56472,0,0,0
o,0x00000000,1681814601.115373,172.16.1.2,64734,172.16.3.2,5201,2896,1448,2,57088,65728,6,6,4,1460,1259,1,1613767648,137,82732,82732,65700,0,56472,0,0,0
o,0x00000000,1681814601.115693,172.16.1.2,64734,172.16.3.2,5201,2896,1448,2,57088,65728,6,6,4,1460,1259,1,1613767648,137,82732,82732,65700,0,56472,0,0,0
o,0x00000000,1681814601.115838,172.16.1.2,64734,172.16.3.2,5201,2896,10136,6,57088,65728,6,6,4,1460,1259,1,1613767649,137,82732,82732,65700,0,56472,0,0,0
o,0x00000000,1681814601.115976,172.16.1.2,64734,172.16.3.2,5201,2896,10136,6,57088,65728,6,6,4,1460,1259,1,1613767648,137,82732,82732,65700,0,56472,0,0,0
o,0x00000000,1681814601.116132,172.16.1.2,64734,172.16.3.2,5201,2896,10136,6,57088,65728,6,6,4,1460,1259,1,1613767648,137,82732,82732,65700,0,56472,0,0,0
o,0x00000000,1681814601.116283,172.16.1.2,64734,172.16.3.2,5201,2896,10136,6,57088,65728,6,6,4,1460,1259,1,1613767648,137,82732,82732,65700,0,56472,0,0,0
o,0x00000000,1681814601.116437,172.16.1.2,64734,172.16.3.2,5201,2896,10136,6,57088,65728,6,6,4,1460,1259,1,1613767648,137,82732,82732,65700,0,56472,0,0,0
o,0x00000000,1681814601.116624,172.16.1.2,64734,172.16.3.2,5201,2896,10136,2,57088,65728,6,6,4,1460,1259,1,1613767648,137,82732,82732,65700,0,56472,0,0,0
i,0x00000000,1681814601.116892,172.16.1.2,64734,172.16.3.2,5201,2896,10136,2,62848,65728,6,6,4,1460,1154,1,1613767648,141,82732,79836,65700,0,53576,0,0,0
i,0x00000000,1681814601.119333,172.16.1.2,64734,172.16.3.2,5201,2896,10136,2,65728,65728,6,6,4,1460,1154,1,1613767648,141,82732,82732,65700,0,53576,0,0,0
i,0x00000000,1681814601.334399,172.16.1.2,64734,172.16.3.2,5201,2896,2920,2,65728,65728,6,6,4,1460,1062,1,1075848160,139,82732,82708,65700,0,53552,0,0,0
i,0x00000000,1681814601.335137,172.16.1.2,64734,172.16.3.2,5201,2896,2920,2,65728,65728,6,6,4,1460,1062,1,1075848160,139,82732,82708,65700,0,53552,0,0,0
o,0x00000000,1681814601.335162,172.16.1.2,64734,172.16.3.2,5201,2896,1448,2,65728,65728,6,6,4,1460,1062,1,1613767648,139,82732,82708,65700,0,53552,0,0,0
o,0x00000000,1681814601.335268,172.16.1.2,64734,172.16.3.2,5201,2896,4344,6,65728,65728,6,6,4,1460,1062,1,1613767649,139,82732,82708,65700,0,53552,0,0,0
o,0x00000000,1681814601.335363,172.16.1.2,64734,172.16.3.2,5201,2896,4344,2,65728,65728,6,6,4,1460,1062,1,1613767648,139,82732,82708,65700,0,53552,0,0,0
i,0x00000000,1681814601.335459,172.16.1.2,64734,172.16.3.2,5201,2896,4344,2,59968,65728,6,6,4,1460,1018,1,1613767648,128,82732,76940,65700,0,47784,0,0,0
i,0x00000000,1681814601.335521,172.16.1.2,64734,172.16.3.2,5201,2896,4344,2,65728,65728,6,6,4,1460,1018,1,1613767648,128,82732,76940,65700,0,47784,0,0,0
i,0x00000000,1681814601.336290,172.16.1.2,64734,172.16.3.2,5201,2896,4344,2,65728,65728,6,6,4,1460,1018,1,1613767648,128,82732,82732,65700,0,47784,0,0,0
i,0x00000000,1681814601.336306,172.16.1.2,64734,172.16.3.2,5201,2896,4344,2,65728,65728,6,6,4,1460,1018,1,1613767648,128,82732,82732,65700,0,47784,0,0,0
o,0x00000000,1681814601.336327,172.16.1.2,64734,172.16.3.2,5201,2896,2920,6,61440,65728,6,6,4,1460,979,1,1075848160,117,82732,78388,65700,0,43440,0,0,0
o,0x00000000,1681814601.336561,172.16.1.2,64734,172.16.3.2,5201,2896,2920,6,61440,65728,6,6,4,1460,979,1,1075848160,117,82732,78388,65700,0,43440,0,0,0
o,0x00000000,1681814601.336674,172.16.1.2,64734,172.16.3.2,5201,2896,2920,2,61440,65728,6,6,4,1460,979,1,1075848160,117,82732,78388,65700,0,43440,0,0,0
i,0x00000000,1681814601.336782,172.16.1.2,64734,172.16.3.2,5201,2896,2920,2,61440,65728,6,6,4,1460,979,1,1075848160,117,82732,78388,65700,0,43440,0,0,0
i,0x00000000,1681814601.364720,172.16.1.2,64734,172.16.3.2,5201,2896,2920,2,65728,65728,6,6,4,1460,979,1,1075848160,117,82732,82732,65700,0,43440,0,0,0
i,0x00000000,1681814601.515588,172.16.1.2,64734,172.16.3.2,5201,2896,2920,2,65728,65728,6,6,4,1460,979,1,1075848160,117,82732,82732,65700,0,43440,0,0,0
i,0x00000000,1681814601.515689,172.16.1.2,64734,172.16.3.2,5201,2896,2920,2,65728,65728,6,6,4,1460,979,1,1075848160,117,82732,82732,65700,0,43440,0,0,0
i,0x00000000,1681814601.515707,172.16.1.2,64734,172.16.3.2,5201,2896,2920,2,65728,65728,6,6,4,1460,979,1,1075848160,117,82732,82732,65700,0,43440,0,0,0
i,0x00000000,1681814601.515768,172.16.1.2,64734,172.16.3.2,5201,2896,2920,2,65728,65728,6,6,4,1460,979,1,1075848160,117,82732,82732,65700,0,43440,0,0,0
o,0x00000000,1681814601.515824,172.16.1.2,64734,172.16.3.2,5201,2896,1448,2,65728,65728,6,6,4,1460,979,1,1613767648,117,82732,82732,65700,0,43440,0,0,0
o,0x00000000,1681814601.515974,172.16.1.2,64734,172.16.3.2,5201,2896,10136,2,65728,65728,6,6,4,1460,979,1,1613767649,117,82732,82732,65700,0,43440,0,0,0
o,0x00000000,1681814601.516150,172.16.1.2,64734,172.16.3.2,5201,2896,10136,6,65728,65728,6,6,4,1460,979,1,1613767648,117,82732,82732,65700,0,43440,0,0,0
o,0x00000000,1681814601.516324,172.16.1.2,64734,172.16.3.2,5201,2896,10136,6,65728,65728,6,6,4,1460,979,1,1613767648,117,82732,82732,65700,0,43440,0,0,0
o,0x00000000,1681814601.516527,172.16.1.2,64734,172.16.3.2,5201,2896,10136,6,65728,65728,6,6,4,1460,979,1,1613767648,117,82732,82732,65700,0,43440,0,0,0
o,0x00000000,1681814601.516641,172.16.1.2,64734,172.16.3.2,5201,2896,10136,6,65728,65728,6,6,4,1460,979,1,1613767648,117,82732,82732,65700,0,43440,0,0,0
o,0x00000000,1681814601.516776,172.16.1.2,64734,172.16.3.2,5201,2896,10136,6,65728,65728,6,6,4,1460,979,1,1613767648,117,82732,82732,65700,0,43440,0,0,0
o,0x00000000,1681814601.516965,172.16.1.2,64734,172.16.3.2,5201,2896,10136,2,65728,65728,6,6,4,1460,979,1,1613767648,117,82732,82732,65700,0,43440,0,0,0
i,0x00000000,1681814601.554891,172.16.1.2,64734,172.16.3.2,5201,2896,10136,2,64320,65728,6,6,4,1460,929,1,1613767648,111,82732,81284,65700,0,41992,0,0,0
o,0x00000000,1681814601.555127,172.16.1.2,64734,172.16.3.2,5201,2896,2920,6,23744,65728,6,6,4,1460,897,1,1075848160,103,82732,39292,65700,0,0,0,0,0
o,0x00000000,1681814601.555269,172.16.1.2,64734,172.16.3.2,5201,2896,2920,6,23744,65728,6,6,4,1460,897,1,1075848160,103,82732,39292,65700,0,1448,0,0,0
i,0x00000000,1681814601.555364,172.16.1.2,64734,172.16.3.2,5201,2896,2920,6,23744,65728,6,6,4,1460,897,1,1075848160,103,82732,39292,65700,0,2896,0,0,0
i,0x00000000,1681814601.555392,172.16.1.2,64734,172.16.3.2,5201,2896,2920,6,23744,65728,6,6,4,1460,897,1,1075848160,103,82732,39292,65700,0,2896,0,0,0
i,0x00000000,1681814601.786887,172.16.1.2,64734,172.16.3.2,5201,2896,2920,6,23744,65728,6,6,4,1460,897,1,1075848160,103,82732,82732,65700,0,2896,0,0,0
i,0x00000000,1681814601.786911,172.16.1.2,64734,172.16.3.2,5201,2896,2920,6,65728,65728,6,6,4,1460,897,1,1075848160,103,82732,82732,65700,0,2896,0,0,0
i,0x00000000,1681814601.789365,172.16.1.2,64734,172.16.3.2,5201,2896,2920,6,65728,65728,6,6,4,1460,897,1,1075848160,103,82732,82732,65700,0,2896,0,0,0
i,0x00000000,1681814601.789477,172.16.1.2,64734,172.16.3.2,5201,2896,2920,6,65728,65728,6,6,4,1460,897,1,1075848160,103,82732,82732,65700,0,2896,0,0,0
i,0x00000000,1681814601.789749,172.16.1.2,64734,172.16.3.2,5201,2896,2920,6,65728,65728,6,6,4,1460,897,1,1075848160,103,82732,82732,65700,0,2896,0,0,0
i,0x00000000,1681814601.791235,172.16.1.2,64734,172.16.3.2,5201,2896,2920,6,65728,65728,6,6,4,1460,897,1,1075848160,103,82732,82732,65700,0,2896,0,0,0
i,0x00000000,1681814601.794822,172.16.1.2,64734,172.16.3.2,5201,2896,2920,6,65728,65728,6,6,4,1460,897,1,1075848160,103,82732,82732,65700,0,2896,0,0,0
i,0x00000000,1681814601.794910,172.16.1.2,64734,172.16.3.2,5201,2896,2920,6,65728,65728,6,6,4,1460,897,1,1075848160,103,82732,82732,65700,0,2896,0,0,0
i,0x00000000,1681814601.822133,172.16.1.2,64734,172.16.3.2,5201,2896,2920,6,65728,65728,6,6,4,1460,897,1,1075848160,103,82732,82732,65700,0,2896,0,0,0
o,0x00000000,1681814601.822164,172.16.1.2,64734,172.16.3.2,5201,2896,2920,6,64256,65728,6,6,4,1460,889,1,1075848160,91,82732,79836,65700,0,0,0,0,0
o,0x00000000,1681814601.822282,172.16.1.2,64734,172.16.3.2,5201,2896,2920,6,64256,65728,6,6,4,1460,889,1,1075848160,91,82732,79836,65700,0,1448,0,0,0
i,0x00000000,1681814601.965716,172.16.1.2,64734,172.16.3.2,5201,2896,2920,6,64256,65728,6,6,4,1460,889,1,1075848160,91,82732,82732,65700,0,2896,0,0,0
o,0x00000000,1681814601.965999,172.16.1.2,64734,172.16.3.2,5201,2896,3244,6,64256,65728,6,6,4,1460,834,1,1075848160,92,82732,79836,65700,0,0,0,0,0
o,0x00000000,1681814601.966270,172.16.1.2,64734,172.16.3.2,5201,2896,3244,6,64256,65728,6,6,4,1460,834,1,1075848160,92,82732,79836,65700,0,1448,0,0,0
i,0x00000000,1681814602.122100,172.16.1.2,64734,172.16.3.2,5201,2896,3244,6,64256,65728,6,6,4,1460,834,1,1075848160,92,82732,82732,65700,0,2896,0,0,0
o,0x00000000,1681814602.122228,172.16.1.2,64734,172.16.3.2,5201,2896,3645,6,64256,65728,6,6,4,1460,790,1,1075848160,90,82732,79836,65700,0,0,0,0,0
o,0x00000000,1681814602.123086,172.16.1.2,64734,172.16.3.2,5201,2896,3645,6,64256,65728,6,6,4,1460,790,1,1075848160,90,82732,79836,65700,0,1448,0,0,0
i,0x00000000,1681814602.265477,172.16.1.2,64734,172.16.3.2,5201,2896,3645,6,64256,65728,6,6,4,1460,790,1,1075848160,90,82732,82732,65700,0,2896,0,0,0
o,0x00000000,1681814602.265639,172.16.1.2,64734,172.16.3.2,5201,2896,4046,6,64256,65728,6,6,4,1460,748,1,1075848160,88,82732,79836,65700,0,0,0,0,0
o,0x00000000,1681814602.265896,172.16.1.2,64734,172.16.3.2,5201,2896,4046,6,64256,65728,6,6,4,1460,748,1,1075848160,88,82732,79836,65700,0,1448,0,0,0
i,0x00000000,1681814602.413935,172.16.1.2,64734,172.16.3.2,5201,2896,4046,6,64256,65728,6,6,4,1460,748,1,1075848160,88,82732,82732,65700,0,2896,0,0,0
o,0x00000000,1681814602.414667,172.16.1.2,64734,172.16.3.2,5201,2896,4447,6,62848,65728,6,6,4,1460,711,1,1075848160,85,82732,79836,65700,0,0,0,0,0
o,0x00000000,1681814602.414883,172.16.1.2,64734,172.16.3.2,5201,2896,4447,6,62848,65728,6,6,4,1460,711,1,1075848160,85,82732,79836,65700,0,1448,0,0,0
o,0x00000000,1681814602.415086,172.16.1.2,64734,172.16.3.2,5201,2896,4447,6,62848,65728,6,6,4,1460,711,1,1075848160,85,82732,79836,65700,0,2896,0,0,0
i,0x00000000,1681814602.544949,172.16.1.2,64734,172.16.3.2,5201,2896,4447,6,62848,65728,6,6,4,1460,711,1,1075848160,85,82732,82732,65700,0,4344,0,0,0
o,0x00000000,1681814602.545544,172.16.1.2,64734,172.16.3.2,5201,2896,4795,6,64256,65728,6,6,4,1460,675,1,1075848160,82,82732,79836,65700,0,1448,0,0,0
o,0x00000000,1681814602.546319,172.16.1.2,64734,172.16.3.2,5201,2896,4795,6,64256,65728,6,6,4,1460,675,1,1075848160,82,82732,79836,65700,0,2896,0,0,0
i,0x00000000,1681814602.636617,172.16.1.2,64734,172.16.3.2,5201,2896,4795,6,64256,65728,6,6,4,1460,675,1,1075848160,82,82732,82732,65700,0,4344,0,0,0
o,0x00000000,1681814602.636703,172.16.1.2,64734,172.16.3.2,5201,2896,5036,6,65728,65728,6,6,4,1460,679,1,1075848160,73,82732,81284,65700,0,2896,0,0,0
i,0x00000000,1681814602.702177,172.16.1.2,64734,172.16.3.2,5201,2896,5036,6,65728,65728,6,6,4,1460,679,1,1075848160,73,82732,81284,65700,0,4344,0,0,0
o,0x00000000,1681814602.702437,172.16.1.2,64734,172.16.3.2,5201,2896,5223,6,64256,65728,6,6,4,1460,655,1,1075848160,70,82732,78388,65700,0,1448,0,0,0
o,0x00000000,1681814602.702576,172.16.1.2,64734,172.16.3.2,5201,2896,5223,6,64256,65728,6,6,4,1460,655,1,1075848160,70,82732,78388,65700,0,2896,0,0,0
i,0x00000000,1681814602.816631,172.16.1.2,64734,172.16.3.2,5201,2896,5223,6,64256,65728,6,6,4,1460,655,1,1075848160,70,82732,82732,65700,0,4344,0,0,0
o,0x00000000,1681814602.817021,172.16.1.2,64734,172.16.3.2,5201,2896,5517,6,65728,65728,6,6,4,1460,642,1,1075848160,65,82732,81284,65700,0,2896,0,0,0
i,0x00000000,1681814602.845959,172.16.1.2,64734,172.16.3.2,5201,2896,5517,6,65728,65728,6,6,4,1460,642,1,1075848160,65,82732,81284,65700,0,4344,0,0,0
o,0x00000000,1681814602.845989,172.16.1.2,64734,172.16.3.2,5201,2896,5597,6,64256,65728,6,6,4,1460,618,1,1075848160,64,82732,78388,65700,0,1448,0,0,0
o,0x00000000,1681814602.846111,172.16.1.2,64734,172.16.3.2,5201,2896,5597,6,64256,65728,6,6,4,1460,618,1,1075848160,64,82732,78388,65700,0,2896,0,0,0
i,0x00000000,1681814602.974537,172.16.1.2,64734,172.16.3.2,5201,2896,5597,6,64256,65728,6,6,4,1460,618,1,1075848160,64,82732,82732,65700,0,4344,0,0,0
o,0x00000000,1681814602.974993,172.16.1.2,64734,172.16.3.2,5201,2896,5945,6,64256,65728,6,6,4,1460,605,1,1075848160,61,82732,79836,65700,0,1448,0,0,0
o,0x00000000,1681814602.976173,172.16.1.2,64734,172.16.3.2,5201,2896,5945,6,64256,65728,6,6,4,1460,605,1,1075848160,61,82732,79836,65700,0,2896,0,0,0
o,0x00000000,1681814602.976466,172.16.1.2,64734,172.16.3.2,5201,2896,5945,6,64256,65728,6,6,4,1460,605,1,1075848160,61,82732,79836,65700,0,4344,0,0,0
i,0x00000000,1681814603.033283,172.16.1.2,64734,172.16.3.2,5201,2896,5945,6,64256,65728,6,6,4,1460,605,1,1075848160,61,82732,82732,65700,0,5792,0,0,0
o,0x00000000,1681814603.033341,172.16.1.2,64734,172.16.3.2,5201,2896,6105,6,65728,65728,6,6,4,1460,606,1,1075848160,56,82732,81284,65700,0,4344,0,0,0
i,0x00000000,1681814603.118003,172.16.1.2,64734,172.16.3.2,5201,2896,6105,6,65728,65728,6,6,4,1460,606,1,1075848160,56,82732,81284,65700,0,5792,0,0,0
o,0x00000000,1681814603.118043,172.16.1.2,64734,172.16.3.2,5201,2896,6319,6,64256,65728,6,6,4,1460,587,1,1075848160,56,82732,78388,65700,0,2896,0,0,0
o,0x00000000,1681814603.118193,172.16.1.2,64734,172.16.3.2,5201,2896,6319,6,64256,65728,6,6,4,1460,587,1,1075848160,56,82732,78388,65700,0,4344,0,0,0
i,0x00000000,1681814603.145247,172.16.1.2,64734,172.16.3.2,5201,2896,6319,6,64256,65728,6,6,4,1460,587,1,1075848160,56,82732,82732,65700,0,5792,0,0,0
o,0x00000000,1681814603.145375,172.16.1.2,64734,172.16.3.2,5201,2896,6399,6,65728,65728,6,6,4,1460,582,1,1075848160,52,82732,81284,65700,0,4344,0,0,0
i,0x00000000,1681814603.216589,172.16.1.2,64734,172.16.3.2,5201,2896,6399,6,65728,65728,6,6,4,1460,582,1,1075848160,52,82732,81284,65700,0,5792,0,0,0
o,0x00000000,1681814603.216713,172.16.1.2,64734,172.16.3.2,5201,2896,6586,6,65728,65728,6,6,4,1460,582,1,1075848160,49,82732,79836,65700,0,4344,0,0,0
i,0x00000000,1681814603.265184,172.16.1.2,64734,172.16.3.2,5201,2896,6586,6,65728,65728,6,6,4,1460,582,1,1075848160,49,82732,82732,65700,0,5792,0,0,0
o,0x00000000,1681814603.265246,172.16.1.2,64734,172.16.3.2,5201,2896,6720,6,64256,65728,6,6,4,1460,570,1,1075848160,49,82732,79836,65700,0,2896,0,0,0
o,0x00000000,1681814603.265423,172.16.1.2,64734,172.16.3.2,5201,2896,6720,6,64256,65728,6,6,4,1460,570,1,1075848160,49,82732,79836,65700,0,4344,0,0,0
i,0x00000000,1681814603.315798,172.16.1.2,64734,172.16.3.2,5201,2896,6720,6,64256,65728,6,6,4,1460,570,1,1075848160,49,82732,82732,65700,0,5792,0,0,0
o,0x00000000,1681814603.316656,172.16.1.2,64734,172.16.3.2,5201,2896,6853,6,65728,65728,6,6,4,1460,567,1,1075848160,47,82732,81284,65700,0,4344,0,0,0
i,0x00000000,1681814603.396938,172.16.1.2,64734,172.16.3.2,5201,2896,6853,6,65728,65728,6,6,4,1460,567,1,1075848160,47,82732,81284,65700,0,5792,0,0,0
o,0x00000000,1681814603.397665,172.16.1.2,64734,172.16.3.2,5201,2896,7067,6,65728,65728,6,6,4,1460,569,1,1075848160,45,82732,79836,65700,0,4344,0,0,0
i,0x00000000,1681814603.426863,172.16.1.2,64734,172.16.3.2,5201,2896,7067,6,65728,65728,6,6,4,1460,569,1,1075848160,45,82732,82732,65700,0,5792,0,0,0
o,0x00000000,1681814603.427447,172.16.1.2,64734,172.16.3.2,5201,2896,7148,6,64256,65728,6,6,4,1460,558,1,1075848160,46,82732,79836,65700,0,2896,0,0,0
o,0x00000000,1681814603.427921,172.16.1.2,64734,172.16.3.2,5201,2896,7148,6,64256,65728,6,6,4,1460,558,1,1075848160,46,82732,79836,65700,0,4344,0,0,0
i,0x00000000,1681814603.518053,172.16.1.2,64734,172.16.3.2,5201,2896,7148,6,64256,65728,6,6,4,1460,558,1,1075848160,46,82732,82732,65700,0,5792,0,0,0
o,0x00000000,1681814603.518585,172.16.1.2,64734,172.16.3.2,5201,2896,7388,6,65728,65728,6,6,4,1460,569,1,1075848160,47,82732,81284,65700,0,4344,0,0,0
o,0x00000000,1681814603.519020,172.16.1.2,64734,172.16.3.2,5201,2896,7388,6,65728,65728,6,6,4,1460,569,1,1075848160,47,82732,81284,65700,0,5792,0,0,0
i,0x00000000,1681814603.551459,172.16.1.2,64734,172.16.3.2,5201,2896,7388,6,65728,65728,6,6,4,1460,569,1,1075848160,47,82732,81284,65700,0,7240,0,0,0
o,0x00000000,1681814603.551509,172.16.1.2,64734,172.16.3.2,5201,2896,7468,6,64256,65728,6,6,4,1460,558,1,1075848160,47,82732,78388,65700,0,4344,0,0,0
o,0x00000000,1681814603.551648,172.16.1.2,64734,172.16.3.2,5201,2896,7468,6,64256,65728,6,6,4,1460,558,1,1075848160,47,82732,78388,65700,0,5792,0,0,0
i,0x00000000,1681814603.618943,172.16.1.2,64734,172.16.3.2,5201,2896,7468,6,64256,65728,6,6,4,1460,558,1,1075848160,47,82732,82732,65700,0,7240,0,0,0
o,0x00000000,1681814603.618993,172.16.1.2,64734,172.16.3.2,5201,2896,7656,6,65728,65728,6,6,4,1460,565,1,1075848160,46,82732,81284,65700,0,5792,0,0,0
i,0x00000000,1681814603.666089,172.16.1.2,64734,172.16.3.2,5201,2896,7656,6,65728,65728,6,6,4,1460,565,1,1075848160,46,82732,81284,65700,0,7240,0,0,0
o,0x00000000,1681814603.666811,172.16.1.2,64734,172.16.3.2,5201,2896,7789,6,64256,65728,6,6,4,1460,555,1,1075848160,46,82732,78388,65700,0,4344,0,0,0
o,0x00000000,1681814603.667552,172.16.1.2,64734,172.16.3.2,5201,2896,7789,6,64256,65728,6,6,4,1460,555,1,1075848160,46,82732,78388,65700,0,5792,0,0,0
i,0x00000000,1681814603.695559,172.16.1.2,64734,172.16.3.2,5201,2896,7789,6,64256,65728,6,6,4,1460,555,1,1075848160,46,82732,82732,65700,0,7240,0,0,0
o,0x00000000,1681814603.695614,172.16.1.2,64734,172.16.3.2,5201,2896,7869,6,64256,65728,6,6,4,1460,546,1,1075848160,46,82732,79836,65700,0,4344,0,0,0
o,0x00000000,1681814603.695807,172.16.1.2,64734,172.16.3.2,5201,2896,7869,6,64256,65728,6,6,4,1460,546,1,1075848160,46,82732,79836,65700,0,5792,0,0,0
i,0x00000000,1681814603.768387,172.16.1.2,64734,172.16.3.2,5201,2896,7869,6,64256,65728,6,6,4,1460,546,1,1075848160,46,82732,82732,65700,0,7240,0,0,0
o,0x00000000,1681814603.768432,172.16.1.2,64734,172.16.3.2,5201,2896,8057,6,65728,65728,6,6,4,1460,538,1,1075848160,46,82732,81284,65700,0,5792,0,0,0
i,0x00000000,1681814603.820097,172.16.1.2,64734,172.16.3.2,5201,2896,8057,6,65728,65728,6,6,4,1460,538,1,1075848160,46,82732,81284,65700,0,7240,0,0,0
o,0x00000000,1681814603.820328,172.16.1.2,64734,172.16.3.2,5201,2896,8190,6,64256,65728,6,6,4,1460,527,1,1075848160,46,82732,78388,65700,0,4344,0,0,0
o,0x00000000,1681814603.820629,172.16.1.2,64734,172.16.3.2,5201,2896,8190,6,64256,65728,6,6,4,1460,527,1,1075848160,46,82732,78388,65700,0,5792,0,0,0
i,0x00000000,1681814603.850595,172.16.1.2,64734,172.16.3.2,5201,2896,8190,6,64256,65728,6,6,4,1460,527,1,1075848160,46,82732,82732,65700,0,7240,0,0,0
o,0x00000000,1681814603.850595,172.16.1.2,64734,172.16.3.2,5201,2896,8270,6,64256,65728,6,6,4,1460,518,1,1075848160,45,82732,79836,65700,0,4344,0,0,0
o,0x00000000,1681814603.850595,172.16.1.2,64734,172.16.3.2,5201,2896,8270,6,64256,65728,6,6,4,1460,518,1,1075848160,45,82732,79836,65700,0,5792,0,0,0
i,0x00000000,1681814603.943399,172.16.1.2,64734,172.16.3.2,5201,2896,8270,6,64256,65728,6,6,4,1460,518,1,1075848160,45,82732,82732,65700,0,7240,0,0,0
o,0x00000000,1681814603.943475,172.16.1.2,64734,172.16.3.2,5201,2896,8538,6,65728,65728,6,6,4,1460,522,1,1075848160,44,82732,81284,65700,0,5792,0,0,0
i,0x00000000,1681814603.963896,172.16.1.2,64734,172.16.3.2,5201,2896,8538,6,65728,65728,6,6,4,1460,522,1,1075848160,44,82732,81284,65700,0,7240,0,0,0
o,0x00000000,1681814603.963944,172.16.1.2,64734,172.16.3.2,5201,2896,8591,6,64256,65728,6,6,4,1460,517,1,1075848160,43,82732,78388,65700,0,4344,0,0,0
o,0x00000000,1681814603.964091,172.16.1.2,64734,172.16.3.2,5201,2896,8591,6,64256,65728,6,6,4,1460,517,1,1075848160,43,82732,78388,65700,0,5792,0,0,0
i,0x00000000,1681814603.995243,172.16.1.2,64734,172.16.3.2,5201,2896,8591,6,64256,65728,6,6,4,1460,517,1,1075848160,43,82732,82732,65700,0,7240,0,0,0
o,0x00000000,1681814603.995293,172.16.1.2,64734,172.16.3.2,5201,2896,8671,6,64256,65728,6,6,4,1460,513,1,1075848160,43,82732,79836,65700,0,4344,0,0,0
o,0x00000000,1681814603.995727,172.16.1.2,64734,172.16.3.2,5201,2896,8671,6,64256,65728,6,6,4,1460,513,1,1075848160,43,82732,79836,65700,0,5792,0,0,0
i,0x00000000,1681814604.118697,172.16.1.2,64734,172.16.3.2,5201,2896,8671,6,64256,65728,6,6,4,1460,513,1,1075848160,43,82732,82592,65700,0,7240,0,0,0
o,0x00000000,1681814604.118825,172.16.1.2,64734,172.16.3.2,5201,2896,8992,6,65728,65728,6,6,4,1460,517,1,1075848160,42,82732,81144,65700,0,5792,0,0,0
o,0x00000000,1681814604.118991,172.16.1.2,64734,172.16.3.2,5201,2896,8992,6,65728,65728,6,6,4,1460,517,1,1075848160,42,82732,81144,65700,0,7240,0,0,0
i,0x00000000,1681814604.119098,172.16.1.2,64734,172.16.3.2,5201,2896,8992,6,65728,65728,6,6,4,1460,517,1,1075848160,42,82732,81144,65700,0,8688,0,0,0
o,0x00000000,1681814604.119116,172.16.1.2,64734,172.16.3.2,5201,2896,8992,6,64256,65728,6,6,4,1460,509,1,1075848160,42,82732,78248,65700,0,5792,0,0,0
o,0x00000000,1681814604.119225,172.16.1.2,64734,172.16.3.2,5201,2896,8992,6,64256,65728,6,6,4,1460,509,1,1075848160,42,82732,78248,65700,0,7240,0,0,0
i,0x00000000,1681814604.176052,172.16.1.2,64734,172.16.3.2,5201,2896,8992,6,64256,65728,6,6,4,1460,509,1,1075848160,42,82732,82732,65700,0,8688,0,0,0
o,0x00000000,1681814604.176663,172.16.1.2,64734,172.16.3.2,5201,2896,9153,6,64256,65728,6,6,4,1460,518,1,1075848160,43,82732,79836,65700,0,5792,0,0,0
o,0x00000000,1681814604.177360,172.16.1.2,64734,172.16.3.2,5201,2896,9153,6,64256,65728,6,6,4,1460,518,1,1075848160,43,82732,79836,65700,0,7240,0,0,0
i,0x00000000,1681814604.288808,172.16.1.2,64734,172.16.3.2,5201,2896,9153,6,64256,65728,6,6,4,1460,518,1,1075848160,43,82732,82732,65700,0,8688,0,0,0
o,0x00000000,1681814604.288923,172.16.1.2,64734,172.16.3.2,5201,2896,9447,6,64256,65728,6,6,4,1460,522,1,1075848160,43,82732,79836,65700,0,5792,0,0,0
o,0x00000000,1681814604.289128,172.16.1.2,64734,172.16.3.2,5201,2896,9447,6,64256,65728,6,6,4,1460,522,1,1075848160,43,82732,79836,65700,0,7240,0,0,0
i,0x00000000,1681814604.316779,172.16.1.2,64734,172.16.3.2,5201,2896,9447,6,64256,65728,6,6,4,1460,522,1,1075848160,43,82732,82732,65700,0,8688,0,0,0
o,0x00000000,1681814604.316816,172.16.1.2,64734,172.16.3.2,5201,2896,9527,6,64256,65728,6,6,4,1460,537,1,1075848160,45,82732,79836,65700,0,5792,0,0,0
o,0x00000000,1681814604.316948,172.16.1.2,64734,172.16.3.2,5201,2896,9527,6,64256,65728,6,6,4,1460,537,1,1075848160,45,82732,79836,65700,0,7240,0,0,0
i,0x00000000,1681814604.334588,172.16.1.2,64734,172.16.3.2,5201,2896,9527,6,64256,65728,6,6,4,1460,537,1,1075848160,45,82732,82732,65700,0,8688,0,0,0
o,0x00000000,1681814604.334739,172.16.1.2,64734,172.16.3.2,5201,2896,9580,6,64256,65728,6,6,4,1460,534,1,1075848160,44,82732,79836,65700,0,5792,0,0,0
o,0x00000000,1681814604.334883,172.16.1.2,64734,172.16.3.2,5201,2896,9580,6,64256,65728,6,6,4,1460,534,1,1075848160,44,82732,79836,65700,0,7240,0,0,0
i,0x00000000,1681814604.446195,172.16.1.2,64734,172.16.3.2,5201,2896,9580,6,64256,65728,6,6,4,1460,534,1,1075848160,44,82732,82732,65700,0,8688,0,0,0
o,0x00000000,1681814604.447013,172.16.1.2,64734,172.16.3.2,5201,2896,9875,6,64256,65728,6,6,4,1460,532,1,1075848160,42,82732,79836,65700,0,5792,0,0,0
o,0x00000000,1681814604.447946,172.16.1.2,64734,172.16.3.2,5201,2896,9875,6,64256,65728,6,6,4,1460,532,1,1075848160,42,82732,79836,65700,0,7240,0,0,0
i,0x00000000,1681814604.496984,172.16.1.2,64734,172.16.3.2,5201,2896,9875,6,64256,65728,6,6,4,1460,532,1,1075848160,42,82732,82732,65700,0,8688,0,0,0
o,0x00000000,1681814604.497160,172.16.1.2,64734,172.16.3.2,5201,2896,10008,6,64256,65728,6,6,4,1460,538,1,1075848160,43,82732,79836,65700,0,5792,0,0,0
o,0x00000000,1681814604.497941,172.16.1.2,64734,172.16.3.2,5201,2896,10008,6,64256,65728,6,6,4,1460,538,1,1075848160,43,82732,79836,65700,0,7240,0,0,0
i,0x00000000,1681814604.546022,172.16.1.2,64734,172.16.3.2,5201,2896,10008,6,64256,65728,6,6,4,1460,538,1,1075848160,43,82732,82732,65700,0,8688,0,0,0
o,0x00000000,1681814604.546200,172.16.1.2,64734,172.16.3.2,5201,2896,10142,6,64256,65728,6,6,4,1460,555,1,1075848160,46,82732,79836,65700,0,5792,0,0,0
o,0x00000000,1681814604.546864,172.16.1.2,64734,172.16.3.2,5201,2896,10142,6,64256,65728,6,6,4,1460,555,1,1075848160,46,82732,79836,65700,0,7240,0,0,0
o,0x00000000,1681814604.547380,172.16.1.2,64734,172.16.3.2,5201,2896,10142,2,64256,65728,6,6,4,1460,555,1,1075848160,46,82732,79836,65700,0,8688,0,0,0
i,0x00000000,1681814604.596151,172.16.1.2,64734,172.16.3.2,5201,2896,10142,2,64256,65728,6,6,4,1460,555,1,1075848160,46,82732,82732,65700,0,10136,0,0,0
o,0x00000000,1681814604.596342,172.16.1.2,64734,172.16.3.2,5201,2896,10276,6,64256,65728,6,6,4,1460,546,1,1075848160,46,82732,79836,65700,0,7240,0,0,0
o,0x00000000,1681814604.596600,172.16.1.2,64734,172.16.3.2,5201,2896,10276,6,64256,65728,6,6,4,1460,546,1,1075848160,46,82732,79836,65700,0,8688,0,0,0
i,0x00000000,1681814604.699952,172.16.1.2,64734,172.16.3.2,5201,2896,10276,6,64256,65728,6,6,4,1460,546,1,1075848160,46,82732,82732,65700,0,10136,0,0,0
o,0x00000000,1681814604.700210,172.16.1.2,64734,172.16.3.2,5201,2896,10543,6,65728,65728,6,6,4,1460,558,1,1075848160,47,82732,81284,65700,0,8688,0,0,0
i,0x00000000,1681814604.704588,172.16.1.2,64734,172.16.3.2,5201,2896,10543,6,65728,65728,6,6,4,1460,558,1,1075848160,47,82732,81284,65700,0,10136,0,0,0
o,0x00000000,1681814604.704621,172.16.1.2,64734,172.16.3.2,5201,2896,10570,6,64256,65728,6,6,4,1460,573,1,1075848160,49,82732,78388,65700,0,7240,0,0,0
o,0x00000000,1681814604.704730,172.16.1.2,64734,172.16.3.2,5201,2896,10570,6,64256,65728,6,6,4,1460,573,1,1075848160,49,82732,78388,65700,0,8688,0,0,0
i,0x00000000,1681814604.761915,172.16.1.2,64734,172.16.3.2,5201,2896,10570,6,64256,65728,6,6,4,1460,573,1,1075848160,49,82732,82732,65700,0,10136,0,0,0
o,0x00000000,1681814604.762008,172.16.1.2,64734,172.16.3.2,5201,2896,10703,6,64256,65728,6,6,4,1460,582,1,1075848160,48,82732,79836,65700,0,7240,0,0,0
o,0x00000000,1681814604.762851,172.16.1.2,64734,172.16.3.2,5201,2896,10703,6,64256,65728,6,6,4,1460,582,1,1075848160,48,82732,79836,65700,0,8688,0,0,0
i,0x00000000,1681814604.804595,172.16.1.2,64734,172.16.3.2,5201,2896,10703,6,64256,65728,6,6,4,1460,582,1,1075848160,48,82732,82732,65700,0,10136,0,0,0
o,0x00000000,1681814604.804642,172.16.1.2,64734,172.16.3.2,5201,2896,10837,6,64256,65728,6,6,4,1460,590,1,1075848160,48,82732,79836,65700,0,7240,0,0,0
o,0x00000000,1681814604.804799,172.16.1.2,64734,172.16.3.2,5201,2896,10837,6,64256,65728,6,6,4,1460,590,1,1075848160,48,82732,79836,65700,0,8688,0,0,0
i,0x00000000,1681814604.856830,172.16.1.2,64734,172.16.3.2,5201,2896,10837,6,64256,65728,6,6,4,1460,590,1,1075848160,48,82732,82732,65700,0,10136,0,0,0
o,0x00000000,1681814604.856867,172.16.1.2,64734,172.16.3.2,5201,2896,11680,6,64256,65728,6,6,4,1460,581,1,1075848160,48,82732,79836,65700,0,7240,0,0,0
o,0x00000000,1681814604.857016,172.16.1.2,64734,172.16.3.2,5201,2896,11680,6,64256,65728,6,6,4,1460,581,1,1075848160,48,82732,79836,65700,0,8688,0,0,0
o,0x00000000,1681814604.857124,172.16.1.2,64734,172.16.3.2,5201,2896,11680,6,64256,65728,6,6,4,1460,581,1,1075848160,48,82732,79836,65700,0,10136,0,0,0
i,0x00000000,1681814604.905471,172.16.1.2,64734,172.16.3.2,5201,2896,11680,6,64256,65728,6,6,4,1460,581,1,1075848160,48,82732,82732,65700,0,11584,0,0,0
o,0x00000000,1681814604.905761,172.16.1.2,64734,172.16.3.2,5201,2896,11680,6,65728,65728,6,6,4,1460,589,1,1075848160,47,82732,81284,65700,0,10136,0,0,0
i,0x00000000,1681814604.946891,172.16.1.2,64734,172.16.3.2,5201,2896,11680,6,65728,65728,6,6,4,1460,589,1,1075848160,47,82732,81284,65700,0,11584,0,0,0
o,0x00000000,1681814604.947332,172.16.1.2,64734,172.16.3.2,5201,2896,11680,6,64256,65728,6,6,4,1460,592,1,1075848160,46,82732,78388,65700,0,8688,0,0,0
o,0x00000000,1681814604.947583,172.16.1.2,64734,172.16.3.2,5201,2896,11680,6,64256,65728,6,6,4,1460,592,1,1075848160,46,82732,78388,65700,0,10136,0,0,0
i,0x00000000,1681814604.989870,172.16.1.2,64734,172.16.3.2,5201,2896,11680,6,64256,65728,6,6,4,1460,592,1,1075848160,46,82732,82732,65700,0,11584,0,0,0
o,0x00000000,1681814604.989934,172.16.1.2,64734,172.16.3.2,5201,2896,13140,6,65728,65728,6,6,4,1460,590,1,1075848160,44,82732,81284,65700,0,10136,0,0,0
o,0x00000000,1681814604.989983,172.16.1.2,64734,172.16.3.2,5201,2896,13140,6,65728,65728,6,6,4,1460,590,1,1075848160,44,82732,81284,65700,0,11584,0,0,0
