enable_time_secs=1680706938	enable_time_usecs=658939	siftrver=1.2.4	hz=100	tcp_rtt_scale=32	sysname=FreeBSD	sysver=1400084	ipmode=4
o,0x00000000,1680706938.659337,10.0.2.15,22,10.0.2.2,59773,1073725440,17202,1026,65535,65700,0,0,4,1460,1,0,4,24,33580,68,65700,0,0,0,0,0
o,0x00000000,1680706938.659581,10.0.2.15,22,10.0.2.2,59773,1073725440,17202,1026,65535,65700,0,0,4,1460,1,0,4,24,33580,244,65700,0,68,0,0,0
i,0x00000000,1680706938.659832,10.0.2.15,22,10.0.2.2,59773,1073725440,17202,1026,65535,65700,0,0,4,1460,1,0,4,24,33580,244,65700,0,244,0,0,0
i,0x00000000,1680706938.659853,10.0.2.15,22,10.0.2.2,59773,1073725440,17270,1026,65535,65700,0,0,4,1460,1,0,4,24,33580,176,65700,0,176,0,0,0
i,0x00000000,1680706938.660809,10.0.2.15,22,10.0.2.2,59773,1073725440,17446,1026,65535,65700,0,0,4,1460,1,0,4,24,33580,0,65700,0,0,0,0,0
i,0x00000000,1680706938.660831,10.0.2.15,22,10.0.2.2,59773,1073725440,17446,1026,65535,65700,0,0,4,1460,1,0,4,24,33580,0,65700,36,0,0,0,0
o,0x00000000,1680706938.660851,10.0.2.15,22,10.0.2.2,59773,1073725440,17446,1026,65535,65700,0,0,4,1460,1,0,5,24,33580,0,65700,96,0,0,0,0
i,0x00000000,1680706938.660962,10.0.2.15,22,10.0.2.2,59773,1073725440,17446,1026,65535,65700,0,0,4,1460,1,0,4,24,33580,0,65700,0,0,0,0,0
o,0x00000000,1680706938.660981,10.0.2.15,22,10.0.2.2,59773,1073725440,17446,1026,65535,65700,0,0,5,1460,1,0,7,24,33580,0,65700,0,0,0,0,0
o,0x00000000,1680706938.661840,10.0.2.15,22,10.0.2.2,59773,1073725440,17446,1026,65535,65700,0,0,8,1460,1,0,4,24,33580,0,65700,0,0,0,0,0
i,0x00000000,1680706938.662493,10.0.2.15,22,10.0.2.2,59773,1073725440,17446,1026,65535,65700,0,0,8,1460,1,0,67108884,24,33580,0,65700,0,1,0,0,0
i,0x00000000,1680706939.953190,10.0.2.15,22,10.0.2.2,59777,1073725440,14600,0,65535,65700,0,0,4,1460,1,0,0,28,33580,0,65700,0,0,0,0,0
o,0x00000000,1680706939.964551,10.0.2.15,22,10.0.2.2,59777,1073725440,14600,1026,65535,65700,0,0,4,1460,1,0,0,28,33580,38,65700,41,0,0,0,0
i,0x00000000,1680706939.965565,10.0.2.15,22,10.0.2.2,59777,1073725440,14600,1026,65535,65700,0,0,4,1460,1,0,0,28,33580,38,65700,0,38,0,0,0
i,0x00000000,1680706939.966329,10.0.2.15,22,10.0.2.2,59777,1073725440,14638,1026,65535,65700,0,0,4,1460,1,0,0,24,33580,0,65700,0,0,0,0,0
i,0x00000000,1680706939.966348,10.0.2.15,22,10.0.2.2,59777,1073725440,14638,1026,65535,65700,0,0,4,1460,1,0,0,24,33580,0,65700,1460,0,0,0,0
o,0x00000000,1680706939.966368,10.0.2.15,22,10.0.2.2,59777,1073725440,14638,1026,65535,65700,0,0,4,1460,1,0,1,24,33580,0,65700,1504,0,0,0,0
o,0x00000000,1680706939.967287,10.0.2.15,22,10.0.2.2,59777,1073725440,14638,1026,65535,65700,0,0,4,1460,1,0,0,24,33580,1056,65700,1504,0,0,0,0
i,0x00000000,1680706939.967871,10.0.2.15,22,10.0.2.2,59777,1073725440,14638,1026,65535,65700,0,0,4,1460,1,0,0,24,33580,1056,65700,0,1056,0,0,0
i,0x00000000,1680706939.969855,10.0.2.15,22,10.0.2.2,59777,1073725440,15694,1026,65535,65700,0,0,4,1460,1,0,0,24,33580,0,65700,0,0,0,0,0
o,0x00000000,1680706939.973228,10.0.2.15,22,10.0.2.2,59777,1073725440,15694,1026,65535,65700,0,0,4,1460,1,0,0,24,33580,484,65700,0,0,0,0,0
i,0x00000000,1680706939.973777,10.0.2.15,22,10.0.2.2,59777,1073725440,15694,1026,65535,65700,0,0,4,1460,1,0,0,24,33580,484,65700,0,484,0,0,0
i,0x00000000,1680706939.985905,10.0.2.15,22,10.0.2.2,59777,1073725440,16178,1026,65535,65700,0,0,4,1460,1,0,0,24,33580,0,65700,0,0,0,0,0
i,0x00000000,1680706939.991094,10.0.2.15,22,10.0.2.2,59777,1073725440,16178,1026,65535,65700,0,0,4,1460,1,0,0,24,33580,0,65700,0,0,0,0,0
o,0x00000000,1680706939.991126,10.0.2.15,22,10.0.2.2,59777,1073725440,16178,1026,65535,65700,0,0,4,1460,1,0,1,24,33580,0,65700,44,0,0,0,0
o,0x00000000,1680706939.991286,10.0.2.15,22,10.0.2.2,59777,1073725440,16178,1026,65535,65700,0,0,4,1460,1,0,0,24,33580,44,65700,0,0,0,0,0
i,0x00000000,1680706939.992657,10.0.2.15,22,10.0.2.2,59777,1073725440,16178,1026,65535,65700,0,0,4,1460,1,0,0,24,33580,44,65700,0,44,0,0,0
i,0x00000000,1680706939.992706,10.0.2.15,22,10.0.2.2,59777,1073725440,16222,1026,65535,65700,0,0,4,1460,1,0,0,24,33580,0,65700,0,0,0,0,0
o,0x00000000,1680706939.998671,10.0.2.15,22,10.0.2.2,59777,1073725440,16222,1026,65535,65700,0,0,4,1460,1,0,0,24,33580,68,65700,0,0,0,0,0
i,0x00000000,1680706939.999250,10.0.2.15,22,10.0.2.2,59777,1073725440,16222,1026,65535,65700,0,0,4,1460,1,0,0,24,33580,68,65700,0,68,0,0,0
i,0x00000000,1680706940.001107,10.0.2.15,22,10.0.2.2,59777,1073725440,16290,1026,65535,65700,0,0,4,1460,1,0,0,24,33580,0,65700,0,0,0,0,0
o,0x00000000,1680706940.006999,10.0.2.15,22,10.0.2.2,59777,1073725440,16290,1026,65535,65700,0,0,4,1460,1,0,0,24,33580,28,65700,0,0,0,0,0
i,0x00000000,1680706940.007942,10.0.2.15,22,10.0.2.2,59777,1073725440,16290,1026,65535,65700,0,0,4,1460,1,0,0,24,33580,28,65700,0,28,0,0,0
i,0x00000000,1680706940.008528,10.0.2.15,22,10.0.2.2,59777,1073725440,16318,1026,65535,65700,0,0,4,1460,1,0,0,24,33580,0,65700,0,0,0,0,0
o,0x00000000,1680706940.009754,10.0.2.15,22,10.0.2.2,59777,1073725440,16318,1026,65535,65700,0,0,4,1460,1,0,0,24,33580,768,65700,112,0,0,0,0
i,0x00000000,1680706940.010192,10.0.2.15,22,10.0.2.2,59777,1073725440,16318,1026,65535,65700,0,0,4,1460,1,0,0,24,33580,768,65700,112,768,0,0,0
o,0x00000000,1680706940.010416,10.0.2.15,22,10.0.2.2,59777,1073725440,17086,1026,65535,65700,0,0,4,1460,1,0,0,24,33580,44,65700,0,0,0,0,0
i,0x00000000,1680706940.010897,10.0.2.15,22,10.0.2.2,59777,1073725440,17086,1026,65535,65700,0,0,4,1460,1,0,0,24,33580,44,65700,0,44,0,0,0
i,0x00000000,1680706940.013201,10.0.2.15,22,10.0.2.2,59777,1073725440,17130,1026,65535,65700,0,0,4,1460,1,0,0,24,33580,0,65700,0,0,0,0,0
o,0x00000000,1680706940.014748,10.0.2.15,22,10.0.2.2,59777,1073725440,17130,1026,65535,65700,0,0,4,1460,1,0,4,24,33580,72,65700,0,0,0,0,0
i,0x00000000,1680706940.015603,10.0.2.15,22,10.0.2.2,59777,1073725440,17130,1026,65535,65700,0,0,4,1460,1,0,4,24,33580,72,65700,0,72,0,0,0
o,0x00000000,1680706940.027661,172.16.1.2,28217,172.16.3.2,5201,1073725440,1073725440,2,0,0,0,0,2,536,0,1,672,100,32768,0,65536,0,0,0,0,0
i,0x00000000,1680706940.148309,172.16.1.2,28217,172.16.3.2,5201,1073725440,1073725440,2,0,0,0,0,2,536,0,1,672,100,32768,0,65536,0,1,0,0,0
o,0x00000000,1680706940.148500,172.16.1.2,28217,172.16.3.2,5201,67312,14480,2,65535,65700,6,6,4,1460,472,1,993,43,33580,0,65700,0,0,0,0,0
o,0x00000000,1680706940.151330,172.16.1.2,28217,172.16.3.2,5201,67312,14480,2,65535,65700,6,6,4,1460,472,1,996,43,33580,37,65700,0,0,0,0,0
i,0x00000000,1680706940.273061,172.16.1.2,28217,172.16.3.2,5201,67312,14480,2,65535,65700,6,6,4,1460,472,1,996,43,33580,37,65700,0,37,0,0,0
o,0x00000000,1680706940.273603,172.16.1.2,28217,172.16.3.2,5201,67312,14517,1026,65728,65728,6,6,4,1460,461,1,996,43,33580,4,65700,0,0,0,0,0
o,0x00000000,1680706940.274687,172.16.1.2,28217,172.16.3.2,5201,67312,14517,1026,65728,65728,6,6,4,1460,461,1,996,43,33580,128,65700,0,4,0,0,0
i,0x00000000,1680706940.423371,172.16.1.2,28217,172.16.3.2,5201,67312,14517,1026,65728,65728,6,6,4,1460,461,1,996,43,33580,128,65700,0,128,0,0,0
i,0x00000000,1680706940.437815,172.16.1.2,28217,172.16.3.2,5201,67312,14645,1026,65600,65728,6,6,4,1460,464,1,996,42,33580,0,65700,0,0,0,0,0
o,0x00000000,1680706940.438322,172.16.1.2,29589,172.16.3.2,5201,1073725440,1073725440,2,0,0,0,0,2,536,0,1,672,100,32768,0,65536,0,0,0,0,0
o,0x00000000,1680706940.523065,172.16.1.2,28217,172.16.3.2,5201,67312,14645,1026,65728,65728,6,6,4,1460,464,1,997,42,33580,0,65700,0,0,0,0,0
i,0x00000000,1680706940.578222,172.16.1.2,29589,172.16.3.2,5201,1073725440,1073725440,2,0,0,0,0,2,536,0,1,672,100,32768,0,65536,0,1,0,0,0
o,0x00000000,1680706940.578329,172.16.1.2,29589,172.16.3.2,5201,67312,14480,2,65535,65700,6,6,4,1460,480,1,993,41,33580,0,65700,0,0,0,0,0
o,0x00000000,1680706940.578511,172.16.1.2,29589,172.16.3.2,5201,67312,14480,2,65535,65700,6,6,4,1460,480,1,992,41,33580,37,65700,0,0,0,0,0
i,0x00000000,1680706940.682531,172.16.1.2,28217,172.16.3.2,5201,67312,14645,1026,65728,65728,6,6,4,1460,464,1,996,42,33580,0,65700,0,0,0,0,0
i,0x00000000,1680706940.682554,172.16.1.2,28217,172.16.3.2,5201,67312,14645,1026,65728,65728,6,6,4,1460,464,1,996,42,33580,0,65700,1,0,0,0,0
o,0x00000000,1680706940.682576,172.16.1.2,28217,172.16.3.2,5201,67312,14645,1026,65728,65728,6,6,4,1460,464,1,997,42,33580,0,65700,2,0,0,0,0
o,0x00000000,1680706940.682914,172.16.1.2,29589,172.16.3.2,5201,67312,14480,6,65535,65700,6,6,4,1460,480,1,992,41,33580,33580,65700,0,37,0,0,0
o,0x00000000,1680706940.683269,172.16.1.2,29589,172.16.3.2,5201,67312,14480,6,65535,65700,6,6,4,1460,480,1,992,41,33580,33580,65700,0,1485,0,0,0
o,0x00000000,1680706940.683604,172.16.1.2,29589,172.16.3.2,5201,67312,14480,6,65535,65700,6,6,4,1460,480,1,992,41,33580,33580,65700,0,2933,0,0,0
o,0x00000000,1680706940.683936,172.16.1.2,29589,172.16.3.2,5201,67312,14480,6,65535,65700,6,6,4,1460,480,1,992,41,33580,33580,65700,0,4381,0,0,0
o,0x00000000,1680706940.684277,172.16.1.2,29589,172.16.3.2,5201,67312,14480,6,65535,65700,6,6,4,1460,480,1,992,41,33580,33580,65700,0,5829,0,0,0
o,0x00000000,1680706940.684615,172.16.1.2,29589,172.16.3.2,5201,67312,14480,6,65535,65700,6,6,4,1460,480,1,992,41,33580,33580,65700,0,7277,0,0,0
o,0x00000000,1680706940.684949,172.16.1.2,29589,172.16.3.2,5201,67312,14480,6,65535,65700,6,6,4,1460,480,1,992,41,33580,33580,65700,0,8725,0,0,0
o,0x00000000,1680706940.685621,172.16.1.2,29589,172.16.3.2,5201,67312,14480,6,65535,65700,6,6,4,1460,480,1,992,41,33580,33580,65700,0,10173,0,0,0
o,0x00000000,1680706940.686527,172.16.1.2,29589,172.16.3.2,5201,67312,14480,6,65535,65700,6,6,4,1460,480,1,992,41,33580,33580,65700,0,11621,0,0,0
i,0x00000000,1680706940.717435,172.16.1.2,29589,172.16.3.2,5201,67312,14480,6,65535,65700,6,6,4,1460,480,1,992,41,33580,33580,65700,0,13069,0,0,0
o,0x00000000,1680706940.717465,172.16.1.2,29589,172.16.3.2,5201,67312,14517,6,65728,65728,6,6,4,1460,476,1,992,40,33580,33543,65700,0,13032,0,0,0
i,0x00000000,1680706940.942315,172.16.1.2,29589,172.16.3.2,5201,67312,14517,6,65728,65728,6,6,4,1460,476,1,992,40,33580,33543,65700,0,14480,0,0,0
o,0x00000000,1680706940.942871,172.16.1.2,29589,172.16.3.2,5201,67312,17413,6,64256,65728,6,6,4,1460,521,1,992,52,33580,30647,65700,0,11584,0,0,0
o,0x00000000,1680706940.944067,172.16.1.2,29589,172.16.3.2,5201,67312,17413,6,64256,65728,6,6,4,1460,521,1,992,52,33580,30647,65700,0,13032,0,0,0
o,0x00000000,1680706940.944391,172.16.1.2,29589,172.16.3.2,5201,67312,17413,6,64256,65728,6,6,4,1460,521,1,992,52,41772,30647,65700,0,14480,0,0,0
o,0x00000000,1680706940.944627,172.16.1.2,29589,172.16.3.2,5201,67312,17413,6,64256,65728,6,6,4,1460,521,1,992,52,41772,30647,65700,0,15928,0,0,0
i,0x00000000,1680706940.952664,172.16.1.2,29589,172.16.3.2,5201,67312,17413,6,64256,65728,6,6,4,1460,521,1,992,52,41772,41772,65700,0,17376,0,0,0
o,0x00000000,1680706940.952783,172.16.1.2,29589,172.16.3.2,5201,67312,20309,6,64256,65728,6,6,4,1460,564,1,992,60,41772,38876,65700,0,14480,0,0,0
o,0x00000000,1680706940.952893,172.16.1.2,29589,172.16.3.2,5201,67312,20309,6,64256,65728,6,6,4,1460,564,1,992,60,41772,38876,65700,0,15928,0,0,0
o,0x00000000,1680706940.952986,172.16.1.2,29589,172.16.3.2,5201,67312,20309,6,64256,65728,6,6,4,1460,564,1,992,60,41772,38876,65700,0,17376,0,0,0
o,0x00000000,1680706940.953099,172.16.1.2,29589,172.16.3.2,5201,67312,20309,6,64256,65728,6,6,4,1460,564,1,992,60,49964,38876,65700,0,18824,0,0,0
i,0x00000000,1680706941.013815,172.16.1.2,29589,172.16.3.2,5201,67312,20309,6,64256,65728,6,6,4,1460,564,1,992,60,49964,49964,65700,0,20272,0,0,0
o,0x00000000,1680706941.013850,172.16.1.2,29589,172.16.3.2,5201,67312,23205,6,64256,65728,6,6,4,1460,626,1,992,72,49964,47068,65700,0,17376,0,0,0
o,0x00000000,1680706941.013959,172.16.1.2,29589,172.16.3.2,5201,67312,23205,6,64256,65728,6,6,4,1460,626,1,992,72,49964,47068,65700,0,18824,0,0,0
o,0x00000000,1680706941.014051,172.16.1.2,29589,172.16.3.2,5201,67312,23205,6,64256,65728,6,6,4,1460,626,1,992,72,49964,47068,65700,0,20272,0,0,0
o,0x00000000,1680706941.014143,172.16.1.2,29589,172.16.3.2,5201,67312,23205,6,64256,65728,6,6,4,1460,626,1,992,72,49964,47068,65700,0,21720,0,0,0
i,0x00000000,1680706941.037208,172.16.1.2,29589,172.16.3.2,5201,67312,23205,6,64256,65728,6,6,4,1460,626,1,992,72,49964,49964,65700,0,23168,0,0,0
o,0x00000000,1680706941.037776,172.16.1.2,29589,172.16.3.2,5201,67312,26101,6,64256,65728,6,6,4,1460,692,1,992,82,49964,47068,65700,0,20272,0,0,0
o,0x00000000,1680706941.038045,172.16.1.2,29589,172.16.3.2,5201,67312,26101,6,64256,65728,6,6,4,1460,692,1,992,82,58156,47068,65700,0,21720,0,0,0
o,0x00000000,1680706941.038192,172.16.1.2,29589,172.16.3.2,5201,67312,26101,6,64256,65728,6,6,4,1460,692,1,992,82,58156,47068,65700,0,23168,0,0,0
o,0x00000000,1680706941.038334,172.16.1.2,29589,172.16.3.2,5201,67312,26101,6,64256,65728,6,6,4,1460,692,1,992,82,58156,47068,65700,0,24616,0,0,0
i,0x00000000,1680706941.065292,172.16.1.2,29589,172.16.3.2,5201,67312,26101,6,64256,65728,6,6,4,1460,692,1,992,82,58156,58156,65700,0,26064,0,0,0
o,0x00000000,1680706941.065323,172.16.1.2,29589,172.16.3.2,5201,67312,28997,6,62848,65728,6,6,4,1460,754,1,992,90,58156,55260,65700,0,23168,0,0,0
o,0x00000000,1680706941.065423,172.16.1.2,29589,172.16.3.2,5201,67312,28997,6,62848,65728,6,6,4,1460,754,1,992,90,58156,55260,65700,0,24616,0,0,0
o,0x00000000,1680706941.065514,172.16.1.2,29589,172.16.3.2,5201,67312,28997,6,62848,65728,6,6,4,1460,754,1,992,90,58156,55260,65700,0,26064,0,0,0
o,0x00000000,1680706941.065783,172.16.1.2,29589,172.16.3.2,5201,67312,28997,6,62848,65728,6,6,4,1460,754,1,992,90,66348,55260,65700,0,27512,0,0,0
i,0x00000000,1680706941.162821,172.16.1.2,29589,172.16.3.2,5201,67312,28997,6,62848,65728,6,6,4,1460,754,1,992,90,66348,66348,65700,0,28960,0,0,0
o,0x00000000,1680706941.162888,172.16.1.2,29589,172.16.3.2,5201,67312,31893,6,64256,65728,6,6,4,1460,744,1,992,80,66348,63452,65700,0,26064,0,0,0
o,0x00000000,1680706941.163160,172.16.1.2,29589,172.16.3.2,5201,67312,31893,6,64256,65728,6,6,4,1460,744,1,992,80,66348,63452,65700,0,27512,0,0,0
o,0x00000000,1680706941.163254,172.16.1.2,29589,172.16.3.2,5201,67312,31893,6,64256,65728,6,6,4,1460,744,1,992,80,66348,63452,65700,0,28960,0,0,0
o,0x00000000,1680706941.163345,172.16.1.2,29589,172.16.3.2,5201,67312,31893,6,64256,65728,6,6,4,1460,744,1,992,80,66348,63452,65700,0,30408,0,0,0
i,0x00000000,1680706941.163434,172.16.1.2,29589,172.16.3.2,5201,67312,31893,6,64256,65728,6,6,4,1460,744,1,992,80,74540,63452,65700,0,31856,0,0,0
o,0x00000000,1680706941.163452,172.16.1.2,29589,172.16.3.2,5201,67312,34789,6,64256,65728,6,6,4,1460,735,1,992,73,74540,60556,65700,0,28960,0,0,0
o,0x00000000,1680706941.163709,172.16.1.2,29589,172.16.3.2,5201,67312,34789,6,64256,65728,6,6,4,1460,735,1,992,73,74540,60556,65700,0,30408,0,0,0
o,0x00000000,1680706941.163947,172.16.1.2,29589,172.16.3.2,5201,67312,34789,6,64256,65728,6,6,4,1460,735,1,992,73,74540,60556,65700,0,31856,0,0,0
o,0x00000000,1680706941.164202,172.16.1.2,29589,172.16.3.2,5201,67312,34789,6,64256,65728,6,6,4,1460,735,1,992,73,74540,60556,65700,0,33304,0,0,0
i,0x00000000,1680706941.223624,172.16.1.2,29589,172.16.3.2,5201,67312,34789,6,64256,65728,6,6,4,1460,735,1,992,73,74540,74540,65700,0,34752,0,0,0
o,0x00000000,1680706941.223669,172.16.1.2,29589,172.16.3.2,5201,67312,36237,6,65728,65728,6,6,4,1460,752,1,992,70,74540,73092,65700,0,33304,0,0,0
o,0x00000000,1680706941.223788,172.16.1.2,29589,172.16.3.2,5201,67312,36237,6,65728,65728,6,6,4,1460,752,1,992,70,74540,73092,65700,0,34752,0,0,0
i,0x00000000,1680706941.282080,172.16.1.2,29589,172.16.3.2,5201,67312,36237,6,65728,65728,6,6,4,1460,752,1,992,70,74540,73092,65700,0,36200,0,0,0
o,0x00000000,1680706941.282120,172.16.1.2,29589,172.16.3.2,5201,67312,39133,6,64256,65728,6,6,4,1460,790,1,992,74,82732,70196,65700,0,33304,0,0,0
o,0x00000000,1680706941.282229,172.16.1.2,29589,172.16.3.2,5201,67312,39133,6,64256,65728,6,6,4,1460,790,1,992,74,82732,70196,65700,0,34752,0,0,0
o,0x00000000,1680706941.282318,172.16.1.2,29589,172.16.3.2,5201,67312,39133,6,64256,65728,6,6,4,1460,790,1,992,74,82732,70196,65700,0,36200,0,0,0
o,0x00000000,1680706941.282430,172.16.1.2,29589,172.16.3.2,5201,67312,39133,6,64256,65728,6,6,4,1460,790,1,992,74,82732,70196,65700,0,37648,0,0,0
i,0x00000000,1680706941.392772,172.16.1.2,29589,172.16.3.2,5201,67312,39133,6,64256,65728,6,6,4,1460,790,1,992,74,82732,82732,65700,0,39096,0,0,0
o,0x00000000,1680706941.392890,172.16.1.2,29589,172.16.3.2,5201,67312,40581,6,65728,65728,6,6,4,1460,868,1,992,89,82732,81284,65700,0,37648,0,0,0
o,0x00000000,1680706941.393283,172.16.1.2,29589,172.16.3.2,5201,67312,40581,6,65728,65728,6,6,4,1460,868,1,992,89,82732,81284,65700,0,39096,0,0,0
i,0x00000000,1680706941.393600,172.16.1.2,29589,172.16.3.2,5201,67312,40581,6,65728,65728,6,6,4,1460,868,1,992,89,82732,81284,65700,0,40544,0,0,0
o,0x00000000,1680706941.393661,172.16.1.2,29589,172.16.3.2,5201,67312,43477,6,64256,65728,6,6,4,1460,912,1,992,91,82732,78388,65700,0,37648,0,0,0
o,0x00000000,1680706941.393979,172.16.1.2,29589,172.16.3.2,5201,67312,43477,6,64256,65728,6,6,4,1460,912,1,992,91,82732,78388,65700,0,39096,0,0,0
o,0x00000000,1680706941.394302,172.16.1.2,29589,172.16.3.2,5201,67312,43477,6,64256,65728,6,6,4,1460,912,1,992,91,82732,78388,65700,0,40544,0,0,0
o,0x00000000,1680706941.394583,172.16.1.2,29589,172.16.3.2,5201,67312,43477,6,64256,65728,6,6,4,1460,912,1,992,91,82732,78388,65700,0,41992,0,0,0
i,0x00000000,1680706941.411554,172.16.1.2,29589,172.16.3.2,5201,67312,43477,6,64256,65728,6,6,4,1460,912,1,992,91,82732,82732,65700,0,43440,0,0,0
o,0x00000000,1680706941.411629,172.16.1.2,29589,172.16.3.2,5201,67312,46373,6,64256,65728,6,6,4,1460,958,1,992,93,82732,79836,65700,0,40544,0,0,0
o,0x00000000,1680706941.411952,172.16.1.2,29589,172.16.3.2,5201,67312,46373,6,64256,65728,6,6,4,1460,958,1,992,93,82732,79836,65700,0,41992,0,0,0
o,0x00000000,1680706941.412242,172.16.1.2,29589,172.16.3.2,5201,67312,46373,6,64256,65728,6,6,4,1460,958,1,992,93,82732,79836,65700,0,43440,0,0,0
o,0x00000000,1680706941.412576,172.16.1.2,29589,172.16.3.2,5201,67312,46373,6,64256,65728,6,6,4,1460,958,1,992,93,82732,79836,65700,0,44888,0,0,0
i,0x00000000,1680706941.575887,172.16.1.2,29589,172.16.3.2,5201,67312,46373,6,64256,65728,6,6,4,1460,958,1,992,93,82732,82732,65700,0,46336,0,0,0
o,0x00000000,1680706941.576002,172.16.1.2,29589,172.16.3.2,5201,67312,49269,6,64256,65728,6,6,4,1460,1051,1,992,108,82732,79836,65700,0,43440,0,0,0
o,0x00000000,1680706941.576109,172.16.1.2,29589,172.16.3.2,5201,67312,49269,6,64256,65728,6,6,4,1460,1051,1,992,108,82732,79836,65700,0,44888,0,0,0
o,0x00000000,1680706941.576214,172.16.1.2,29589,172.16.3.2,5201,67312,49269,6,64256,65728,6,6,4,1460,1051,1,992,108,82732,79836,65700,0,46336,0,0,0
o,0x00000000,1680706941.576305,172.16.1.2,29589,172.16.3.2,5201,67312,49269,6,64256,65728,6,6,4,1460,1051,1,992,108,82732,79836,65700,0,47784,0,0,0
i,0x00000000,1680706941.622383,172.16.1.2,29589,172.16.3.2,5201,67312,49269,6,64256,65728,6,6,4,1460,1051,1,992,108,82732,82732,65700,0,49232,0,0,0
o,0x00000000,1680706941.622432,172.16.1.2,29589,172.16.3.2,5201,67312,52165,6,64256,65728,6,6,4,1460,1152,1,992,123,82732,79836,65700,0,46336,0,0,0
o,0x00000000,1680706941.622552,172.16.1.2,29589,172.16.3.2,5201,67312,52165,6,64256,65728,6,6,4,1460,1152,1,992,123,82732,79836,65700,0,47784,0,0,0
o,0x00000000,1680706941.622653,172.16.1.2,29589,172.16.3.2,5201,67312,52165,6,64256,65728,6,6,4,1460,1152,1,992,123,82732,79836,65700,0,49232,0,0,0
o,0x00000000,1680706941.622797,172.16.1.2,29589,172.16.3.2,5201,67312,52165,6,64256,65728,6,6,4,1460,1152,1,992,123,82732,79836,65700,0,50680,0,0,0
i,0x00000000,1680706941.622911,172.16.1.2,29589,172.16.3.2,5201,67312,52165,6,64256,65728,6,6,4,1460,1152,1,992,123,82732,79836,65700,0,52128,0,0,0
o,0x00000000,1680706941.622942,172.16.1.2,29589,172.16.3.2,5201,67312,55061,6,64256,65728,6,6,4,1460,1228,1,992,127,82732,76940,65700,0,49232,0,0,0
o,0x00000000,1680706941.623111,172.16.1.2,29589,172.16.3.2,5201,67312,55061,6,64256,65728,6,6,4,1460,1228,1,992,127,82732,76940,65700,0,50680,0,0,0
o,0x00000000,1680706941.623222,172.16.1.2,29589,172.16.3.2,5201,67312,55061,6,64256,65728,6,6,4,1460,1228,1,992,127,82732,76940,65700,0,52128,0,0,0
o,0x00000000,1680706941.623323,172.16.1.2,29589,172.16.3.2,5201,67312,55061,6,64256,65728,6,6,4,1460,1228,1,992,127,82732,76940,65700,0,53576,0,0,0
i,0x00000000,1680706941.682814,172.16.1.2,29589,172.16.3.2,5201,67312,55061,6,64256,65728,6,6,4,1460,1228,1,992,127,82732,82732,65700,0,55024,0,0,0
o,0x00000000,1680706941.682853,172.16.1.2,29589,172.16.3.2,5201,67312,56509,6,65728,65728,6,6,4,1460,1319,1,992,136,82732,81284,65700,0,53576,0,0,0
o,0x00000000,1680706941.682965,172.16.1.2,29589,172.16.3.2,5201,67312,56509,6,65728,65728,6,6,4,1460,1319,1,992,136,82732,81284,65700,0,55024,0,0,0
i,0x00000000,1680706941.712587,172.16.1.2,29589,172.16.3.2,5201,67312,56509,6,65728,65728,6,6,4,1460,1319,1,992,136,82732,81284,65700,0,56472,0,0,0
o,0x00000000,1680706941.712705,172.16.1.2,29589,172.16.3.2,5201,67312,59405,6,62848,65728,6,6,4,1460,1411,1,992,143,82732,78388,65700,0,53576,0,0,0
o,0x00000000,1680706941.712852,172.16.1.2,29589,172.16.3.2,5201,67312,59405,6,62848,65728,6,6,4,1460,1411,1,992,143,82732,78388,65700,0,55024,0,0,0
o,0x00000000,1680706941.712945,172.16.1.2,29589,172.16.3.2,5201,67312,59405,6,62848,65728,6,6,4,1460,1411,1,992,143,82732,78388,65700,0,56472,0,0,0
o,0x00000000,1680706941.713037,172.16.1.2,29589,172.16.3.2,5201,67312,59405,6,62848,65728,6,6,4,1460,1411,1,992,143,82732,78388,65700,0,57920,0,0,0
i,0x00000000,1680706941.732024,172.16.1.2,29589,172.16.3.2,5201,67312,59405,6,62848,65728,6,6,4,1460,1411,1,992,143,82732,82732,65700,0,59368,0,0,0
o,0x00000000,1680706941.732153,172.16.1.2,29589,172.16.3.2,5201,67312,60853,6,64256,65728,6,6,4,1460,1463,1,992,138,82732,81284,65700,0,57920,0,0,0
o,0x00000000,1680706941.732279,172.16.1.2,29589,172.16.3.2,5201,67312,60853,6,64256,65728,6,6,4,1460,1463,1,992,138,82732,81284,65700,0,59368,0,0,0
i,0x00000000,1680706941.814786,172.16.1.2,29589,172.16.3.2,5201,67312,60853,6,64256,65728,6,6,4,1460,1463,1,992,138,82732,81284,65700,0,60816,0,0,0
o,0x00000000,1680706941.814834,172.16.1.2,29589,172.16.3.2,5201,67312,63712,6,64256,65728,6,6,4,1460,1463,1,992,138,82732,81284,65700,0,60816,0,0,0
o,0x00000000,1680706941.814968,172.16.1.2,29589,172.16.3.2,5201,67312,63712,2,64256,65728,6,6,4,1460,1463,1,992,138,82732,81284,65700,0,62264,0,0,0
i,0x00000000,1680706941.852606,172.16.1.2,29589,172.16.3.2,5201,67312,60853,2,64256,65728,6,6,4,1460,1463,1,992,138,82732,81284,65700,0,63712,0,0,0
o,0x00000000,1680706941.852675,172.16.1.2,29589,172.16.3.2,5201,30426,1448,2,64256,65728,6,6,4,1460,1463,1,537920480,138,82732,81284,65700,0,63712,0,0,0
i,0x00000000,1680706941.897291,172.16.1.2,29589,172.16.3.2,5201,30426,1448,2,64256,65728,6,6,4,1460,1463,1,537920480,138,82732,81284,65700,0,63712,0,0,0
i,0x00000000,1680706941.897318,172.16.1.2,29589,172.16.3.2,5201,30426,1448,2,64256,65728,6,6,4,1460,1463,1,537920480,138,82732,81284,65700,0,63712,0,0,0
o,0x00000000,1680706941.897342,172.16.1.2,29589,172.16.3.2,5201,30426,2896,2,64256,65728,6,6,4,1460,1463,1,537920480,138,82732,81284,65700,0,63712,0,0,0
i,0x00000000,1680706941.943245,172.16.1.2,29589,172.16.3.2,5201,30426,2896,2,64256,65728,6,6,4,1460,1463,1,537920480,138,82732,81284,65700,0,63712,0,0,0
i,0x00000000,1680706941.943272,172.16.1.2,29589,172.16.3.2,5201,30426,2896,2,64256,65728,6,6,4,1460,1463,1,537920480,138,82732,81284,65700,0,63712,0,0,0
i,0x00000000,1680706941.943287,172.16.1.2,29589,172.16.3.2,5201,30426,4344,2,64256,65728,6,6,4,1460,1463,1,537920480,138,82732,81284,65700,0,63712,0,0,0
i,0x00000000,1680706942.013743,172.16.1.2,29589,172.16.3.2,5201,30426,4344,2,64256,65728,6,6,4,1460,1463,1,537920480,138,82732,81284,65700,0,63712,0,0,0
i,0x00000000,1680706942.045037,172.16.1.2,29589,172.16.3.2,5201,30426,5792,2,64256,65728,6,6,4,1460,1463,1,537920480,138,82732,81284,65700,0,63712,0,0,0
i,0x00000000,1680706942.084863,172.16.1.2,29589,172.16.3.2,5201,30426,5792,2,64256,65728,6,6,4,1460,1463,1,537920480,138,82732,81284,65700,0,63712,0,0,0
i,0x00000000,1680706942.136376,172.16.1.2,29589,172.16.3.2,5201,30426,7240,2,64256,65728,6,6,4,1460,1463,1,537920480,138,82732,81284,65700,0,63712,0,0,0
i,0x00000000,1680706942.136414,172.16.1.2,29589,172.16.3.2,5201,30426,7240,2,64256,65728,6,6,4,1460,1463,1,537920480,138,82732,81284,65700,0,63712,0,0,0
i,0x00000000,1680706942.178804,172.16.1.2,29589,172.16.3.2,5201,30426,8688,2,64256,65728,6,6,4,1460,1463,1,537920480,138,82732,81284,65700,0,63712,0,0,0
o,0x00000000,1680706942.179140,172.16.1.2,29589,172.16.3.2,5201,30426,8688,2,64256,65728,6,6,4,1460,1463,1,537920480,138,82732,81284,65700,0,63712,0,0,0
i,0x00000000,1680706942.243097,172.16.1.2,29589,172.16.3.2,5201,30426,8688,2,64256,65728,6,6,4,1460,1463,1,537920480,138,82732,81284,65700,0,63712,0,0,0
i,0x00000000,1680706942.243124,172.16.1.2,29589,172.16.3.2,5201,30426,10136,2,64256,65728,6,6,4,1460,1463,1,537920480,138,82732,81284,65700,0,63712,0,0,0
i,0x00000000,1680706942.243139,172.16.1.2,29589,172.16.3.2,5201,30426,10136,2,64256,65728,6,6,4,1460,1463,1,537920480,138,82732,81284,65700,0,63712,0,0,0
i,0x00000000,1680706942.243154,172.16.1.2,29589,172.16.3.2,5201,30426,11584,2,64256,65728,6,6,4,1460,1463,1,537920480,138,82732,81284,65700,0,63712,0,0,0
i,0x00000000,1680706942.303140,172.16.1.2,29589,172.16.3.2,5201,30426,11584,2,64256,65728,6,6,4,1460,1463,1,537920480,138,82732,81284,65700,0,63712,0,0,0
o,0x00000000,1680706942.303210,172.16.1.2,29589,172.16.3.2,5201,30426,13032,2,64256,65728,6,6,4,1460,1463,1,537920480,138,82732,81284,65700,0,63712,0,0,0
i,0x00000000,1680706942.362205,172.16.1.2,29589,172.16.3.2,5201,30426,13032,2,64256,65728,6,6,4,1460,1463,1,537920480,138,82732,81284,65700,0,63712,0,0,0
o,0x00000000,1680706942.362257,172.16.1.2,29589,172.16.3.2,5201,30426,13032,6,64256,65728,6,6,4,1460,1463,1,537920480,138,82732,81284,65700,0,63712,0,0,0
o,0x00000000,1680706942.362389,172.16.1.2,29589,172.16.3.2,5201,30426,13032,2,64256,65728,6,6,4,1460,1463,1,537920480,138,82732,81284,65700,0,63712,0,0,0
i,0x00000000,1680706942.362528,172.16.1.2,29589,172.16.3.2,5201,30426,13032,2,64256,65728,6,6,4,1460,1463,1,537920480,138,82732,81284,65700,0,63712,0,0,0
i,0x00000000,1680706942.373908,172.16.1.2,29589,172.16.3.2,5201,30426,14480,2,64256,65728,6,6,4,1460,1463,1,537920480,138,82732,81284,65700,0,63712,0,0,0
o,0x00000000,1680706942.373930,172.16.1.2,29589,172.16.3.2,5201,30426,14480,6,64256,65728,6,6,4,1460,1463,1,537920480,138,82732,81284,65700,0,63712,0,0,0
o,0x00000000,1680706942.374032,172.16.1.2,29589,172.16.3.2,5201,30426,14480,2,64256,65728,6,6,4,1460,1463,1,537920480,138,82732,81284,65700,0,63712,0,0,0
i,0x00000000,1680706942.385629,172.16.1.2,29589,172.16.3.2,5201,30426,14480,2,64256,65728,6,6,4,1460,1463,1,537920480,138,82732,81284,65700,0,63712,0,0,0
i,0x00000000,1680706942.385698,172.16.1.2,29589,172.16.3.2,5201,30426,14480,2,64256,65728,6,6,4,1460,1463,1,537920480,138,82732,81284,65700,0,63712,0,0,0
i,0x00000000,1680706942.385730,172.16.1.2,29589,172.16.3.2,5201,30426,15928,2,64256,65728,6,6,4,1460,1463,1,537920480,138,82732,81284,65700,0,63712,0,0,0
o,0x00000000,1680706942.386233,172.16.1.2,29589,172.16.3.2,5201,30426,15928,2,64256,65728,6,6,4,1460,1463,1,537920480,138,82732,81284,65700,0,63712,0,0,0
i,0x00000000,1680706942.433748,172.16.1.2,29589,172.16.3.2,5201,30426,15928,2,64256,65728,6,6,4,1460,1463,1,537920480,138,82732,81284,65700,0,63712,0,0,0
o,0x00000000,1680706942.433835,172.16.1.2,29589,172.16.3.2,5201,30426,17376,2,64256,65728,6,6,4,1460,1463,1,537920480,138,82732,81284,65700,0,63712,0,0,0
i,0x00000000,1680706942.434183,172.16.1.2,29589,172.16.3.2,5201,30426,17376,2,64256,65728,6,6,4,1460,1463,1,537920480,138,82732,81284,65700,0,63712,0,0,0
o,0x00000000,1680706942.434231,172.16.1.2,29589,172.16.3.2,5201,30426,17376,2,64256,65728,6,6,4,1460,1463,1,537920480,138,82732,81284,65700,0,63712,0,0,0
i,0x00000000,1680706942.457652,172.16.1.2,29589,172.16.3.2,5201,30426,17376,2,64256,65728,6,6,4,1460,1463,1,537920480,138,82732,81284,65700,0,63712,0,0,0
o,0x00000000,1680706942.457707,172.16.1.2,29589,172.16.3.2,5201,30426,18824,6,64256,65728,6,6,4,1460,1463,1,537920480,138,82732,81284,65700,0,63712,0,0,0
o,0x00000000,1680706942.457844,172.16.1.2,29589,172.16.3.2,5201,30426,18824,2,64256,65728,6,6,4,1460,1463,1,537920480,138,82732,81284,65700,0,63712,0,0,0
i,0x00000000,1680706942.484938,172.16.1.2,29589,172.16.3.2,5201,30426,18824,2,64256,65728,6,6,4,1460,1463,1,537920480,138,82732,81284,65700,0,63712,0,0,0
i,0x00000000,1680706942.484962,172.16.1.2,29589,172.16.3.2,5201,30426,18824,2,64256,65728,6,6,4,1460,1463,1,537920480,138,82732,81284,65700,0,63712,0,0,0
o,0x00000000,1680706942.484984,172.16.1.2,29589,172.16.3.2,5201,30426,20272,2,64256,65728,6,6,4,1460,1463,1,537920480,138,82732,81284,65700,0,63712,0,0,0
i,0x00000000,1680706942.485129,172.16.1.2,29589,172.16.3.2,5201,30426,20272,2,64256,65728,6,6,4,1460,1463,1,537920480,138,82732,81284,65700,0,63712,0,0,0
o,0x00000000,1680706942.485148,172.16.1.2,29589,172.16.3.2,5201,30426,18824,2,64256,65728,6,6,4,1460,1463,1,537920481,138,82732,81284,65700,0,63712,0,0,0
i,0x00000000,1680706942.552758,172.16.1.2,29589,172.16.3.2,5201,30426,18824,2,58496,65728,6,6,4,1460,1533,1,537920480,139,82732,82732,65700,0,56472,0,0,0
o,0x00000000,1680706942.552796,172.16.1.2,29589,172.16.3.2,5201,30426,18824,2,58496,65728,6,6,4,1460,1533,1,537920480,139,82732,82732,65700,0,56472,0,0,0
i,0x00000000,1680706942.552905,172.16.1.2,29589,172.16.3.2,5201,30426,18824,2,58496,65728,6,6,4,1460,1533,1,537920480,139,82732,82732,65700,0,57920,0,0,0
i,0x00000000,1680706942.552920,172.16.1.2,29589,172.16.3.2,5201,30426,17376,2,58496,65728,6,6,4,1460,1533,1,537920480,139,82732,82732,65700,0,57920,0,0,0
i,0x00000000,1680706942.602733,172.16.1.2,29589,172.16.3.2,5201,30426,15928,2,58496,65728,6,6,4,1460,1533,1,537920480,139,82732,82732,65700,0,57920,0,0,0
i,0x00000000,1680706942.632202,172.16.1.2,29589,172.16.3.2,5201,30426,17376,2,58496,65728,6,6,4,1460,1533,1,537920480,139,82732,82732,65700,0,57920,0,0,0
i,0x00000000,1680706942.662164,172.16.1.2,29589,172.16.3.2,5201,30426,18824,2,58496,65728,6,6,4,1460,1533,1,537920480,139,82732,82732,65700,0,57920,0,0,0
i,0x00000000,1680706942.683036,172.16.1.2,29589,172.16.3.2,5201,30426,20272,2,58496,65728,6,6,4,1460,1533,1,537920480,139,82732,82732,65700,0,57920,0,0,0
i,0x00000000,1680706942.683073,172.16.1.2,29589,172.16.3.2,5201,30426,21720,2,58496,65728,6,6,4,1460,1533,1,537920480,139,82732,82732,65700,0,57920,0,0,0
i,0x00000000,1680706942.683100,172.16.1.2,29589,172.16.3.2,5201,30426,23168,2,58496,65728,6,6,4,1460,1533,1,537920480,139,82732,82732,65700,0,57920,0,0,0
i,0x00000000,1680706942.721528,172.16.1.2,29589,172.16.3.2,5201,30426,24616,2,58496,65728,6,6,4,1460,1533,1,537920480,139,82732,82732,65700,0,57920,0,0,0
o,0x00000000,1680706943.922214,172.16.1.2,29589,172.16.3.2,5201,18224,1448,2,58496,65728,6,6,4,1460,1533,1,1075848161,258,82732,82732,65700,0,57920,0,0,0
i,0x00000000,1680706944.060639,172.16.1.2,29589,172.16.3.2,5201,18224,1448,2,58496,65728,6,6,4,1460,1533,1,1075848160,258,82732,82732,65700,0,57920,0,0,0
o,0x00000000,1680706944.061066,172.16.1.2,29589,172.16.3.2,5201,18224,2908,6,51264,65728,6,6,4,1460,1398,1,1075848160,151,82732,68252,65700,0,43440,0,0,0
o,0x00000000,1680706944.062360,172.16.1.2,29589,172.16.3.2,5201,18224,2908,6,51264,65728,6,6,4,1460,1398,1,1075848160,151,82732,68252,65700,0,43440,0,0,0
o,0x00000000,1680706944.062668,172.16.1.2,29589,172.16.3.2,5201,18224,2908,2,51264,65728,6,6,4,1460,1398,1,1075848160,151,82732,68252,65700,0,43440,0,0,0
i,0x00000000,1680706944.201639,172.16.1.2,29589,172.16.3.2,5201,18224,2908,2,51264,65728,6,6,4,1460,1398,1,1075848160,151,82732,82732,65700,0,43440,0,0,0
o,0x00000000,1680706944.202067,172.16.1.2,29589,172.16.3.2,5201,18224,4368,6,52672,65728,6,6,4,1460,1280,1,1075848160,155,82732,69700,65700,0,30408,0,0,0
o,0x00000000,1680706944.202398,172.16.1.2,29589,172.16.3.2,5201,18224,4368,6,52672,65728,6,6,4,1460,1280,1,1075848160,155,82732,69700,65700,0,30408,0,0,0
o,0x00000000,1680706944.202508,172.16.1.2,29589,172.16.3.2,5201,18224,4368,6,52672,65728,6,6,4,1460,1280,1,1075848160,155,82732,69700,65700,0,30408,0,0,0
o,0x00000000,1680706944.202622,172.16.1.2,29589,172.16.3.2,5201,18224,4368,2,52672,65728,6,6,4,1460,1280,1,1075848160,155,82732,69700,65700,0,30408,0,0,0
i,0x00000000,1680706944.202755,172.16.1.2,29589,172.16.3.2,5201,18224,4368,2,52672,65728,6,6,4,1460,1280,1,1075848160,155,82732,69700,65700,0,30408,0,0,0
i,0x00000000,1680706944.202778,172.16.1.2,29589,172.16.3.2,5201,18224,4368,2,52672,65728,6,6,4,1460,1280,1,1075848160,155,82732,69700,65700,0,30408,0,0,0
i,0x00000000,1680706944.345774,172.16.1.2,29589,172.16.3.2,5201,18224,4368,2,52672,65728,6,6,4,1460,1280,1,1075848160,155,82732,82732,65700,0,30408,0,0,0
o,0x00000000,1680706944.346001,172.16.1.2,29589,172.16.3.2,5201,18224,5828,6,59968,65728,6,6,4,1460,1172,1,1075848160,155,82732,76940,65700,0,24616,0,0,0
o,0x00000000,1680706944.346771,172.16.1.2,29589,172.16.3.2,5201,18224,5828,6,59968,65728,6,6,4,1460,1172,1,1075848160,155,82732,76940,65700,0,24616,0,0,0
o,0x00000000,1680706944.346954,172.16.1.2,29589,172.16.3.2,5201,18224,5828,6,59968,65728,6,6,4,1460,1172,1,1075848160,155,82732,76940,65700,0,24616,0,0,0
o,0x00000000,1680706944.347091,172.16.1.2,29589,172.16.3.2,5201,18224,5828,6,59968,65728,6,6,4,1460,1172,1,1075848160,155,82732,76940,65700,0,24616,0,0,0
o,0x00000000,1680706944.347228,172.16.1.2,29589,172.16.3.2,5201,18224,5828,2,59968,65728,6,6,4,1460,1172,1,1075848160,155,82732,76940,65700,0,24616,0,0,0
i,0x00000000,1680706944.364164,172.16.1.2,29589,172.16.3.2,5201,18224,5828,2,59968,65728,6,6,4,1460,1172,1,1075848160,155,82732,82732,65700,0,24616,0,0,0
i,0x00000000,1680706944.364199,172.16.1.2,29589,172.16.3.2,5201,18224,5828,2,65728,65728,6,6,4,1460,1172,1,1075848160,155,82732,82732,65700,0,24616,0,0,0
i,0x00000000,1680706944.364215,172.16.1.2,29589,172.16.3.2,5201,18224,5828,2,65728,65728,6,6,4,1460,1172,1,1075848160,155,82732,82732,65700,0,24616,0,0,0
i,0x00000000,1680706944.483666,172.16.1.2,29589,172.16.3.2,5201,18224,5828,2,65728,65728,6,6,4,1460,1172,1,1075848160,155,82732,82732,65700,0,24616,0,0,0
o,0x00000000,1680706944.483851,172.16.1.2,29589,172.16.3.2,5201,18224,7288,6,41152,65728,6,6,4,1460,1082,1,1075848160,150,82732,58116,65700,0,0,0,0,0
o,0x00000000,1680706944.483996,172.16.1.2,29589,172.16.3.2,5201,18224,7288,6,41152,65728,6,6,4,1460,1082,1,1075848160,150,82732,58116,65700,0,1448,0,0,0
o,0x00000000,1680706944.484114,172.16.1.2,29589,172.16.3.2,5201,18224,7288,6,41152,65728,6,6,4,1460,1082,1,1075848160,150,82732,58116,65700,0,2896,0,0,0
o,0x00000000,1680706944.484270,172.16.1.2,29589,172.16.3.2,5201,18224,7288,6,41152,65728,6,6,4,1460,1082,1,1075848160,150,82732,58116,65700,0,4344,0,0,0
o,0x00000000,1680706944.484394,172.16.1.2,29589,172.16.3.2,5201,18224,7288,6,41152,65728,6,6,4,1460,1082,1,1075848160,150,82732,58116,65700,0,5792,0,0,0
i,0x00000000,1680706944.492591,172.16.1.2,29589,172.16.3.2,5201,18224,7288,6,41152,65728,6,6,4,1460,1082,1,1075848160,150,82732,82732,65700,0,7240,0,0,0
i,0x00000000,1680706944.492638,172.16.1.2,29589,172.16.3.2,5201,18224,7288,6,41152,65728,6,6,4,1460,1082,1,1075848160,150,82732,82732,65700,0,7240,0,0,0
i,0x00000000,1680706944.492677,172.16.1.2,29589,172.16.3.2,5201,18224,7288,6,65728,65728,6,6,4,1460,1082,1,1075848160,150,82732,82732,65700,0,7240,0,0,0
i,0x00000000,1680706944.533790,172.16.1.2,29589,172.16.3.2,5201,18224,7288,6,65728,65728,6,6,4,1460,1082,1,1075848160,150,82732,82732,65700,0,7240,0,0,0
i,0x00000000,1680706944.533862,172.16.1.2,29589,172.16.3.2,5201,18224,7288,6,65728,65728,6,6,4,1460,1082,1,1075848160,150,82732,82732,65700,0,7240,0,0,0
i,0x00000000,1680706944.675399,172.16.1.2,29589,172.16.3.2,5201,18224,7288,6,65728,65728,6,6,4,1460,1082,1,1075848160,150,82732,82732,65700,0,7240,0,0,0
o,0x00000000,1680706944.676554,172.16.1.2,29589,172.16.3.2,5201,18224,10184,6,64256,65728,6,6,4,1460,1023,1,1075848160,139,82732,79836,65700,0,4344,0,0,0
o,0x00000000,1680706944.676842,172.16.1.2,29589,172.16.3.2,5201,18224,10184,6,64256,65728,6,6,4,1460,1023,1,1075848160,139,82732,79836,65700,0,5792,0,0,0
o,0x00000000,1680706944.677014,172.16.1.2,29589,172.16.3.2,5201,18224,10184,6,64256,65728,6,6,4,1460,1023,1,1075848160,139,82732,79836,65700,0,7240,0,0,0
o,0x00000000,1680706944.677181,172.16.1.2,29589,172.16.3.2,5201,18224,10184,6,64256,65728,6,6,4,1460,1023,1,1075848160,139,82732,79836,65700,0,8688,0,0,0
i,0x00000000,1680706944.702471,172.16.1.2,29589,172.16.3.2,5201,18224,10184,6,64256,65728,6,6,4,1460,1023,1,1075848160,139,82732,82732,65700,0,10136,0,0,0
o,0x00000000,1680706944.702605,172.16.1.2,29589,172.16.3.2,5201,18224,13080,6,64256,65728,6,6,4,1460,980,1,1075848160,127,82732,79836,65700,0,7240,0,0,0
o,0x00000000,1680706944.702739,172.16.1.2,29589,172.16.3.2,5201,18224,13080,6,64256,65728,6,6,4,1460,980,1,1075848160,127,82732,79836,65700,0,8688,0,0,0
o,0x00000000,1680706944.702851,172.16.1.2,29589,172.16.3.2,5201,18224,13080,6,64256,65728,6,6,4,1460,980,1,1075848160,127,82732,79836,65700,0,10136,0,0,0
o,0x00000000,1680706944.702991,172.16.1.2,29589,172.16.3.2,5201,18224,13080,6,64256,65728,6,6,4,1460,980,1,1075848160,127,82732,79836,65700,0,11584,0,0,0
i,0x00000000,1680706944.773059,172.16.1.2,29589,172.16.3.2,5201,18224,13080,6,64256,65728,6,6,4,1460,980,1,1075848160,127,82732,82732,65700,0,13032,0,0,0
o,0x00000000,1680706944.773115,172.16.1.2,29589,172.16.3.2,5201,18224,14528,6,65728,65728,6,6,4,1460,974,1,1075848160,109,82732,81284,65700,0,11584,0,0,0
o,0x00000000,1680706944.773301,172.16.1.2,29589,172.16.3.2,5201,18224,14528,6,65728,65728,6,6,4,1460,974,1,1075848160,109,82732,81284,65700,0,13032,0,0,0
i,0x00000000,1680706944.905008,172.16.1.2,29589,172.16.3.2,5201,18224,14528,6,65728,65728,6,6,4,1460,974,1,1075848160,109,82732,81284,65700,0,14480,0,0,0
o,0x00000000,1680706944.905318,172.16.1.2,29589,172.16.3.2,5201,18224,17424,6,64256,65728,6,6,4,1460,941,1,1075848160,101,82732,78388,65700,0,11584,0,0,0
o,0x00000000,1680706944.905694,172.16.1.2,29589,172.16.3.2,5201,18224,17424,6,64256,65728,6,6,4,1460,941,1,1075848160,101,82732,78388,65700,0,13032,0,0,0
o,0x00000000,1680706944.906277,172.16.1.2,29589,172.16.3.2,5201,18224,17424,6,64256,65728,6,6,4,1460,941,1,1075848160,101,82732,78388,65700,0,14480,0,0,0
o,0x00000000,1680706944.906458,172.16.1.2,29589,172.16.3.2,5201,18224,17424,6,64256,65728,6,6,4,1460,941,1,1075848160,101,82732,78388,65700,0,15928,0,0,0
i,0x00000000,1680706944.923658,172.16.1.2,29589,172.16.3.2,5201,18224,17424,6,64256,65728,6,6,4,1460,941,1,1075848160,101,82732,82732,65700,0,17376,0,0,0
o,0x00000000,1680706944.923795,172.16.1.2,29589,172.16.3.2,5201,18224,20320,6,64256,65728,6,6,4,1460,920,1,1075848160,93,82732,79836,65700,0,14480,0,0,0
o,0x00000000,1680706944.923909,172.16.1.2,29589,172.16.3.2,5201,18224,20320,6,64256,65728,6,6,4,1460,920,1,1075848160,93,82732,79836,65700,0,15928,0,0,0
o,0x00000000,1680706944.924011,172.16.1.2,29589,172.16.3.2,5201,18224,20320,6,64256,65728,6,6,4,1460,920,1,1075848160,93,82732,79836,65700,0,17376,0,0,0
o,0x00000000,1680706944.924110,172.16.1.2,29589,172.16.3.2,5201,18224,20320,6,64256,65728,6,6,4,1460,920,1,1075848160,93,82732,79836,65700,0,18824,0,0,0
i,0x00000000,1680706944.949025,172.16.1.2,29589,172.16.3.2,5201,18224,20320,6,64256,65728,6,6,4,1460,920,1,1075848160,93,82732,82732,65700,0,20272,0,0,0
o,0x00000000,1680706944.949182,172.16.1.2,29589,172.16.3.2,5201,18224,20320,6,65728,65728,6,6,4,1460,905,1,1075848160,85,82732,81284,65700,0,18824,0,0,0
i,0x00000000,1680706944.975231,172.16.1.2,29589,172.16.3.2,5201,18224,20320,6,65728,65728,6,6,4,1460,905,1,1075848160,85,82732,81284,65700,0,20272,0,0,0
o,0x00000000,1680706944.975284,172.16.1.2,29589,172.16.3.2,5201,18224,20320,6,64256,65728,6,6,4,1460,900,1,1075848160,77,82732,78388,65700,0,17376,0,0,0
o,0x00000000,1680706944.975414,172.16.1.2,29589,172.16.3.2,5201,18224,20320,6,64256,65728,6,6,4,1460,900,1,1075848160,77,82732,78388,65700,0,18824,0,0,0
i,0x00000000,1680706945.012075,172.16.1.2,29589,172.16.3.2,5201,18224,20320,6,64256,65728,6,6,4,1460,900,1,1075848160,77,82732,82732,65700,0,20272,0,0,0
o,0x00000000,1680706945.012236,172.16.1.2,29589,172.16.3.2,5201,18224,20320,6,65728,65728,6,6,4,1460,912,1,1075848160,73,82732,81284,65700,0,18824,0,0,0
i,0x00000000,1680706945.069919,172.16.1.2,29589,172.16.3.2,5201,18224,20320,6,65728,65728,6,6,4,1460,912,1,1075848160,73,82732,81284,65700,0,20272,0,0,0
o,0x00000000,1680706945.070160,172.16.1.2,29589,172.16.3.2,5201,18224,20320,6,64256,65728,6,6,4,1460,918,1,1075848160,69,82732,78388,65700,0,17376,0,0,0
o,0x00000000,1680706945.070324,172.16.1.2,29589,172.16.3.2,5201,18224,20320,6,64256,65728,6,6,4,1460,918,1,1075848160,69,82732,78388,65700,0,18824,0,0,0
i,0x00000000,1680706945.152762,172.16.1.2,29589,172.16.3.2,5201,18224,20320,6,64256,65728,6,6,4,1460,918,1,1075848160,69,82732,82732,65700,0,20272,0,0,0
o,0x00000000,1680706945.152812,172.16.1.2,29589,172.16.3.2,5201,18224,20320,6,64256,65728,6,6,4,1460,900,1,1075848160,68,82732,79836,65700,0,17376,0,0,0
o,0x00000000,1680706945.152939,172.16.1.2,29589,172.16.3.2,5201,18224,20320,6,64256,65728,6,6,4,1460,900,1,1075848160,68,82732,79836,65700,0,18824,0,0,0
i,0x00000000,1680706945.211913,172.16.1.2,29589,172.16.3.2,5201,18224,20320,6,64256,65728,6,6,4,1460,900,1,1075848160,68,82732,82732,65700,0,20272,0,0,0
o,0x00000000,1680706945.212060,172.16.1.2,29589,172.16.3.2,5201,18224,20320,6,62848,65728,6,6,4,1460,908,1,1075848160,65,82732,79836,65700,0,17376,0,0,0
o,0x00000000,1680706945.212201,172.16.1.2,29589,172.16.3.2,5201,18224,20320,6,62848,65728,6,6,4,1460,908,1,1075848160,65,82732,79836,65700,0,18824,0,0,0
i,0x00000000,1680706945.243325,172.16.1.2,29589,172.16.3.2,5201,18224,20320,6,62848,65728,6,6,4,1460,908,1,1075848160,65,82732,82732,65700,0,20272,0,0,0
o,0x00000000,1680706945.243384,172.16.1.2,29589,172.16.3.2,5201,18224,20320,6,64256,65728,6,6,4,1460,923,1,1075848160,65,82732,79836,65700,0,17376,0,0,0
o,0x00000000,1680706945.243513,172.16.1.2,29589,172.16.3.2,5201,18224,20320,6,64256,65728,6,6,4,1460,923,1,1075848160,65,82732,79836,65700,0,18824,0,0,0
i,0x00000000,1680706945.255449,172.16.1.2,29589,172.16.3.2,5201,18224,20320,6,64256,65728,6,6,4,1460,923,1,1075848160,65,82732,82732,65700,0,20272,0,0,0
o,0x00000000,1680706945.256134,172.16.1.2,29589,172.16.3.2,5201,18224,20320,6,62848,65728,6,6,4,1460,940,1,1075848160,66,82732,79836,65700,0,17376,0,0,0
o,0x00000000,1680706945.256405,172.16.1.2,29589,172.16.3.2,5201,18224,20320,6,62848,65728,6,6,4,1460,940,1,1075848160,66,82732,79836,65700,0,18824,0,0,0
i,0x00000000,1680706945.353119,172.16.1.2,29589,172.16.3.2,5201,18224,20320,6,62848,65728,6,6,4,1460,940,1,1075848160,66,82732,82732,65700,0,20272,0,0,0
o,0x00000000,1680706945.353166,172.16.1.2,29589,172.16.3.2,5201,18224,20320,6,64256,65728,6,6,4,1460,979,1,1075848160,73,82732,79836,65700,0,17376,0,0,0
o,0x00000000,1680706945.353309,172.16.1.2,29589,172.16.3.2,5201,18224,20320,6,64256,65728,6,6,4,1460,979,1,1075848160,73,82732,79836,65700,0,18824,0,0,0
i,0x00000000,1680706945.379166,172.16.1.2,29589,172.16.3.2,5201,18224,20320,6,64256,65728,6,6,4,1460,979,1,1075848160,73,82732,82732,65700,0,20272,0,0,0
o,0x00000000,1680706945.379361,172.16.1.2,29589,172.16.3.2,5201,18224,20320,6,65728,65728,6,6,4,1460,1021,1,1075848160,79,82732,81284,65700,0,18824,0,0,0
i,0x00000000,1680706945.379530,172.16.1.2,29589,172.16.3.2,5201,18224,20320,6,65728,65728,6,6,4,1460,1021,1,1075848160,79,82732,81284,65700,0,20272,0,0,0
o,0x00000000,1680706945.379567,172.16.1.2,29589,172.16.3.2,5201,18224,20320,6,64256,65728,6,6,4,1460,1042,1,1075848160,78,82732,78388,65700,0,17376,0,0,0
o,0x00000000,1680706945.379710,172.16.1.2,29589,172.16.3.2,5201,18224,20320,6,64256,65728,6,6,4,1460,1042,1,1075848160,78,82732,78388,65700,0,18824,0,0,0
i,0x00000000,1680706945.492715,172.16.1.2,29589,172.16.3.2,5201,18224,20320,6,64256,65728,6,6,4,1460,1042,1,1075848160,78,82732,82732,65700,0,20272,0,0,0
o,0x00000000,1680706945.492774,172.16.1.2,29589,172.16.3.2,5201,18224,20320,6,65728,65728,6,6,4,1460,1076,1,1075848160,81,82732,81284,65700,0,18824,0,0,0
i,0x00000000,1680706945.492901,172.16.1.2,29589,172.16.3.2,5201,18224,20320,6,65728,65728,6,6,4,1460,1076,1,1075848160,81,82732,81284,65700,0,20272,0,0,0
o,0x00000000,1680706945.492922,172.16.1.2,29589,172.16.3.2,5201,18224,20320,6,64256,65728,6,6,4,1460,1078,1,1075848160,75,82732,78388,65700,0,17376,0,0,0
o,0x00000000,1680706945.493036,172.16.1.2,29589,172.16.3.2,5201,18224,20320,6,64256,65728,6,6,4,1460,1078,1,1075848160,75,82732,78388,65700,0,18824,0,0,0
i,0x00000000,1680706945.532811,172.16.1.2,29589,172.16.3.2,5201,18224,20320,6,64256,65728,6,6,4,1460,1078,1,1075848160,75,82732,82732,65700,0,20272,0,0,0
o,0x00000000,1680706945.533053,172.16.1.2,29589,172.16.3.2,5201,18224,20320,6,64256,65728,6,6,4,1460,1072,1,1075848160,71,82732,79836,65700,0,17376,0,0,0
o,0x00000000,1680706945.533258,172.16.1.2,29589,172.16.3.2,5201,18224,20320,6,64256,65728,6,6,4,1460,1072,1,1075848160,71,82732,79836,65700,0,18824,0,0,0
i,0x00000000,1680706945.574384,172.16.1.2,29589,172.16.3.2,5201,18224,20320,6,64256,65728,6,6,4,1460,1072,1,1075848160,71,82732,82732,65700,0,20272,0,0,0
o,0x00000000,1680706945.574535,172.16.1.2,29589,172.16.3.2,5201,18224,20320,6,64256,65728,6,6,4,1460,1066,1,1075848160,68,82732,79836,65700,0,17376,0,0,0
o,0x00000000,1680706945.574659,172.16.1.2,29589,172.16.3.2,5201,18224,20320,6,64256,65728,6,6,4,1460,1066,1,1075848160,68,82732,79836,65700,0,18824,0,0,0
i,0x00000000,1680706945.614967,172.16.1.2,29589,172.16.3.2,5201,18224,20320,6,64256,65728,6,6,4,1460,1066,1,1075848160,68,82732,82732,65700,0,20272,0,0,0
o,0x00000000,1680706945.615149,172.16.1.2,29589,172.16.3.2,5201,18224,21780,6,65728,65728,6,6,4,1460,1073,1,1075848160,66,82732,81284,65700,0,18824,0,0,0
o,0x00000000,1680706945.615317,172.16.1.2,29589,172.16.3.2,5201,18224,21780,6,65728,65728,6,6,4,1460,1073,1,1075848160,66,82732,81284,65700,0,20272,0,0,0
i,0x00000000,1680706945.648198,172.16.1.2,29589,172.16.3.2,5201,18224,21780,6,65728,65728,6,6,4,1460,1073,1,1075848160,66,82732,81284,65700,0,21720,0,0,0
o,0x00000000,1680706945.648472,172.16.1.2,29589,172.16.3.2,5201,18224,21780,6,64256,65728,6,6,4,1460,1095,1,1075848160,69,82732,78388,65700,0,18824,0,0,0
o,0x00000000,1680706945.648897,172.16.1.2,29589,172.16.3.2,5201,18224,21780,6,64256,65728,6,6,4,1460,1095,1,1075848160,69,82732,78388,65700,0,20272,0,0,0
i,0x00000000,1680706945.691353,172.16.1.2,29589,172.16.3.2,5201,18224,21780,6,64256,65728,6,6,4,1460,1095,1,1075848160,69,82732,82732,65700,0,21720,0,0,0
o,0x00000000,1680706945.692073,172.16.1.2,29589,172.16.3.2,5201,18224,21780,6,65728,65728,6,6,4,1460,1095,1,1075848160,65,82732,81284,65700,0,20272,0,0,0
i,0x00000000,1680706945.692645,172.16.1.2,29589,172.16.3.2,5201,18224,21780,6,65728,65728,6,6,4,1460,1095,1,1075848160,65,82732,81284,65700,0,21720,0,0,0
o,0x00000000,1680706945.692855,172.16.1.2,29589,172.16.3.2,5201,18224,21780,6,62848,65728,6,6,4,1460,1083,1,1075848160,65,82732,78388,65700,0,18824,0,0,0
o,0x00000000,1680706945.693050,172.16.1.2,29589,172.16.3.2,5201,18224,21780,6,62848,65728,6,6,4,1460,1083,1,1075848160,65,82732,78388,65700,0,20272,0,0,0
i,0x00000000,1680706945.762881,172.16.1.2,29589,172.16.3.2,5201,18224,21780,6,62848,65728,6,6,4,1460,1083,1,1075848160,65,82732,82732,65700,0,21720,0,0,0
o,0x00000000,1680706945.763113,172.16.1.2,29589,172.16.3.2,5201,18224,21780,6,65728,65728,6,6,4,1460,1100,1,1075848160,67,82732,81284,65700,0,20272,0,0,0
i,0x00000000,1680706945.803749,172.16.1.2,29589,172.16.3.2,5201,18224,21780,6,65728,65728,6,6,4,1460,1100,1,1075848160,67,82732,81284,65700,0,21720,0,0,0
o,0x00000000,1680706945.803827,172.16.1.2,29589,172.16.3.2,5201,18224,21780,6,65728,65728,6,6,4,1460,1087,1,1075848160,67,82732,79836,65700,0,20272,0,0,0
i,0x00000000,1680706945.824469,172.16.1.2,29589,172.16.3.2,5201,18224,21780,6,65728,65728,6,6,4,1460,1087,1,1075848160,67,82732,82732,65700,0,21720,0,0,0
o,0x00000000,1680706945.824512,172.16.1.2,29589,172.16.3.2,5201,18224,23168,2,65728,65728,6,6,4,1460,1087,1,1075848160,67,82732,82732,65700,0,21720,0,0,0
i,0x00000000,1680706945.824649,172.16.1.2,29589,172.16.3.2,5201,18224,21780,2,65728,65728,6,6,4,1460,1087,1,1075848160,67,82732,82732,65700,0,23168,0,0,0
o,0x00000000,1680706945.824668,172.16.1.2,29589,172.16.3.2,5201,18224,24616,2,65728,65728,6,6,4,1460,1087,1,1075848160,67,82732,82732,65700,0,23168,0,0,0
i,0x00000000,1680706945.863290,172.16.1.2,29589,172.16.3.2,5201,18224,21780,2,65728,65728,6,6,4,1460,1087,1,1075848160,67,82732,82732,65700,0,24616,0,0,0
o,0x00000000,1680706945.863365,172.16.1.2,29589,172.16.3.2,5201,15228,1448,2,65728,65728,6,6,4,1460,1087,1,1613767648,67,82732,82732,65700,0,24616,0,0,0
i,0x00000000,1680706945.863547,172.16.1.2,29589,172.16.3.2,5201,15228,1448,2,65728,65728,6,6,4,1460,1087,1,1613767648,67,82732,82732,65700,0,24616,0,0,0
i,0x00000000,1680706945.863571,172.16.1.2,29589,172.16.3.2,5201,15228,1448,2,65728,65728,6,6,4,1460,1087,1,1613767648,67,82732,82732,65700,0,24616,0,0,0
i,0x00000000,1680706945.922598,172.16.1.2,29589,172.16.3.2,5201,15228,1448,2,65728,65728,6,6,4,1460,1087,1,1613767648,67,82732,82732,65700,0,24616,0,0,0
i,0x00000000,1680706945.947973,172.16.1.2,29589,172.16.3.2,5201,15228,1448,2,65728,65728,6,6,4,1460,1087,1,1613767648,67,82732,82732,65700,0,24616,0,0,0
i,0x00000000,1680706945.948018,172.16.1.2,29589,172.16.3.2,5201,15228,1448,2,65728,65728,6,6,4,1460,1087,1,1613767648,67,82732,82732,65700,0,24616,0,0,0
i,0x00000000,1680706946.002565,172.16.1.2,29589,172.16.3.2,5201,15228,1448,2,65728,65728,6,6,4,1460,1087,1,1613767648,67,82732,82732,65700,0,24616,0,0,0
o,0x00000000,1680706946.002705,172.16.1.2,29589,172.16.3.2,5201,15228,2896,2,65728,65728,6,6,4,1460,1087,1,1613767648,67,82732,82732,65700,0,24616,0,0,0
i,0x00000000,1680706946.002895,172.16.1.2,29589,172.16.3.2,5201,15228,2896,2,65728,65728,6,6,4,1460,1087,1,1613767648,67,82732,82732,65700,0,24616,0,0,0
o,0x00000000,1680706946.002962,172.16.1.2,29589,172.16.3.2,5201,15228,4344,2,65728,65728,6,6,4,1460,1087,1,1613767648,67,82732,82732,65700,0,24616,0,0,0
i,0x00000000,1680706946.036564,172.16.1.2,29589,172.16.3.2,5201,15228,4344,2,65728,65728,6,6,4,1460,1087,1,1613767648,67,82732,82732,65700,0,26064,0,0,0
o,0x00000000,1680706946.036608,172.16.1.2,29589,172.16.3.2,5201,15228,5792,2,65728,65728,6,6,4,1460,1087,1,1613767648,67,82732,82732,65700,0,26064,0,0,0
i,0x00000000,1680706946.053108,172.16.1.2,29589,172.16.3.2,5201,15228,5792,2,65728,65728,6,6,4,1460,1087,1,1613767648,67,82732,82732,65700,0,27512,0,0,0
o,0x00000000,1680706946.053197,172.16.1.2,29589,172.16.3.2,5201,15228,7240,2,65728,65728,6,6,4,1460,1087,1,1613767648,67,82732,82732,65700,0,27512,0,0,0
i,0x00000000,1680706946.111203,172.16.1.2,29589,172.16.3.2,5201,15228,7240,2,65728,65728,6,6,4,1460,1087,1,1613767648,67,82732,82732,65700,0,28960,0,0,0
o,0x00000000,1680706946.111757,172.16.1.2,29589,172.16.3.2,5201,15228,8688,2,65728,65728,6,6,4,1460,1087,1,1613767648,67,82732,82732,65700,0,28960,0,0,0
i,0x00000000,1680706946.112173,172.16.1.2,29589,172.16.3.2,5201,15228,8688,2,65728,65728,6,6,4,1460,1087,1,1613767648,67,82732,82732,65700,0,28960,0,0,0
o,0x00000000,1680706946.112359,172.16.1.2,29589,172.16.3.2,5201,15228,10136,2,65728,65728,6,6,4,1460,1087,1,1613767648,67,82732,82732,65700,0,28960,0,0,0
i,0x00000000,1680706946.112690,172.16.1.2,29589,172.16.3.2,5201,15228,10136,2,65728,65728,6,6,4,1460,1087,1,1613767648,67,82732,82732,65700,0,30408,0,0,0
o,0x00000000,1680706946.112839,172.16.1.2,29589,172.16.3.2,5201,15228,8688,2,65728,65728,6,6,4,1460,1087,1,1613767649,67,82732,82732,65700,0,30408,0,0,0
i,0x00000000,1680706946.132332,172.16.1.2,29589,172.16.3.2,5201,15228,8688,2,57088,65728,6,6,4,1460,1048,1,1613767648,72,82732,82732,65700,0,21720,0,0,0
o,0x00000000,1680706946.132413,172.16.1.2,29589,172.16.3.2,5201,15228,7240,2,57088,65728,6,6,4,1460,1048,1,1613767649,72,82732,82732,65700,0,21720,0,0,0
i,0x00000000,1680706946.172175,172.16.1.2,29589,172.16.3.2,5201,15228,7240,2,54144,65728,6,6,4,1460,965,1,1613767648,85,82732,82732,65700,0,10136,0,0,0
o,0x00000000,1680706946.172208,172.16.1.2,29589,172.16.3.2,5201,15228,10136,6,54144,65728,6,6,4,1460,965,1,1613767648,85,82732,82732,65700,0,10136,0,0,0
o,0x00000000,1680706946.172314,172.16.1.2,29589,172.16.3.2,5201,15228,10136,2,54144,65728,6,6,4,1460,965,1,1613767648,85,82732,82732,65700,0,11584,0,0,0
i,0x00000000,1680706946.196649,172.16.1.2,29589,172.16.3.2,5201,15228,10136,2,54144,65728,6,6,4,1460,965,1,1613767648,85,82732,82732,65700,0,13032,0,0,0
o,0x00000000,1680706946.196700,172.16.1.2,29589,172.16.3.2,5201,15228,13032,6,54144,65728,6,6,4,1460,965,1,1613767648,85,82732,82732,65700,0,13032,0,0,0
o,0x00000000,1680706946.196876,172.16.1.2,29589,172.16.3.2,5201,15228,13032,2,54144,65728,6,6,4,1460,965,1,1613767648,85,82732,82732,65700,0,14480,0,0,0
i,0x00000000,1680706946.198932,172.16.1.2,29589,172.16.3.2,5201,15228,13032,2,54144,65728,6,6,4,1460,965,1,1613767648,85,82732,82732,65700,0,15928,0,0,0
o,0x00000000,1680706946.198954,172.16.1.2,29589,172.16.3.2,5201,15228,15928,6,54144,65728,6,6,4,1460,965,1,1613767648,85,82732,82732,65700,0,15928,0,0,0
o,0x00000000,1680706946.199065,172.16.1.2,29589,172.16.3.2,5201,15228,15928,2,54144,65728,6,6,4,1460,965,1,1613767648,85,82732,82732,65700,0,17376,0,0,0
i,0x00000000,1680706946.275120,172.16.1.2,29589,172.16.3.2,5201,15228,15928,2,54144,65728,6,6,4,1460,965,1,1613767648,85,82732,82732,65700,0,18824,0,0,0
o,0x00000000,1680706946.275235,172.16.1.2,29589,172.16.3.2,5201,15228,15228,6,57088,65728,6,6,4,1460,905,1,1075848160,90,82732,74044,65700,0,10136,0,0,0
o,0x00000000,1680706946.275347,172.16.1.2,29589,172.16.3.2,5201,15228,15228,6,57088,65728,6,6,4,1460,905,1,1075848160,90,82732,74044,65700,0,11584,0,0,0
o,0x00000000,1680706946.275446,172.16.1.2,29589,172.16.3.2,5201,15228,15228,6,57088,65728,6,6,4,1460,905,1,1075848160,90,82732,74044,65700,0,13032,0,0,0
i,0x00000000,1680706946.334170,172.16.1.2,29589,172.16.3.2,5201,15228,15228,6,57088,65728,6,6,4,1460,905,1,1075848160,90,82732,82732,65700,0,14480,0,0,0
o,0x00000000,1680706946.334252,172.16.1.2,29589,172.16.3.2,5201,15228,16676,6,65728,65728,6,6,4,1460,876,1,1075848160,86,82732,81284,65700,0,13032,0,0,0
o,0x00000000,1680706946.334596,172.16.1.2,29589,172.16.3.2,5201,15228,16676,6,65728,65728,6,6,4,1460,876,1,1075848160,86,82732,81284,65700,0,14480,0,0,0
i,0x00000000,1680706946.393093,172.16.1.2,29589,172.16.3.2,5201,15228,16676,6,65728,65728,6,6,4,1460,876,1,1075848160,86,82732,81284,65700,0,15928,0,0,0
o,0x00000000,1680706946.393207,172.16.1.2,29589,172.16.3.2,5201,15228,17400,6,64256,65728,6,6,4,1460,855,1,1075848160,81,82732,78388,65700,0,13032,0,0,0
o,0x00000000,1680706946.393310,172.16.1.2,29589,172.16.3.2,5201,15228,17400,6,64256,65728,6,6,4,1460,855,1,1075848160,81,82732,78388,65700,0,14480,0,0,0
o,0x00000000,1680706946.393398,172.16.1.2,29589,172.16.3.2,5201,15228,17400,6,64256,65728,6,6,4,1460,855,1,1075848160,81,82732,78388,65700,0,15928,0,0,0
i,0x00000000,1680706946.393489,172.16.1.2,29589,172.16.3.2,5201,15228,17400,6,64256,65728,6,6,4,1460,855,1,1075848160,81,82732,78388,65700,0,17376,0,0,0
o,0x00000000,1680706946.393506,172.16.1.2,29589,172.16.3.2,5201,15228,17400,6,64256,65728,6,6,4,1460,825,1,1075848160,79,82732,75492,65700,0,14480,0,0,0
o,0x00000000,1680706946.393595,172.16.1.2,29589,172.16.3.2,5201,15228,17400,6,64256,65728,6,6,4,1460,825,1,1075848160,79,82732,75492,65700,0,15928,0,0,0
i,0x00000000,1680706946.454519,172.16.1.2,29589,172.16.3.2,5201,15228,17400,6,64256,65728,6,6,4,1460,825,1,1075848160,79,82732,82732,65700,0,17376,0,0,0
o,0x00000000,1680706946.454648,172.16.1.2,29589,172.16.3.2,5201,15228,17400,6,64256,65728,6,6,4,1460,822,1,1075848160,71,82732,79836,65700,0,14480,0,0,0
o,0x00000000,1680706946.454780,172.16.1.2,29589,172.16.3.2,5201,15228,17400,6,64256,65728,6,6,4,1460,822,1,1075848160,71,82732,79836,65700,0,15928,0,0,0
i,0x00000000,1680706946.494124,172.16.1.2,29589,172.16.3.2,5201,15228,17400,6,64256,65728,6,6,4,1460,822,1,1075848160,71,82732,82732,65700,0,17376,0,0,0
o,0x00000000,1680706946.494243,172.16.1.2,29589,172.16.3.2,5201,15228,17400,6,64256,65728,6,6,4,1460,808,1,1075848160,68,82732,79836,65700,0,14480,0,0,0
o,0x00000000,1680706946.494366,172.16.1.2,29589,172.16.3.2,5201,15228,17400,6,64256,65728,6,6,4,1460,808,1,1075848160,68,82732,79836,65700,0,15928,0,0,0
i,0x00000000,1680706946.573070,172.16.1.2,29589,172.16.3.2,5201,15228,17400,6,64256,65728,6,6,4,1460,808,1,1075848160,68,82732,82732,65700,0,17376,0,0,0
o,0x00000000,1680706946.573161,172.16.1.2,29589,172.16.3.2,5201,15228,18860,6,65728,65728,6,6,4,1460,827,1,1075848160,67,82732,81284,65700,0,15928,0,0,0
o,0x00000000,1680706946.573478,172.16.1.2,29589,172.16.3.2,5201,15228,18860,6,65728,65728,6,6,4,1460,827,1,1075848160,67,82732,81284,65700,0,17376,0,0,0
i,0x00000000,1680706946.600824,172.16.1.2,29589,172.16.3.2,5201,15228,18860,6,65728,65728,6,6,4,1460,827,1,1075848160,67,82732,81284,65700,0,18824,0,0,0
o,0x00000000,1680706946.600908,172.16.1.2,29589,172.16.3.2,5201,15228,18860,6,64256,65728,6,6,4,1460,832,1,1075848160,63,82732,78388,65700,0,15928,0,0,0
o,0x00000000,1680706946.601267,172.16.1.2,29589,172.16.3.2,5201,15228,18860,6,64256,65728,6,6,4,1460,832,1,1075848160,63,82732,78388,65700,0,17376,0,0,0
i,0x00000000,1680706946.682850,172.16.1.2,29589,172.16.3.2,5201,15228,18860,6,64256,65728,6,6,4,1460,832,1,1075848160,63,82732,82732,65700,0,18824,0,0,0
o,0x00000000,1680706946.682899,172.16.1.2,29589,172.16.3.2,5201,15228,18860,6,62848,65728,6,6,4,1460,844,1,1075848160,62,82732,79836,65700,0,15928,0,0,0
o,0x00000000,1680706946.683086,172.16.1.2,29589,172.16.3.2,5201,15228,18860,6,62848,65728,6,6,4,1460,844,1,1075848160,62,82732,79836,65700,0,17376,0,0,0
i,0x00000000,1680706946.683185,172.16.1.2,29589,172.16.3.2,5201,15228,18860,6,62848,65728,6,6,4,1460,844,1,1075848160,62,82732,79836,65700,0,18824,0,0,0
o,0x00000000,1680706946.683204,172.16.1.2,29589,172.16.3.2,5201,15228,18860,6,64256,65728,6,6,4,1460,855,1,1075848160,61,82732,76940,65700,0,15928,0,0,0
o,0x00000000,1680706946.683303,172.16.1.2,29589,172.16.3.2,5201,15228,18860,6,64256,65728,6,6,4,1460,855,1,1075848160,61,82732,76940,65700,0,17376,0,0,0
i,0x00000000,1680706946.776548,172.16.1.2,29589,172.16.3.2,5201,15228,18860,6,64256,65728,6,6,4,1460,855,1,1075848160,61,82732,82732,65700,0,18824,0,0,0
o,0x00000000,1680706946.776690,172.16.1.2,29589,172.16.3.2,5201,15228,18860,6,64256,65728,6,6,4,1460,905,1,1075848160,72,82732,79836,65700,0,15928,0,0,0
o,0x00000000,1680706946.776799,172.16.1.2,29589,172.16.3.2,5201,15228,18860,6,64256,65728,6,6,4,1460,905,1,1075848160,72,82732,79836,65700,0,17376,0,0,0
i,0x00000000,1680706946.802023,172.16.1.2,29589,172.16.3.2,5201,15228,18860,6,64256,65728,6,6,4,1460,905,1,1075848160,72,82732,82732,65700,0,18824,0,0,0
o,0x00000000,1680706946.802152,172.16.1.2,29589,172.16.3.2,5201,15228,18860,6,65728,65728,6,6,4,1460,932,1,1075848160,73,82732,81284,65700,0,17376,0,0,0
i,0x00000000,1680706946.843680,172.16.1.2,29589,172.16.3.2,5201,15228,18860,6,65728,65728,6,6,4,1460,932,1,1075848160,73,82732,81284,65700,0,18824,0,0,0
o,0x00000000,1680706946.843805,172.16.1.2,29589,172.16.3.2,5201,15228,18860,6,65728,65728,6,6,4,1460,956,1,1075848160,74,82732,79836,65700,0,17376,0,0,0
i,0x00000000,1680706946.843982,172.16.1.2,29589,172.16.3.2,5201,15228,18860,6,65728,65728,6,6,4,1460,956,1,1075848160,74,82732,79836,65700,0,18824,0,0,0
o,0x00000000,1680706946.844015,172.16.1.2,29589,172.16.3.2,5201,15228,18860,6,62848,65728,6,6,4,1460,977,1,1075848160,74,82732,76940,65700,0,15928,0,0,0
o,0x00000000,1680706946.844140,172.16.1.2,29589,172.16.3.2,5201,15228,18860,6,62848,65728,6,6,4,1460,977,1,1075848160,74,82732,76940,65700,0,17376,0,0,0
i,0x00000000,1680706946.902182,172.16.1.2,29589,172.16.3.2,5201,15228,18860,6,62848,65728,6,6,4,1460,977,1,1075848160,74,82732,82732,65700,0,18824,0,0,0
