enable_time_secs=1682074229	enable_time_usecs=232819	siftrver=1.2.4	hz=100	tcp_rtt_scale=32	sysname=FreeBSD	sysver=1400084	ipmode=4
o,0x00000000,1682074229.233223,10.0.2.15,22,10.0.2.2,55626,1073725440,17262,1026,65535,65700,0,0,4,1460,32,0,4,23,33580,44,65700,0,0,0,0,0
i,0x00000000,1682074229.234158,10.0.2.15,22,10.0.2.2,55626,1073725440,17262,1026,65535,65700,0,0,4,1460,32,0,4,23,33580,44,65700,0,44,0,0,0
o,0x00000000,1682074229.234520,10.0.2.15,22,10.0.2.2,55626,1073725440,17306,1026,65535,65700,0,0,4,1460,24,0,4,24,33580,104,65700,0,0,0,0,0
o,0x00000000,1682074229.234823,10.0.2.15,22,10.0.2.2,55626,1073725440,17306,1026,65535,65700,0,0,4,1460,24,0,4,24,33580,140,65700,0,104,0,0,0
o,0x00000000,1682074229.234992,10.0.2.15,22,10.0.2.2,55626,1073725440,17306,1026,65535,65700,0,0,4,1460,24,0,4,24,33580,212,65700,0,140,0,0,0
i,0x00000000,1682074229.235257,10.0.2.15,22,10.0.2.2,55626,1073725440,17306,1026,65535,65700,0,0,4,1460,24,0,4,24,33580,212,65700,0,212,0,0,0
i,0x00000000,1682074229.235280,10.0.2.15,22,10.0.2.2,55626,1073725440,17410,1026,65535,65700,0,0,4,1460,17,0,4,25,33580,108,65700,0,108,0,0,0
i,0x00000000,1682074229.235297,10.0.2.15,22,10.0.2.2,55626,1073725440,17446,1026,65535,65700,0,0,4,1460,17,0,4,25,33580,72,65700,0,72,0,0,0
i,0x00000000,1682074229.235784,10.0.2.15,22,10.0.2.2,55626,1073725440,17518,1026,65535,65700,0,0,4,1460,17,0,4,25,33580,0,65700,0,0,0,0,0
i,0x00000000,1682074229.239970,10.0.2.15,22,10.0.2.2,55626,1073725440,17518,1026,65535,65700,0,0,4,1460,17,0,4,25,33580,0,65700,0,0,0,0,0
o,0x00000000,1682074229.240045,10.0.2.15,22,10.0.2.2,55626,1073725440,17518,1026,65535,65700,0,0,4,1460,17,0,5,25,33580,0,65700,60,0,0,0,0
i,0x00000000,1682074229.240242,10.0.2.15,22,10.0.2.2,55626,1073725440,17518,1026,65535,65700,0,0,4,1460,17,0,4,25,33580,0,65700,0,0,0,0,0
o,0x00000000,1682074229.240272,10.0.2.15,22,10.0.2.2,55626,1073725440,17518,1026,65535,65700,0,0,5,1460,17,0,7,25,33580,0,65700,0,0,0,0,0
o,0x00000000,1682074229.241669,10.0.2.15,22,10.0.2.2,55626,1073725440,17518,1026,65535,65700,0,0,8,1460,17,0,4,25,33580,0,65700,0,0,0,0,0
i,0x00000000,1682074229.242656,10.0.2.15,22,10.0.2.2,55626,1073725440,17518,1026,65535,65700,0,0,8,1460,17,0,67108884,25,33580,0,65700,0,1,0,0,0
i,0x00000000,1682074230.791502,10.0.2.15,22,10.0.2.2,55632,1073725440,14600,0,65535,65700,0,0,4,1460,11,0,0,31,33580,0,65700,0,0,0,0,0
o,0x00000000,1682074230.803768,10.0.2.15,22,10.0.2.2,55632,1073725440,14600,1026,65535,65700,0,0,4,1460,11,0,0,31,33580,38,65700,41,0,0,0,0
i,0x00000000,1682074230.804877,10.0.2.15,22,10.0.2.2,55632,1073725440,14600,1026,65535,65700,0,0,4,1460,11,0,0,31,33580,38,65700,0,38,0,0,0
i,0x00000000,1682074230.806816,10.0.2.15,22,10.0.2.2,55632,1073725440,14638,1026,65535,65700,0,0,4,1460,6,0,0,25,33580,0,65700,0,0,0,0,0
i,0x00000000,1682074230.806885,10.0.2.15,22,10.0.2.2,55632,1073725440,14638,1026,65535,65700,0,0,4,1460,6,0,0,25,33580,0,65700,1460,0,0,0,0
o,0x00000000,1682074230.806964,10.0.2.15,22,10.0.2.2,55632,1073725440,14638,1026,65535,65700,0,0,4,1460,6,0,1,25,33580,0,65700,1504,0,0,0,0
o,0x00000000,1682074230.808567,10.0.2.15,22,10.0.2.2,55632,1073725440,14638,1026,65535,65700,0,0,4,1460,6,0,0,25,33580,1056,65700,1504,0,0,0,0
i,0x00000000,1682074230.809861,10.0.2.15,22,10.0.2.2,55632,1073725440,14638,1026,65535,65700,0,0,4,1460,6,0,0,25,33580,1056,65700,0,1056,0,0,0
i,0x00000000,1682074230.811415,10.0.2.15,22,10.0.2.2,55632,1073725440,15694,1026,65535,65700,0,0,4,1460,2,0,0,24,33580,0,65700,0,0,0,0,0
o,0x00000000,1682074230.814807,10.0.2.15,22,10.0.2.2,55632,1073725440,15694,1026,65535,65700,0,0,4,1460,2,0,0,24,33580,484,65700,0,0,0,0,0
i,0x00000000,1682074230.815746,10.0.2.15,22,10.0.2.2,55632,1073725440,15694,1026,65535,65700,0,0,4,1460,2,0,0,24,33580,484,65700,0,484,0,0,0
i,0x00000000,1682074230.819840,10.0.2.15,22,10.0.2.2,55632,1073725440,16178,1026,65535,65700,0,0,4,1460,1,0,0,24,33580,0,65700,0,0,0,0,0
i,0x00000000,1682074230.829956,10.0.2.15,22,10.0.2.2,55632,1073725440,16178,1026,65535,65700,0,0,4,1460,1,0,0,24,33580,0,65700,0,0,0,0,0
o,0x00000000,1682074230.829981,10.0.2.15,22,10.0.2.2,55632,1073725440,16178,1026,65535,65700,0,0,4,1460,1,0,1,24,33580,0,65700,44,0,0,0,0
o,0x00000000,1682074230.830118,10.0.2.15,22,10.0.2.2,55632,1073725440,16178,1026,65535,65700,0,0,4,1460,1,0,0,24,33580,44,65700,0,0,0,0,0
i,0x00000000,1682074230.831600,10.0.2.15,22,10.0.2.2,55632,1073725440,16178,1026,65535,65700,0,0,4,1460,1,0,0,24,33580,44,65700,0,44,0,0,0
i,0x00000000,1682074230.831698,10.0.2.15,22,10.0.2.2,55632,1073725440,16222,1026,65535,65700,0,0,4,1460,1,0,0,24,33580,0,65700,0,0,0,0,0
o,0x00000000,1682074230.843157,10.0.2.15,22,10.0.2.2,55632,1073725440,16222,1026,65535,65700,0,0,4,1460,1,0,0,24,33580,68,65700,0,0,0,0,0
i,0x00000000,1682074230.844342,10.0.2.15,22,10.0.2.2,55632,1073725440,16222,1026,65535,65700,0,0,4,1460,1,0,0,24,33580,68,65700,0,68,0,0,0
i,0x00000000,1682074230.848888,10.0.2.15,22,10.0.2.2,55632,1073725440,16290,1026,65535,65700,0,0,4,1460,1,0,0,24,33580,0,65700,0,0,0,0,0
o,0x00000000,1682074230.861856,10.0.2.15,22,10.0.2.2,55632,1073725440,16290,1026,65535,65700,0,0,4,1460,1,0,0,24,33580,28,65700,0,0,0,0,0
i,0x00000000,1682074230.862819,10.0.2.15,22,10.0.2.2,55632,1073725440,16290,1026,65535,65700,0,0,4,1460,1,0,0,24,33580,28,65700,0,28,0,0,0
i,0x00000000,1682074230.862874,10.0.2.15,22,10.0.2.2,55632,1073725440,16318,1026,65535,65700,0,0,4,1460,1,0,0,24,33580,0,65700,0,0,0,0,0
o,0x00000000,1682074230.864660,10.0.2.15,22,10.0.2.2,55632,1073725440,16318,1026,65535,65700,0,0,4,1460,1,0,0,24,33580,768,65700,112,0,0,0,0
i,0x00000000,1682074230.865177,10.0.2.15,22,10.0.2.2,55632,1073725440,16318,1026,65535,65700,0,0,4,1460,1,0,0,24,33580,812,65700,0,768,0,0,0
o,0x00000000,1682074230.865204,10.0.2.15,22,10.0.2.2,55632,1073725440,17086,1026,65535,65700,0,0,4,1460,1,0,0,24,33580,44,65700,0,0,0,0,0
i,0x00000000,1682074230.865522,10.0.2.15,22,10.0.2.2,55632,1073725440,17086,1026,65535,65700,0,0,4,1460,1,0,0,24,33580,44,65700,0,44,0,0,0
i,0x00000000,1682074230.866470,10.0.2.15,22,10.0.2.2,55632,1073725440,17130,1026,65535,65700,0,0,4,1460,1,0,0,24,33580,0,65700,0,0,0,0,0
o,0x00000000,1682074230.867264,10.0.2.15,22,10.0.2.2,55632,1073725440,17130,1026,65535,65700,0,0,4,1460,1,0,4,24,33580,72,65700,0,0,0,0,0
i,0x00000000,1682074230.867983,10.0.2.15,22,10.0.2.2,55632,1073725440,17130,1026,65535,65700,0,0,4,1460,1,0,4,24,33580,72,65700,0,72,0,0,0
o,0x00000000,1682074230.891695,172.16.1.2,57594,172.16.3.2,5201,1073725440,1073725440,2,0,0,0,0,2,536,0,1,672,100,32768,0,65536,0,0,0,0,0
i,0x00000000,1682074231.013544,172.16.1.2,57594,172.16.3.2,5201,1073725440,1073725440,2,0,0,0,0,2,536,0,1,672,100,32768,0,65536,0,1,0,0,0
o,0x00000000,1682074231.013750,172.16.1.2,57594,172.16.3.2,5201,132187,14480,34,65535,65700,6,6,4,1460,444,1,993,43,33580,0,65700,0,0,0,0,0
o,0x00000000,1682074231.015757,172.16.1.2,57594,172.16.3.2,5201,132187,14480,34,65535,65700,6,6,4,1460,444,1,996,43,33580,37,65700,0,0,0,0,0
i,0x00000000,1682074231.142308,172.16.1.2,57594,172.16.3.2,5201,132187,14480,34,65535,65700,6,6,4,1460,444,1,996,43,33580,37,65700,0,37,0,0,0
o,0x00000000,1682074231.143089,172.16.1.2,57594,172.16.3.2,5201,132187,14517,1058,65728,65728,6,6,4,1460,441,1,996,42,33580,4,65700,0,0,0,0,0
o,0x00000000,1682074231.144627,172.16.1.2,57594,172.16.3.2,5201,132187,14517,1058,65728,65728,6,6,4,1460,441,1,996,42,33580,128,65700,0,4,0,0,0
i,0x00000000,1682074231.262183,172.16.1.2,57594,172.16.3.2,5201,132187,14517,1058,65728,65728,6,6,4,1460,441,1,996,42,33580,128,65700,0,128,0,0,0
i,0x00000000,1682074231.262238,172.16.1.2,57594,172.16.3.2,5201,132187,14645,1058,65600,65728,6,6,4,1460,434,1,996,41,33580,0,65700,0,0,0,0,0
o,0x00000000,1682074231.262661,172.16.1.2,64394,172.16.3.2,5201,1073725440,1073725440,2,0,0,0,0,2,536,0,1,672,100,32768,0,65536,0,0,0,0,0
o,0x00000000,1682074231.303183,172.16.1.2,57594,172.16.3.2,5201,132187,14645,1058,65728,65728,6,6,4,1460,434,1,997,41,33580,0,65700,0,0,0,0,0
i,0x00000000,1682074231.381980,172.16.1.2,64394,172.16.3.2,5201,1073725440,1073725440,2,0,0,0,0,2,536,0,1,672,100,32768,0,65536,0,1,0,0,0
o,0x00000000,1682074231.382094,172.16.1.2,64394,172.16.3.2,5201,132187,14480,34,65535,65700,6,6,4,1460,440,1,993,44,33580,0,65700,0,0,0,0,0
o,0x00000000,1682074231.382221,172.16.1.2,64394,172.16.3.2,5201,132187,14480,34,65535,65700,6,6,4,1460,440,1,992,44,33580,37,65700,0,0,0,0,0
i,0x00000000,1682074231.505745,172.16.1.2,57594,172.16.3.2,5201,132187,14645,1058,65728,65728,6,6,4,1460,434,1,996,41,33580,0,65700,0,0,0,0,0
i,0x00000000,1682074231.505774,172.16.1.2,57594,172.16.3.2,5201,132187,14645,1058,65728,65728,6,6,4,1460,434,1,996,41,33580,0,65700,1,0,0,0,0
o,0x00000000,1682074231.505800,172.16.1.2,57594,172.16.3.2,5201,132187,14645,1058,65728,65728,6,6,4,1460,434,1,997,41,33580,0,65700,1,0,0,0,0
o,0x00000000,1682074231.506305,172.16.1.2,64394,172.16.3.2,5201,132187,14480,38,65535,65700,6,6,4,1460,440,1,992,44,33580,33580,65700,0,37,0,0,0
o,0x00000000,1682074231.506720,172.16.1.2,64394,172.16.3.2,5201,132187,14480,38,65535,65700,6,6,4,1460,440,1,992,44,33580,33580,65700,0,1485,0,0,0
o,0x00000000,1682074231.507119,172.16.1.2,64394,172.16.3.2,5201,132187,14480,38,65535,65700,6,6,4,1460,440,1,992,44,33580,33580,65700,0,2933,0,0,0
o,0x00000000,1682074231.507596,172.16.1.2,64394,172.16.3.2,5201,132187,14480,38,65535,65700,6,6,4,1460,440,1,992,44,33580,33580,65700,0,4381,0,0,0
o,0x00000000,1682074231.508096,172.16.1.2,64394,172.16.3.2,5201,132187,14480,38,65535,65700,6,6,4,1460,440,1,992,44,33580,33580,65700,0,5829,0,0,0
o,0x00000000,1682074231.508986,172.16.1.2,64394,172.16.3.2,5201,132187,14480,38,65535,65700,6,6,4,1460,440,1,992,44,33580,33580,65700,0,7277,0,0,0
o,0x00000000,1682074231.509545,172.16.1.2,64394,172.16.3.2,5201,132187,14480,38,65535,65700,6,6,4,1460,440,1,992,44,33580,33580,65700,0,8725,0,0,0
o,0x00000000,1682074231.509927,172.16.1.2,64394,172.16.3.2,5201,132187,14480,38,65535,65700,6,6,4,1460,440,1,992,44,33580,33580,65700,0,10173,0,0,0
o,0x00000000,1682074231.510287,172.16.1.2,64394,172.16.3.2,5201,132187,14480,38,65535,65700,6,6,4,1460,440,1,992,44,33580,33580,65700,0,11621,0,0,0
i,0x00000000,1682074231.535531,172.16.1.2,64394,172.16.3.2,5201,132187,14480,38,65535,65700,6,6,4,1460,440,1,992,44,33580,33580,65700,0,13069,0,0,0
o,0x00000000,1682074231.535701,172.16.1.2,64394,172.16.3.2,5201,132187,14517,38,65728,65728,6,6,4,1460,445,1,992,43,33580,33543,65700,0,13032,0,0,0
i,0x00000000,1682074231.627649,172.16.1.2,64394,172.16.3.2,5201,132187,14517,38,65728,65728,6,6,4,1460,445,1,992,43,33580,33543,65700,0,14480,0,0,0
o,0x00000000,1682074231.627692,172.16.1.2,64394,172.16.3.2,5201,132187,17413,38,62848,65728,6,6,4,1460,438,1,992,42,33580,30647,65700,0,11584,0,0,0
o,0x00000000,1682074231.627800,172.16.1.2,64394,172.16.3.2,5201,132187,17413,38,62848,65728,6,6,4,1460,438,1,992,42,33580,30647,65700,0,13032,0,0,0
o,0x00000000,1682074231.627917,172.16.1.2,64394,172.16.3.2,5201,132187,17413,38,62848,65728,6,6,4,1460,438,1,992,42,41772,30647,65700,0,14480,0,0,0
o,0x00000000,1682074231.628052,172.16.1.2,64394,172.16.3.2,5201,132187,17413,38,62848,65728,6,6,4,1460,438,1,992,42,41772,30647,65700,0,15928,0,0,0
i,0x00000000,1682074231.628191,172.16.1.2,64394,172.16.3.2,5201,132187,17413,38,62848,65728,6,6,4,1460,438,1,992,42,41772,30647,65700,0,17376,0,0,0
o,0x00000000,1682074231.628218,172.16.1.2,64394,172.16.3.2,5201,132187,20309,38,59968,65728,6,6,4,1460,432,1,992,41,41772,27751,65700,0,14480,0,0,0
o,0x00000000,1682074231.628352,172.16.1.2,64394,172.16.3.2,5201,132187,20309,38,59968,65728,6,6,4,1460,432,1,992,41,41772,27751,65700,0,15928,0,0,0
o,0x00000000,1682074231.628554,172.16.1.2,64394,172.16.3.2,5201,132187,20309,38,59968,65728,6,6,4,1460,432,1,992,41,41772,27751,65700,0,17376,0,0,0
o,0x00000000,1682074231.628772,172.16.1.2,64394,172.16.3.2,5201,132187,20309,38,59968,65728,6,6,4,1460,432,1,992,41,41772,27751,65700,0,18824,0,0,0
i,0x00000000,1682074231.628937,172.16.1.2,64394,172.16.3.2,5201,132187,20309,38,59968,65728,6,6,4,1460,432,1,992,41,41772,27751,65700,0,20272,0,0,0
o,0x00000000,1682074231.628975,172.16.1.2,64394,172.16.3.2,5201,132187,23205,38,57088,65728,6,6,4,1460,426,1,992,41,41772,24855,65700,0,17376,0,0,0
o,0x00000000,1682074231.629508,172.16.1.2,64394,172.16.3.2,5201,132187,23205,38,57088,65728,6,6,4,1460,426,1,992,41,41772,24855,65700,0,18824,0,0,0
o,0x00000000,1682074231.629872,172.16.1.2,64394,172.16.3.2,5201,132187,23205,38,57088,65728,6,6,4,1460,426,1,992,41,41772,24855,65700,0,20272,0,0,0
o,0x00000000,1682074231.630022,172.16.1.2,64394,172.16.3.2,5201,132187,23205,38,57088,65728,6,6,4,1460,426,1,992,41,41772,24855,65700,0,21720,0,0,0
i,0x00000000,1682074231.630209,172.16.1.2,64394,172.16.3.2,5201,132187,23205,38,57088,65728,6,6,4,1460,426,1,992,41,41772,24855,65700,0,23168,0,0,0
o,0x00000000,1682074231.630248,172.16.1.2,64394,172.16.3.2,5201,132187,26101,38,54208,65728,6,6,4,1460,421,1,992,40,41772,21959,65700,0,20272,0,0,0
o,0x00000000,1682074231.631052,172.16.1.2,64394,172.16.3.2,5201,132187,26101,38,54208,65728,6,6,4,1460,421,1,992,40,49964,41772,65700,0,21720,0,0,0
o,0x00000000,1682074231.631966,172.16.1.2,64394,172.16.3.2,5201,132187,26101,38,54208,65728,6,6,4,1460,421,1,992,40,49964,41772,65700,0,23168,0,0,0
o,0x00000000,1682074231.632481,172.16.1.2,64394,172.16.3.2,5201,132187,26101,38,54208,65728,6,6,4,1460,421,1,992,40,49964,41772,65700,0,24616,0,0,0
i,0x00000000,1682074231.671603,172.16.1.2,64394,172.16.3.2,5201,132187,26101,38,54208,65728,6,6,4,1460,421,1,992,40,58156,58156,65700,0,26064,0,0,0
o,0x00000000,1682074231.671639,172.16.1.2,64394,172.16.3.2,5201,132187,28997,38,64256,65728,6,6,4,1460,437,1,992,43,58156,55260,65700,0,23168,0,0,0
o,0x00000000,1682074231.671778,172.16.1.2,64394,172.16.3.2,5201,132187,28997,38,64256,65728,6,6,4,1460,437,1,992,43,58156,55260,65700,0,24616,0,0,0
o,0x00000000,1682074231.671879,172.16.1.2,64394,172.16.3.2,5201,132187,28997,38,64256,65728,6,6,4,1460,437,1,992,43,58156,55260,65700,0,26064,0,0,0
o,0x00000000,1682074231.671997,172.16.1.2,64394,172.16.3.2,5201,132187,28997,38,64256,65728,6,6,4,1460,437,1,992,43,66348,55260,65700,0,27512,0,0,0
i,0x00000000,1682074231.732678,172.16.1.2,64394,172.16.3.2,5201,132187,28997,38,64256,65728,6,6,4,1460,437,1,992,43,66348,66348,65700,0,28960,0,0,0
o,0x00000000,1682074231.732956,172.16.1.2,64394,172.16.3.2,5201,132187,31893,38,62848,65728,6,6,4,1460,423,1,992,43,66348,63452,65700,0,26064,0,0,0
o,0x00000000,1682074231.733790,172.16.1.2,64394,172.16.3.2,5201,132187,31893,38,62848,65728,6,6,4,1460,423,1,992,43,66348,63452,65700,0,27512,0,0,0
o,0x00000000,1682074231.734087,172.16.1.2,64394,172.16.3.2,5201,132187,31893,38,62848,65728,6,6,4,1460,423,1,992,43,66348,63452,65700,0,28960,0,0,0
o,0x00000000,1682074231.734229,172.16.1.2,64394,172.16.3.2,5201,132187,31893,38,62848,65728,6,6,4,1460,423,1,992,43,66348,63452,65700,0,30408,0,0,0
i,0x00000000,1682074231.734344,172.16.1.2,64394,172.16.3.2,5201,132187,31893,38,62848,65728,6,6,4,1460,423,1,992,43,74540,63452,65700,0,31856,0,0,0
o,0x00000000,1682074231.734363,172.16.1.2,64394,172.16.3.2,5201,132187,34789,38,62848,65728,6,6,4,1460,411,1,992,44,74540,60556,65700,0,28960,0,0,0
o,0x00000000,1682074231.734470,172.16.1.2,64394,172.16.3.2,5201,132187,34789,38,62848,65728,6,6,4,1460,411,1,992,44,74540,60556,65700,0,30408,0,0,0
o,0x00000000,1682074231.734561,172.16.1.2,64394,172.16.3.2,5201,132187,34789,38,62848,65728,6,6,4,1460,411,1,992,44,74540,60556,65700,0,31856,0,0,0
o,0x00000000,1682074231.734732,172.16.1.2,64394,172.16.3.2,5201,132187,34789,38,62848,65728,6,6,4,1460,411,1,992,44,74540,60556,65700,0,33304,0,0,0
i,0x00000000,1682074231.735098,172.16.1.2,64394,172.16.3.2,5201,132187,34789,38,62848,65728,6,6,4,1460,411,1,992,44,74540,60556,65700,0,34752,0,0,0
o,0x00000000,1682074231.735184,172.16.1.2,64394,172.16.3.2,5201,132187,37685,38,62848,65728,6,6,4,1460,400,1,992,43,74540,57660,65700,0,31856,0,0,0
o,0x00000000,1682074231.735389,172.16.1.2,64394,172.16.3.2,5201,132187,37685,38,62848,65728,6,6,4,1460,400,1,992,43,74540,57660,65700,0,33304,0,0,0
o,0x00000000,1682074231.735477,172.16.1.2,64394,172.16.3.2,5201,132187,37685,38,62848,65728,6,6,4,1460,400,1,992,43,74540,57660,65700,0,34752,0,0,0
o,0x00000000,1682074231.735578,172.16.1.2,64394,172.16.3.2,5201,132187,37685,38,62848,65728,6,6,4,1460,400,1,992,43,74540,57660,65700,0,36200,0,0,0
i,0x00000000,1682074231.735664,172.16.1.2,64394,172.16.3.2,5201,132187,37685,38,62848,65728,6,6,4,1460,400,1,992,43,74540,57660,65700,0,37648,0,0,0
o,0x00000000,1682074231.735682,172.16.1.2,64394,172.16.3.2,5201,132187,40581,38,64256,65728,6,6,4,1460,390,1,992,43,74540,54764,65700,0,34752,0,0,0
o,0x00000000,1682074231.735782,172.16.1.2,64394,172.16.3.2,5201,132187,40581,38,64256,65728,6,6,4,1460,390,1,992,43,74540,54764,65700,0,36200,0,0,0
o,0x00000000,1682074231.735884,172.16.1.2,64394,172.16.3.2,5201,132187,40581,38,64256,65728,6,6,4,1460,390,1,992,43,74540,54764,65700,0,37648,0,0,0
o,0x00000000,1682074231.736012,172.16.1.2,64394,172.16.3.2,5201,132187,40581,38,64256,65728,6,6,4,1460,390,1,992,43,74540,54764,65700,0,39096,0,0,0
i,0x00000000,1682074231.762657,172.16.1.2,64394,172.16.3.2,5201,132187,40581,38,64256,65728,6,6,4,1460,390,1,992,43,82732,82732,65700,0,40544,0,0,0
o,0x00000000,1682074231.763012,172.16.1.2,64394,172.16.3.2,5201,132187,43477,38,62848,65728,6,6,4,1460,394,1,992,41,82732,79836,65700,0,37648,0,0,0
o,0x00000000,1682074231.763438,172.16.1.2,64394,172.16.3.2,5201,132187,43477,38,62848,65728,6,6,4,1460,394,1,992,41,82732,79836,65700,0,39096,0,0,0
o,0x00000000,1682074231.763904,172.16.1.2,64394,172.16.3.2,5201,132187,43477,38,62848,65728,6,6,4,1460,394,1,992,41,82732,79836,65700,0,40544,0,0,0
o,0x00000000,1682074231.764040,172.16.1.2,64394,172.16.3.2,5201,132187,43477,38,62848,65728,6,6,4,1460,394,1,992,41,82732,79836,65700,0,41992,0,0,0
i,0x00000000,1682074231.764282,172.16.1.2,64394,172.16.3.2,5201,132187,43477,38,62848,65728,6,6,4,1460,394,1,992,41,82732,79836,65700,0,43440,0,0,0
o,0x00000000,1682074231.764311,172.16.1.2,64394,172.16.3.2,5201,132187,46373,38,59968,65728,6,6,4,1460,397,1,992,40,82732,76940,65700,0,40544,0,0,0
o,0x00000000,1682074231.764447,172.16.1.2,64394,172.16.3.2,5201,132187,46373,38,59968,65728,6,6,4,1460,397,1,992,40,82732,76940,65700,0,41992,0,0,0
o,0x00000000,1682074231.764568,172.16.1.2,64394,172.16.3.2,5201,132187,46373,38,59968,65728,6,6,4,1460,397,1,992,40,82732,76940,65700,0,43440,0,0,0
o,0x00000000,1682074231.764685,172.16.1.2,64394,172.16.3.2,5201,132187,46373,38,59968,65728,6,6,4,1460,397,1,992,40,82732,76940,65700,0,44888,0,0,0
i,0x00000000,1682074231.764797,172.16.1.2,64394,172.16.3.2,5201,132187,46373,38,59968,65728,6,6,4,1460,397,1,992,40,82732,76940,65700,0,46336,0,0,0
o,0x00000000,1682074231.764819,172.16.1.2,64394,172.16.3.2,5201,132187,49269,38,57088,65728,6,6,4,1460,400,1,992,39,82732,74044,65700,0,43440,0,0,0
o,0x00000000,1682074231.764935,172.16.1.2,64394,172.16.3.2,5201,132187,49269,38,57088,65728,6,6,4,1460,400,1,992,39,82732,74044,65700,0,44888,0,0,0
o,0x00000000,1682074231.765028,172.16.1.2,64394,172.16.3.2,5201,132187,49269,38,57088,65728,6,6,4,1460,400,1,992,39,82732,74044,65700,0,46336,0,0,0
o,0x00000000,1682074231.765132,172.16.1.2,64394,172.16.3.2,5201,132187,49269,38,57088,65728,6,6,4,1460,400,1,992,39,82732,74044,65700,0,47784,0,0,0
i,0x00000000,1682074231.765240,172.16.1.2,64394,172.16.3.2,5201,132187,49269,38,57088,65728,6,6,4,1460,400,1,992,39,82732,74044,65700,0,49232,0,0,0
o,0x00000000,1682074231.765260,172.16.1.2,64394,172.16.3.2,5201,132187,52165,38,54208,65728,6,6,4,1460,402,1,992,38,82732,71148,65700,0,46336,0,0,0
o,0x00000000,1682074231.765373,172.16.1.2,64394,172.16.3.2,5201,132187,52165,38,54208,65728,6,6,4,1460,402,1,992,38,82732,71148,65700,0,47784,0,0,0
o,0x00000000,1682074231.765485,172.16.1.2,64394,172.16.3.2,5201,132187,52165,38,54208,65728,6,6,4,1460,402,1,992,38,82732,71148,65700,0,49232,0,0,0
o,0x00000000,1682074231.765578,172.16.1.2,64394,172.16.3.2,5201,132187,52165,38,54208,65728,6,6,4,1460,402,1,992,38,82732,71148,65700,0,50680,0,0,0
i,0x00000000,1682074231.791241,172.16.1.2,64394,172.16.3.2,5201,132187,52165,38,54208,65728,6,6,4,1460,402,1,992,38,82732,82732,65700,0,52128,0,0,0
o,0x00000000,1682074231.791388,172.16.1.2,64394,172.16.3.2,5201,132187,55061,38,62848,65728,6,6,4,1460,396,1,992,38,82732,79836,65700,0,49232,0,0,0
o,0x00000000,1682074231.791507,172.16.1.2,64394,172.16.3.2,5201,132187,55061,38,62848,65728,6,6,4,1460,396,1,992,38,82732,79836,65700,0,50680,0,0,0
o,0x00000000,1682074231.791601,172.16.1.2,64394,172.16.3.2,5201,132187,55061,38,62848,65728,6,6,4,1460,396,1,992,38,82732,79836,65700,0,52128,0,0,0
o,0x00000000,1682074231.791700,172.16.1.2,64394,172.16.3.2,5201,132187,55061,38,62848,65728,6,6,4,1460,396,1,992,38,82732,79836,65700,0,53576,0,0,0
i,0x00000000,1682074231.791853,172.16.1.2,64394,172.16.3.2,5201,132187,55061,38,62848,65728,6,6,4,1460,396,1,992,38,82732,79836,65700,0,55024,0,0,0
o,0x00000000,1682074231.791890,172.16.1.2,64394,172.16.3.2,5201,132187,57957,38,64256,65728,6,6,4,1460,391,1,992,37,82732,76940,65700,0,52128,0,0,0
o,0x00000000,1682074231.792115,172.16.1.2,64394,172.16.3.2,5201,132187,57957,38,64256,65728,6,6,4,1460,391,1,992,37,82732,76940,65700,0,53576,0,0,0
o,0x00000000,1682074231.792284,172.16.1.2,64394,172.16.3.2,5201,132187,57957,38,64256,65728,6,6,4,1460,391,1,992,37,82732,76940,65700,0,55024,0,0,0
o,0x00000000,1682074231.792446,172.16.1.2,64394,172.16.3.2,5201,132187,57957,38,64256,65728,6,6,4,1460,391,1,992,37,82732,76940,65700,0,56472,0,0,0
i,0x00000000,1682074231.850688,172.16.1.2,64394,172.16.3.2,5201,132187,57957,38,64256,65728,6,6,4,1460,391,1,992,37,82732,82732,65700,0,57920,0,0,0
o,0x00000000,1682074231.850736,172.16.1.2,64394,172.16.3.2,5201,132187,60853,38,95680,65728,6,6,4,1460,387,1,992,37,90924,79836,65700,0,55024,0,0,0
o,0x00000000,1682074231.851002,172.16.1.2,64394,172.16.3.2,5201,132187,60853,38,95680,65728,6,6,4,1460,387,1,992,37,99116,79836,65700,0,56472,0,0,0
o,0x00000000,1682074231.851336,172.16.1.2,64394,172.16.3.2,5201,132187,60853,38,95680,65728,6,6,4,1460,387,1,992,37,99116,79836,65700,0,57920,0,0,0
o,0x00000000,1682074231.851486,172.16.1.2,64394,172.16.3.2,5201,132187,60853,38,95680,65728,6,6,4,1460,387,1,992,37,99116,79836,65700,0,59368,0,0,0
i,0x00000000,1682074231.851614,172.16.1.2,64394,172.16.3.2,5201,132187,60853,38,95680,65728,6,6,4,1460,387,1,992,37,99116,79836,65700,0,60816,0,0,0
o,0x00000000,1682074231.851645,172.16.1.2,64394,172.16.3.2,5201,132187,63749,38,97152,65728,6,6,4,1460,383,1,992,37,99116,76940,65700,0,57920,0,0,0
o,0x00000000,1682074231.851783,172.16.1.2,64394,172.16.3.2,5201,132187,63749,38,97152,65728,6,6,4,1460,383,1,992,37,99116,76940,65700,0,59368,0,0,0
o,0x00000000,1682074231.851971,172.16.1.2,64394,172.16.3.2,5201,132187,63749,38,97152,65728,6,6,4,1460,383,1,992,37,99116,76940,65700,0,60816,0,0,0
o,0x00000000,1682074231.852077,172.16.1.2,64394,172.16.3.2,5201,132187,63749,38,97152,65728,6,6,4,1460,383,1,992,37,99116,76940,65700,0,62264,0,0,0
i,0x00000000,1682074231.852170,172.16.1.2,64394,172.16.3.2,5201,132187,63749,38,97152,65728,6,6,4,1460,383,1,992,37,99116,76940,65700,0,63712,0,0,0
o,0x00000000,1682074231.852196,172.16.1.2,64394,172.16.3.2,5201,132187,66645,38,94272,65728,6,6,4,1460,380,1,992,36,99116,74044,65700,0,60816,0,0,0
o,0x00000000,1682074231.852312,172.16.1.2,64394,172.16.3.2,5201,132187,66645,38,94272,65728,6,6,4,1460,380,1,992,36,99116,74044,65700,0,62264,0,0,0
o,0x00000000,1682074231.852421,172.16.1.2,64394,172.16.3.2,5201,132187,66645,38,94272,65728,6,6,4,1460,380,1,992,36,99116,74044,65700,0,63712,0,0,0
o,0x00000000,1682074231.852510,172.16.1.2,64394,172.16.3.2,5201,132187,66645,38,94272,65728,6,6,4,1460,380,1,992,36,99116,74044,65700,0,65160,0,0,0
i,0x00000000,1682074231.852610,172.16.1.2,64394,172.16.3.2,5201,132187,66645,38,94272,65728,6,6,4,1460,380,1,992,36,99116,74044,65700,0,66608,0,0,0
o,0x00000000,1682074231.852630,172.16.1.2,64394,172.16.3.2,5201,132187,69541,38,97152,65728,6,6,4,1460,377,1,992,36,99116,71148,65700,0,63712,0,0,0
o,0x00000000,1682074231.852720,172.16.1.2,64394,172.16.3.2,5201,132187,69541,38,97152,65728,6,6,4,1460,377,1,992,36,99116,71148,65700,0,65160,0,0,0
o,0x00000000,1682074231.852837,172.16.1.2,64394,172.16.3.2,5201,132187,69541,38,97152,65728,6,6,4,1460,377,1,992,36,99116,71148,65700,0,66608,0,0,0
o,0x00000000,1682074231.852971,172.16.1.2,64394,172.16.3.2,5201,132187,69541,38,97152,65728,6,6,4,1460,377,1,992,36,99116,71148,65700,0,68056,0,0,0
i,0x00000000,1682074231.881348,172.16.1.2,64394,172.16.3.2,5201,132187,69541,38,97152,65728,6,6,4,1460,377,1,992,36,123692,123692,65700,0,69504,0,0,0
o,0x00000000,1682074231.881397,172.16.1.2,64394,172.16.3.2,5201,132187,72437,38,95680,65728,6,6,4,1460,386,1,992,37,123692,120796,65700,0,66608,0,0,0
o,0x00000000,1682074231.881714,172.16.1.2,64394,172.16.3.2,5201,132187,72437,38,95680,65728,6,6,4,1460,386,1,992,37,123692,120796,65700,0,68056,0,0,0
o,0x00000000,1682074231.881880,172.16.1.2,64394,172.16.3.2,5201,132187,72437,38,95680,65728,6,6,4,1460,386,1,992,37,123692,120796,65700,0,69504,0,0,0
o,0x00000000,1682074231.881999,172.16.1.2,64394,172.16.3.2,5201,132187,72437,38,95680,65728,6,6,4,1460,386,1,992,37,123692,120796,65700,0,70952,0,0,0
i,0x00000000,1682074231.882113,172.16.1.2,64394,172.16.3.2,5201,132187,72437,38,95680,65728,6,6,4,1460,386,1,992,37,123692,120796,65700,0,72400,0,0,0
o,0x00000000,1682074231.882137,172.16.1.2,64394,172.16.3.2,5201,132187,75333,38,97152,65728,6,6,4,1460,394,1,992,38,123692,117900,65700,0,69504,0,0,0
o,0x00000000,1682074231.882281,172.16.1.2,64394,172.16.3.2,5201,132187,75333,38,97152,65728,6,6,4,1460,394,1,992,38,123692,117900,65700,0,70952,0,0,0
o,0x00000000,1682074231.882369,172.16.1.2,64394,172.16.3.2,5201,132187,75333,38,97152,65728,6,6,4,1460,394,1,992,38,123692,117900,65700,0,72400,0,0,0
o,0x00000000,1682074231.882454,172.16.1.2,64394,172.16.3.2,5201,132187,75333,38,97152,65728,6,6,4,1460,394,1,992,38,123692,117900,65700,0,73848,0,0,0
i,0x00000000,1682074231.882556,172.16.1.2,64394,172.16.3.2,5201,132187,75333,38,97152,65728,6,6,4,1460,394,1,992,38,123692,117900,65700,0,75296,0,0,0
o,0x00000000,1682074231.882576,172.16.1.2,64394,172.16.3.2,5201,132187,78229,38,94272,65728,6,6,4,1460,401,1,992,39,123692,115004,65700,0,72400,0,0,0
o,0x00000000,1682074231.882665,172.16.1.2,64394,172.16.3.2,5201,132187,78229,38,94272,65728,6,6,4,1460,401,1,992,39,123692,115004,65700,0,73848,0,0,0
o,0x00000000,1682074231.882749,172.16.1.2,64394,172.16.3.2,5201,132187,78229,38,94272,65728,6,6,4,1460,401,1,992,39,123692,115004,65700,0,75296,0,0,0
o,0x00000000,1682074231.882834,172.16.1.2,64394,172.16.3.2,5201,132187,78229,38,94272,65728,6,6,4,1460,401,1,992,39,123692,115004,65700,0,76744,0,0,0
i,0x00000000,1682074231.882917,172.16.1.2,64394,172.16.3.2,5201,132187,78229,38,94272,65728,6,6,4,1460,401,1,992,39,123692,115004,65700,0,78192,0,0,0
o,0x00000000,1682074231.882934,172.16.1.2,64394,172.16.3.2,5201,132187,81125,38,97152,65728,6,6,4,1460,407,1,992,39,123692,112108,65700,0,75296,0,0,0
o,0x00000000,1682074231.883018,172.16.1.2,64394,172.16.3.2,5201,132187,81125,38,97152,65728,6,6,4,1460,407,1,992,39,123692,112108,65700,0,76744,0,0,0
o,0x00000000,1682074231.883124,172.16.1.2,64394,172.16.3.2,5201,132187,81125,38,97152,65728,6,6,4,1460,407,1,992,39,123692,112108,65700,0,78192,0,0,0
o,0x00000000,1682074231.883210,172.16.1.2,64394,172.16.3.2,5201,132187,81125,38,97152,65728,6,6,4,1460,407,1,992,39,123692,112108,65700,0,79640,0,0,0
i,0x00000000,1682074231.891505,172.16.1.2,64394,172.16.3.2,5201,132187,81125,38,97152,65728,6,6,4,1460,407,1,992,39,123692,123692,65700,0,81088,0,0,0
o,0x00000000,1682074231.891548,172.16.1.2,64394,172.16.3.2,5201,132187,84021,38,97152,65728,6,6,4,1460,409,1,992,38,123692,120796,65700,0,78192,0,0,0
o,0x00000000,1682074231.891701,172.16.1.2,64394,172.16.3.2,5201,132187,84021,38,97152,65728,6,6,4,1460,409,1,992,38,123692,120796,65700,0,79640,0,0,0
o,0x00000000,1682074231.891821,172.16.1.2,64394,172.16.3.2,5201,132187,84021,38,97152,65728,6,6,4,1460,409,1,992,38,123692,120796,65700,0,81088,0,0,0
o,0x00000000,1682074231.891940,172.16.1.2,64394,172.16.3.2,5201,132187,84021,38,97152,65728,6,6,4,1460,409,1,992,38,123692,120796,65700,0,82536,0,0,0
i,0x00000000,1682074231.893782,172.16.1.2,64394,172.16.3.2,5201,132187,84021,38,97152,65728,6,6,4,1460,409,1,992,38,123692,123692,65700,0,83984,0,0,0
o,0x00000000,1682074231.894995,172.16.1.2,64394,172.16.3.2,5201,132187,86917,38,94272,65728,6,6,4,1460,410,1,992,37,123692,120796,65700,0,81088,0,0,0
o,0x00000000,1682074231.895133,172.16.1.2,64394,172.16.3.2,5201,132187,86917,38,94272,65728,6,6,4,1460,410,1,992,37,123692,120796,65700,0,82536,0,0,0
o,0x00000000,1682074231.895254,172.16.1.2,64394,172.16.3.2,5201,132187,86917,38,94272,65728,6,6,4,1460,410,1,992,37,123692,120796,65700,0,83984,0,0,0
o,0x00000000,1682074231.895397,172.16.1.2,64394,172.16.3.2,5201,132187,86917,38,94272,65728,6,6,4,1460,410,1,992,37,123692,120796,65700,0,85432,0,0,0
i,0x00000000,1682074231.919539,172.16.1.2,64394,172.16.3.2,5201,132187,86917,38,94272,65728,6,6,4,1460,410,1,992,37,123692,123692,65700,0,86880,0,0,0
o,0x00000000,1682074231.919582,172.16.1.2,64394,172.16.3.2,5201,132187,89813,38,91392,65728,6,6,4,1460,419,1,992,39,123692,120796,65700,0,83984,0,0,0
o,0x00000000,1682074231.919730,172.16.1.2,64394,172.16.3.2,5201,132187,89813,38,91392,65728,6,6,4,1460,419,1,992,39,123692,120796,65700,0,85432,0,0,0
o,0x00000000,1682074231.919889,172.16.1.2,64394,172.16.3.2,5201,132187,89813,38,91392,65728,6,6,4,1460,419,1,992,39,123692,120796,65700,0,86880,0,0,0
o,0x00000000,1682074231.920041,172.16.1.2,64394,172.16.3.2,5201,132187,89813,38,91392,65728,6,6,4,1460,419,1,992,39,123692,120796,65700,0,88328,0,0,0
i,0x00000000,1682074231.920182,172.16.1.2,64394,172.16.3.2,5201,132187,89813,38,91392,65728,6,6,4,1460,419,1,992,39,123692,120796,65700,0,89776,0,0,0
o,0x00000000,1682074231.920246,172.16.1.2,64394,172.16.3.2,5201,132187,92709,38,97152,65728,6,6,4,1460,427,1,992,39,123692,117900,65700,0,86880,0,0,0
o,0x00000000,1682074231.922393,172.16.1.2,64394,172.16.3.2,5201,132187,92709,38,97152,65728,6,6,4,1460,427,1,992,39,123692,117900,65700,0,88328,0,0,0
o,0x00000000,1682074231.922871,172.16.1.2,64394,172.16.3.2,5201,132187,92709,38,97152,65728,6,6,4,1460,427,1,992,39,123692,117900,65700,0,89776,0,0,0
o,0x00000000,1682074231.923078,172.16.1.2,64394,172.16.3.2,5201,132187,92709,38,97152,65728,6,6,4,1460,427,1,992,39,123692,117900,65700,0,91224,0,0,0
i,0x00000000,1682074231.923546,172.16.1.2,64394,172.16.3.2,5201,132187,92709,38,97152,65728,6,6,4,1460,427,1,992,39,123692,117900,65700,0,92672,0,0,0
o,0x00000000,1682074231.923615,172.16.1.2,64394,172.16.3.2,5201,132187,95605,38,94272,65728,6,6,4,1460,438,1,992,41,123692,115004,65700,0,89776,0,0,0
o,0x00000000,1682074231.923755,172.16.1.2,64394,172.16.3.2,5201,132187,95605,38,94272,65728,6,6,4,1460,438,1,992,41,123692,115004,65700,0,91224,0,0,0
o,0x00000000,1682074231.923880,172.16.1.2,64394,172.16.3.2,5201,132187,95605,38,94272,65728,6,6,4,1460,438,1,992,41,123692,115004,65700,0,92672,0,0,0
i,0x00000000,1682074231.923999,172.16.1.2,64394,172.16.3.2,5201,132187,95605,38,94272,65728,6,6,4,1460,438,1,992,41,123692,115004,65700,0,94120,0,0,0
o,0x00000000,1682074231.924018,172.16.1.2,64394,172.16.3.2,5201,132187,95605,38,95680,65728,6,6,4,1460,448,1,992,42,123692,112108,65700,0,91224,0,0,0
o,0x00000000,1682074231.924118,172.16.1.2,64394,172.16.3.2,5201,132187,95605,38,95680,65728,6,6,4,1460,448,1,992,42,123692,112108,65700,0,92672,0,0,0
o,0x00000000,1682074231.924209,172.16.1.2,64394,172.16.3.2,5201,132187,95605,38,95680,65728,6,6,4,1460,448,1,992,42,123692,112108,65700,0,94120,0,0,0
i,0x00000000,1682074231.924395,172.16.1.2,64394,172.16.3.2,5201,132187,95605,38,95680,65728,6,6,4,1460,448,1,992,42,123692,112108,65700,0,95568,0,0,0
i,0x00000000,1682074231.924418,172.16.1.2,64394,172.16.3.2,5201,132187,98501,38,92800,65728,6,6,4,1460,456,1,992,42,123692,109212,65700,0,92672,0,0,0
o,0x00000000,1682074231.924439,172.16.1.2,64394,172.16.3.2,5201,132187,98501,38,95680,65728,6,6,4,1460,463,1,992,42,123692,106316,65700,0,89776,0,0,0
o,0x00000000,1682074231.924557,172.16.1.2,64394,172.16.3.2,5201,132187,98501,38,95680,65728,6,6,4,1460,463,1,992,42,123692,106316,65700,0,91224,0,0,0
o,0x00000000,1682074231.924674,172.16.1.2,64394,172.16.3.2,5201,132187,98501,38,95680,65728,6,6,4,1460,463,1,992,42,123692,106316,65700,0,92672,0,0,0
o,0x00000000,1682074231.924799,172.16.1.2,64394,172.16.3.2,5201,132187,98501,38,95680,65728,6,6,4,1460,463,1,992,42,123692,106316,65700,0,94120,0,0,0
i,0x00000000,1682074231.930345,172.16.1.2,64394,172.16.3.2,5201,132187,98501,38,95680,65728,6,6,4,1460,463,1,992,42,123692,123692,65700,0,95568,0,0,0
o,0x00000000,1682074231.930375,172.16.1.2,64394,172.16.3.2,5201,132187,98501,38,97152,65728,6,6,4,1460,458,1,992,41,123692,120796,65700,0,92672,0,0,0
o,0x00000000,1682074231.930509,172.16.1.2,64394,172.16.3.2,5201,132187,98501,38,97152,65728,6,6,4,1460,458,1,992,41,123692,120796,65700,0,94120,0,0,0
o,0x00000000,1682074231.930659,172.16.1.2,64394,172.16.3.2,5201,132187,98501,38,97152,65728,6,6,4,1460,458,1,992,41,123692,120796,65700,0,95568,0,0,0
i,0x00000000,1682074231.930841,172.16.1.2,64394,172.16.3.2,5201,132187,98501,38,97152,65728,6,6,4,1460,458,1,992,41,123692,120796,65700,0,97016,0,0,0
i,0x00000000,1682074231.930877,172.16.1.2,64394,172.16.3.2,5201,132187,98501,38,94272,65728,6,6,4,1460,453,1,992,41,123692,117900,65700,0,94120,0,0,0
i,0x00000000,1682074231.930906,172.16.1.2,64394,172.16.3.2,5201,132187,98501,38,91392,65728,6,6,4,1460,449,1,992,40,123692,115004,65700,0,91224,0,0,0
i,0x00000000,1682074231.981983,172.16.1.2,64394,172.16.3.2,5201,132187,98501,38,88512,65728,6,6,4,1460,445,1,992,39,123692,123692,65700,0,88328,0,0,0
o,0x00000000,1682074231.982067,172.16.1.2,64394,172.16.3.2,5201,132187,98501,38,95680,65728,6,6,4,1460,442,1,992,39,123692,120796,65700,0,85432,0,0,0
o,0x00000000,1682074231.982222,172.16.1.2,64394,172.16.3.2,5201,132187,98501,38,95680,65728,6,6,4,1460,442,1,992,39,123692,120796,65700,0,86880,0,0,0
o,0x00000000,1682074231.982370,172.16.1.2,64394,172.16.3.2,5201,132187,98501,38,95680,65728,6,6,4,1460,442,1,992,39,123692,120796,65700,0,88328,0,0,0
o,0x00000000,1682074231.983106,172.16.1.2,64394,172.16.3.2,5201,132187,98501,38,95680,65728,6,6,4,1460,442,1,992,39,123692,120796,65700,0,89776,0,0,0
o,0x00000000,1682074231.984298,172.16.1.2,64394,172.16.3.2,5201,132187,98501,38,95680,65728,6,6,4,1460,442,1,992,39,123692,120796,65700,0,91224,0,0,0
o,0x00000000,1682074231.984810,172.16.1.2,64394,172.16.3.2,5201,132187,98501,38,95680,65728,6,6,4,1460,442,1,992,39,123692,120796,65700,0,92672,0,0,0
o,0x00000000,1682074231.984944,172.16.1.2,64394,172.16.3.2,5201,132187,98501,38,95680,65728,6,6,4,1460,442,1,992,39,123692,120796,65700,0,94120,0,0,0
i,0x00000000,1682074231.985031,172.16.1.2,64394,172.16.3.2,5201,132187,98501,38,95680,65728,6,6,4,1460,442,1,992,39,123692,120796,65700,0,95568,0,0,0
o,0x00000000,1682074231.985073,172.16.1.2,64394,172.16.3.2,5201,132187,98501,38,97152,65728,6,6,4,1460,439,1,992,38,123692,117900,65700,0,92672,0,0,0
o,0x00000000,1682074231.985166,172.16.1.2,64394,172.16.3.2,5201,132187,98501,38,97152,65728,6,6,4,1460,439,1,992,38,123692,117900,65700,0,94120,0,0,0
o,0x00000000,1682074231.985253,172.16.1.2,64394,172.16.3.2,5201,132187,98501,38,97152,65728,6,6,4,1460,439,1,992,38,123692,117900,65700,0,95568,0,0,0
i,0x00000000,1682074231.985354,172.16.1.2,64394,172.16.3.2,5201,132187,98501,38,97152,65728,6,6,4,1460,439,1,992,38,123692,117900,65700,0,97016,0,0,0
i,0x00000000,1682074231.990702,172.16.1.2,64394,172.16.3.2,5201,132187,98501,38,94272,65728,6,6,4,1460,437,1,992,37,123692,123692,65700,0,94120,0,0,0
o,0x00000000,1682074231.990756,172.16.1.2,64394,172.16.3.2,5201,132187,98501,38,97152,65728,6,6,4,1460,435,1,992,37,123692,120796,65700,0,91224,0,0,0
o,0x00000000,1682074231.990909,172.16.1.2,64394,172.16.3.2,5201,132187,98501,38,97152,65728,6,6,4,1460,435,1,992,37,123692,120796,65700,0,92672,0,0,0
o,0x00000000,1682074231.991018,172.16.1.2,64394,172.16.3.2,5201,132187,98501,38,97152,65728,6,6,4,1460,435,1,992,37,123692,120796,65700,0,94120,0,0,0
o,0x00000000,1682074231.991394,172.16.1.2,64394,172.16.3.2,5201,132187,98501,38,97152,65728,6,6,4,1460,435,1,992,37,123692,120796,65700,0,95568,0,0,0
i,0x00000000,1682074232.011241,172.16.1.2,64394,172.16.3.2,5201,132187,98501,38,97152,65728,6,6,4,1460,435,1,992,37,123692,123692,65700,0,97016,0,0,0
o,0x00000000,1682074232.011304,172.16.1.2,64394,172.16.3.2,5201,132187,98501,38,95680,65728,6,6,4,1460,445,1,992,39,123692,120796,65700,0,94120,0,0,0
i,0x00000000,1682074232.011371,172.16.1.2,64394,172.16.3.2,5201,132187,98501,38,95680,65728,6,6,4,1460,445,1,992,39,123692,120796,65700,0,95568,0,0,0
i,0x00000000,1682074232.011371,172.16.1.2,64394,172.16.3.2,5201,132187,98501,38,92800,65728,6,6,4,1460,454,1,992,40,123692,117900,65700,0,92672,0,0,0
o,0x00000000,1682074232.011371,172.16.1.2,64394,172.16.3.2,5201,132187,98501,38,97152,65728,6,6,4,1460,462,1,992,41,123692,115004,65700,0,89776,0,0,0
o,0x00000000,1682074232.011371,172.16.1.2,64394,172.16.3.2,5201,132187,98501,38,97152,65728,6,6,4,1460,462,1,992,41,123692,115004,65700,0,91224,0,0,0
o,0x00000000,1682074232.011371,172.16.1.2,64394,172.16.3.2,5201,132187,98501,38,97152,65728,6,6,4,1460,462,1,992,41,123692,115004,65700,0,92672,0,0,0
o,0x00000000,1682074232.011371,172.16.1.2,64394,172.16.3.2,5201,132187,98501,38,97152,65728,6,6,4,1460,462,1,992,41,123692,115004,65700,0,94120,0,0,0
o,0x00000000,1682074232.011925,172.16.1.2,64394,172.16.3.2,5201,132187,98501,38,97152,65728,6,6,4,1460,462,1,992,41,123692,115004,65700,0,95568,0,0,0
i,0x00000000,1682074232.012043,172.16.1.2,64394,172.16.3.2,5201,132187,98501,38,97152,65728,6,6,4,1460,462,1,992,41,123692,115004,65700,0,97016,0,0,0
o,0x00000000,1682074232.012066,172.16.1.2,64394,172.16.3.2,5201,132187,98501,38,97152,65728,6,6,4,1460,469,1,992,41,123692,112108,65700,0,94120,0,0,0
o,0x00000000,1682074232.012166,172.16.1.2,64394,172.16.3.2,5201,132187,98501,38,97152,65728,6,6,4,1460,469,1,992,41,123692,112108,65700,0,95568,0,0,0
i,0x00000000,1682074232.045298,172.16.1.2,64394,172.16.3.2,5201,132187,98501,38,97152,65728,6,6,4,1460,469,1,992,41,123692,123692,65700,0,97016,0,0,0
o,0x00000000,1682074232.045357,172.16.1.2,64394,172.16.3.2,5201,132187,98501,38,97152,65728,6,6,4,1460,475,1,992,41,123692,120796,65700,0,94120,0,0,0
o,0x00000000,1682074232.045632,172.16.1.2,64394,172.16.3.2,5201,132187,98501,38,97152,65728,6,6,4,1460,475,1,992,41,123692,120796,65700,0,95568,0,0,0
i,0x00000000,1682074232.045944,172.16.1.2,64394,172.16.3.2,5201,132187,98501,38,97152,65728,6,6,4,1460,475,1,992,41,123692,120796,65700,0,97016,0,0,0
i,0x00000000,1682074232.045991,172.16.1.2,64394,172.16.3.2,5201,132187,98501,38,94272,65728,6,6,4,1460,480,1,992,41,123692,117900,65700,0,94120,0,0,0
i,0x00000000,1682074232.055995,172.16.1.2,64394,172.16.3.2,5201,132187,98501,38,91392,65728,6,6,4,1460,484,1,992,41,123692,123692,65700,0,91224,0,0,0
o,0x00000000,1682074232.056032,172.16.1.2,64394,172.16.3.2,5201,132187,98501,38,97152,65728,6,6,4,1460,492,1,992,41,123692,120796,65700,0,88328,0,0,0
o,0x00000000,1682074232.056168,172.16.1.2,64394,172.16.3.2,5201,132187,98501,38,97152,65728,6,6,4,1460,492,1,992,41,123692,120796,65700,0,89776,0,0,0
o,0x00000000,1682074232.056279,172.16.1.2,64394,172.16.3.2,5201,132187,98501,38,97152,65728,6,6,4,1460,492,1,992,41,123692,120796,65700,0,91224,0,0,0
o,0x00000000,1682074232.056408,172.16.1.2,64394,172.16.3.2,5201,132187,98501,38,97152,65728,6,6,4,1460,492,1,992,41,123692,120796,65700,0,92672,0,0,0
o,0x00000000,1682074232.056520,172.16.1.2,64394,172.16.3.2,5201,132187,98501,38,97152,65728,6,6,4,1460,492,1,992,41,123692,120796,65700,0,94120,0,0,0
o,0x00000000,1682074232.056639,172.16.1.2,64394,172.16.3.2,5201,132187,98501,38,97152,65728,6,6,4,1460,492,1,992,41,123692,120796,65700,0,95568,0,0,0
i,0x00000000,1682074232.056758,172.16.1.2,64394,172.16.3.2,5201,132187,98501,38,97152,65728,6,6,4,1460,492,1,992,41,123692,120796,65700,0,97016,0,0,0
i,0x00000000,1682074232.056777,172.16.1.2,64394,172.16.3.2,5201,132187,98501,38,94272,65728,6,6,4,1460,499,1,992,42,123692,117900,65700,0,94120,0,0,0
o,0x00000000,1682074232.056818,172.16.1.2,64394,172.16.3.2,5201,132187,98501,38,95680,65728,6,6,4,1460,505,1,992,42,123692,115004,65700,0,91224,0,0,0
o,0x00000000,1682074232.056934,172.16.1.2,64394,172.16.3.2,5201,132187,98501,38,95680,65728,6,6,4,1460,505,1,992,42,123692,115004,65700,0,92672,0,0,0
o,0x00000000,1682074232.057049,172.16.1.2,64394,172.16.3.2,5201,132187,98501,38,95680,65728,6,6,4,1460,505,1,992,42,123692,115004,65700,0,94120,0,0,0
i,0x00000000,1682074232.057162,172.16.1.2,64394,172.16.3.2,5201,132187,98501,38,95680,65728,6,6,4,1460,505,1,992,42,123692,115004,65700,0,95568,0,0,0
i,0x00000000,1682074232.057466,172.16.1.2,64394,172.16.3.2,5201,132187,98501,38,92800,65728,6,6,4,1460,510,1,992,42,123692,112108,65700,0,92672,0,0,0
o,0x00000000,1682074232.057497,172.16.1.2,64394,172.16.3.2,5201,132187,98501,38,95680,65728,6,6,4,1460,515,1,992,42,123692,109212,65700,0,89776,0,0,0
o,0x00000000,1682074232.057663,172.16.1.2,64394,172.16.3.2,5201,132187,98501,38,95680,65728,6,6,4,1460,515,1,992,42,123692,109212,65700,0,91224,0,0,0
o,0x00000000,1682074232.057770,172.16.1.2,64394,172.16.3.2,5201,132187,98501,38,95680,65728,6,6,4,1460,515,1,992,42,123692,109212,65700,0,92672,0,0,0
o,0x00000000,1682074232.057892,172.16.1.2,64394,172.16.3.2,5201,132187,98501,38,95680,65728,6,6,4,1460,515,1,992,42,123692,109212,65700,0,94120,0,0,0
i,0x00000000,1682074232.061252,172.16.1.2,64394,172.16.3.2,5201,132187,98501,38,95680,65728,6,6,4,1460,515,1,992,42,123692,123692,65700,0,95568,0,0,0
o,0x00000000,1682074232.061292,172.16.1.2,64394,172.16.3.2,5201,132187,98501,38,95680,65728,6,6,4,1460,515,1,992,40,123692,120796,65700,0,92672,0,0,0
o,0x00000000,1682074232.061431,172.16.1.2,64394,172.16.3.2,5201,132187,98501,38,95680,65728,6,6,4,1460,515,1,992,40,123692,120796,65700,0,94120,0,0,0
i,0x00000000,1682074232.061551,172.16.1.2,64394,172.16.3.2,5201,132187,98501,38,95680,65728,6,6,4,1460,515,1,992,40,123692,120796,65700,0,95568,0,0,0
o,0x00000000,1682074232.061577,172.16.1.2,64394,172.16.3.2,5201,132187,98501,38,97152,65728,6,6,4,1460,515,1,992,39,123692,117900,65700,0,92672,0,0,0
o,0x00000000,1682074232.061695,172.16.1.2,64394,172.16.3.2,5201,132187,98501,38,97152,65728,6,6,4,1460,515,1,992,39,123692,117900,65700,0,94120,0,0,0
o,0x00000000,1682074232.061811,172.16.1.2,64394,172.16.3.2,5201,132187,98501,38,97152,65728,6,6,4,1460,515,1,992,39,123692,117900,65700,0,95568,0,0,0
i,0x00000000,1682074232.077334,172.16.1.2,64394,172.16.3.2,5201,132187,98501,38,97152,65728,6,6,4,1460,515,1,992,39,123692,123692,65700,0,97016,0,0,0
o,0x00000000,1682074232.077494,172.16.1.2,64394,172.16.3.2,5201,132187,98501,38,97152,65728,6,6,4,1460,523,1,992,41,123692,120796,65700,0,94120,0,0,0
o,0x00000000,1682074232.077624,172.16.1.2,64394,172.16.3.2,5201,132187,98501,38,97152,65728,6,6,4,1460,523,1,992,41,123692,120796,65700,0,95568,0,0,0
i,0x00000000,1682074232.080919,172.16.1.2,64394,172.16.3.2,5201,132187,98501,38,97152,65728,6,6,4,1460,523,1,992,41,123692,123692,65700,0,97016,0,0,0
o,0x00000000,1682074232.080985,172.16.1.2,64394,172.16.3.2,5201,132187,98501,38,95680,65728,6,6,4,1460,530,1,992,42,123692,120796,65700,0,94120,0,0,0
i,0x00000000,1682074232.081771,172.16.1.2,64394,172.16.3.2,5201,132187,98501,38,95680,65728,6,6,4,1460,530,1,992,42,123692,120796,65700,0,95568,0,0,0
o,0x00000000,1682074232.081839,172.16.1.2,64394,172.16.3.2,5201,132187,98501,38,95680,65728,6,6,4,1460,532,1,992,41,123692,117900,65700,0,92672,0,0,0
o,0x00000000,1682074232.082181,172.16.1.2,64394,172.16.3.2,5201,132187,98501,38,95680,65728,6,6,4,1460,532,1,992,41,123692,117900,65700,0,94120,0,0,0
i,0x00000000,1682074232.082590,172.16.1.2,64394,172.16.3.2,5201,132187,98501,38,95680,65728,6,6,4,1460,532,1,992,41,123692,117900,65700,0,95568,0,0,0
o,0x00000000,1682074232.082664,172.16.1.2,64394,172.16.3.2,5201,132187,98501,38,97152,65728,6,6,4,1460,534,1,992,40,123692,115004,65700,0,92672,0,0,0
o,0x00000000,1682074232.083029,172.16.1.2,64394,172.16.3.2,5201,132187,98501,38,97152,65728,6,6,4,1460,534,1,992,40,123692,115004,65700,0,94120,0,0,0
o,0x00000000,1682074232.083437,172.16.1.2,64394,172.16.3.2,5201,132187,98501,38,97152,65728,6,6,4,1460,534,1,992,40,123692,115004,65700,0,95568,0,0,0
i,0x00000000,1682074232.083773,172.16.1.2,64394,172.16.3.2,5201,132187,98501,38,97152,65728,6,6,4,1460,534,1,992,40,123692,115004,65700,0,97016,0,0,0
o,0x00000000,1682074232.083849,172.16.1.2,64394,172.16.3.2,5201,132187,98501,38,95680,65728,6,6,4,1460,536,1,992,40,123692,112108,65700,0,94120,0,0,0
i,0x00000000,1682074232.084435,172.16.1.2,64394,172.16.3.2,5201,132187,98501,38,95680,65728,6,6,4,1460,536,1,992,40,123692,112108,65700,0,95568,0,0,0
o,0x00000000,1682074232.084498,172.16.1.2,64394,172.16.3.2,5201,132187,98501,38,95680,65728,6,6,4,1460,533,1,992,40,123692,109212,65700,0,92672,0,0,0
o,0x00000000,1682074232.084803,172.16.1.2,64394,172.16.3.2,5201,132187,98501,38,95680,65728,6,6,4,1460,533,1,992,40,123692,109212,65700,0,94120,0,0,0
i,0x00000000,1682074232.085144,172.16.1.2,64394,172.16.3.2,5201,132187,98501,38,95680,65728,6,6,4,1460,533,1,992,40,123692,109212,65700,0,95568,0,0,0
o,0x00000000,1682074232.085199,172.16.1.2,64394,172.16.3.2,5201,132187,98501,38,95680,65728,6,6,4,1460,531,1,992,40,123692,106316,65700,0,92672,0,0,0
o,0x00000000,1682074232.085493,172.16.1.2,64394,172.16.3.2,5201,132187,98501,38,95680,65728,6,6,4,1460,531,1,992,40,123692,106316,65700,0,94120,0,0,0
i,0x00000000,1682074232.085768,172.16.1.2,64394,172.16.3.2,5201,132187,98501,38,95680,65728,6,6,4,1460,531,1,992,40,123692,106316,65700,0,95568,0,0,0
o,0x00000000,1682074232.085819,172.16.1.2,64394,172.16.3.2,5201,132187,98501,38,95680,65728,6,6,4,1460,529,1,992,39,123692,103420,65700,0,92672,0,0,0
o,0x00000000,1682074232.086412,172.16.1.2,64394,172.16.3.2,5201,132187,98501,38,95680,65728,6,6,4,1460,529,1,992,39,123692,103420,65700,0,94120,0,0,0
i,0x00000000,1682074232.090899,172.16.1.2,64394,172.16.3.2,5201,132187,98501,38,95680,65728,6,6,4,1460,529,1,992,39,123692,123692,65700,0,95568,0,0,0
o,0x00000000,1682074232.090935,172.16.1.2,64394,172.16.3.2,5201,132187,98501,38,97152,65728,6,6,4,1460,527,1,992,39,123692,120796,65700,0,92672,0,0,0
o,0x00000000,1682074232.091042,172.16.1.2,64394,172.16.3.2,5201,132187,98501,38,97152,65728,6,6,4,1460,527,1,992,39,123692,120796,65700,0,94120,0,0,0
o,0x00000000,1682074232.091293,172.16.1.2,64394,172.16.3.2,5201,132187,98501,38,97152,65728,6,6,4,1460,527,1,992,39,123692,120796,65700,0,95568,0,0,0
i,0x00000000,1682074232.091403,172.16.1.2,64394,172.16.3.2,5201,132187,98501,38,97152,65728,6,6,4,1460,527,1,992,39,123692,120796,65700,0,97016,0,0,0
o,0x00000000,1682074232.091427,172.16.1.2,64394,172.16.3.2,5201,132187,98501,38,97152,65728,6,6,4,1460,526,1,992,38,123692,117900,65700,0,94120,0,0,0
o,0x00000000,1682074232.091569,172.16.1.2,64394,172.16.3.2,5201,132187,98501,38,97152,65728,6,6,4,1460,526,1,992,38,123692,117900,65700,0,95568,0,0,0
i,0x00000000,1682074232.091758,172.16.1.2,64394,172.16.3.2,5201,132187,98501,38,97152,65728,6,6,4,1460,526,1,992,38,123692,117900,65700,0,97016,0,0,0
o,0x00000000,1682074232.091796,172.16.1.2,64394,172.16.3.2,5201,132187,98501,38,95680,65728,6,6,4,1460,525,1,992,38,123692,115004,65700,0,94120,0,0,0
i,0x00000000,1682074232.111395,172.16.1.2,64394,172.16.3.2,5201,132187,98501,38,95680,65728,6,6,4,1460,525,1,992,38,123692,123692,65700,0,95568,0,0,0
o,0x00000000,1682074232.111428,172.16.1.2,64394,172.16.3.2,5201,132187,98501,38,95680,65728,6,6,4,1460,532,1,992,40,123692,120796,65700,0,92672,0,0,0
o,0x00000000,1682074232.111533,172.16.1.2,64394,172.16.3.2,5201,132187,98501,38,95680,65728,6,6,4,1460,532,1,992,40,123692,120796,65700,0,94120,0,0,0
i,0x00000000,1682074232.120919,172.16.1.2,64394,172.16.3.2,5201,132187,98501,38,95680,65728,6,6,4,1460,532,1,992,40,123692,123692,65700,0,95568,0,0,0
o,0x00000000,1682074232.120966,172.16.1.2,64394,172.16.3.2,5201,132187,98501,38,97152,65728,6,6,4,1460,538,1,992,41,123692,120796,65700,0,92672,0,0,0
o,0x00000000,1682074232.121283,172.16.1.2,64394,172.16.3.2,5201,132187,98501,38,97152,65728,6,6,4,1460,538,1,992,41,123692,120796,65700,0,94120,0,0,0
o,0x00000000,1682074232.121493,172.16.1.2,64394,172.16.3.2,5201,132187,98501,38,97152,65728,6,6,4,1460,538,1,992,41,123692,120796,65700,0,95568,0,0,0
i,0x00000000,1682074232.121665,172.16.1.2,64394,172.16.3.2,5201,132187,98501,38,97152,65728,6,6,4,1460,538,1,992,41,123692,120796,65700,0,97016,0,0,0
o,0x00000000,1682074232.121696,172.16.1.2,64394,172.16.3.2,5201,132187,98501,38,97152,65728,6,6,4,1460,523,1,992,43,123692,117900,65700,0,94120,0,0,0
o,0x00000000,1682074232.121850,172.16.1.2,64394,172.16.3.2,5201,132187,98501,38,97152,65728,6,6,4,1460,523,1,992,43,123692,117900,65700,0,95568,0,0,0
i,0x00000000,1682074232.138225,172.16.1.2,64394,172.16.3.2,5201,132187,98501,38,97152,65728,6,6,4,1460,523,1,992,43,123692,123692,65700,0,97016,0,0,0
o,0x00000000,1682074232.138271,172.16.1.2,64394,172.16.3.2,5201,132187,98501,38,144960,65728,6,6,4,1460,518,1,992,42,131884,120796,65700,0,94120,0,0,0
o,0x00000000,1682074232.138393,172.16.1.2,64394,172.16.3.2,5201,132187,98501,38,144960,65728,6,6,4,1460,518,1,992,42,140076,120796,65700,0,95568,0,0,0
o,0x00000000,1682074232.138500,172.16.1.2,64394,172.16.3.2,5201,132187,98501,38,144960,65728,6,6,4,1460,518,1,992,42,140076,120796,65700,0,97016,0,0,0
i,0x00000000,1682074232.138588,172.16.1.2,64394,172.16.3.2,5201,132187,98501,38,144960,65728,6,6,4,1460,518,1,992,42,140076,120796,65700,0,98464,0,0,0
o,0x00000000,1682074232.138607,172.16.1.2,64394,172.16.3.2,5201,132187,101397,38,142080,65728,6,6,4,1460,514,1,992,42,140076,117900,65700,0,95568,0,0,0
o,0x00000000,1682074232.138719,172.16.1.2,64394,172.16.3.2,5201,132187,101397,38,142080,65728,6,6,4,1460,514,1,992,42,140076,117900,65700,0,97016,0,0,0
o,0x00000000,1682074232.138823,172.16.1.2,64394,172.16.3.2,5201,132187,101397,38,142080,65728,6,6,4,1460,514,1,992,42,140076,117900,65700,0,98464,0,0,0
o,0x00000000,1682074232.138914,172.16.1.2,64394,172.16.3.2,5201,132187,101397,38,142080,65728,6,6,4,1460,514,1,992,42,140076,117900,65700,0,99912,0,0,0
i,0x00000000,1682074232.139001,172.16.1.2,64394,172.16.3.2,5201,132187,101397,38,142080,65728,6,6,4,1460,514,1,992,42,140076,117900,65700,0,101360,0,0,0
o,0x00000000,1682074232.139030,172.16.1.2,64394,172.16.3.2,5201,132187,104293,38,139200,65728,6,6,4,1460,510,1,992,41,140076,115004,65700,0,98464,0,0,0
o,0x00000000,1682074232.139127,172.16.1.2,64394,172.16.3.2,5201,132187,104293,38,139200,65728,6,6,4,1460,510,1,992,41,140076,115004,65700,0,99912,0,0,0
o,0x00000000,1682074232.139362,172.16.1.2,64394,172.16.3.2,5201,132187,104293,38,139200,65728,6,6,4,1460,510,1,992,41,140076,115004,65700,0,101360,0,0,0
o,0x00000000,1682074232.139459,172.16.1.2,64394,172.16.3.2,5201,132187,104293,38,139200,65728,6,6,4,1460,510,1,992,41,140076,115004,65700,0,102808,0,0,0
i,0x00000000,1682074232.159264,172.16.1.2,64394,172.16.3.2,5201,132187,104293,38,139200,65728,6,6,4,1460,510,1,992,41,181036,181036,65700,0,104256,0,0,0
o,0x00000000,1682074232.159312,172.16.1.2,64394,172.16.3.2,5201,132187,107189,38,144960,65728,6,6,4,1460,515,1,992,41,189228,178140,65700,0,101360,0,0,0
o,0x00000000,1682074232.159450,172.16.1.2,64394,172.16.3.2,5201,132187,107189,38,144960,65728,6,6,4,1460,515,1,992,41,189228,178140,65700,0,102808,0,0,0
o,0x00000000,1682074232.159774,172.16.1.2,64394,172.16.3.2,5201,132187,107189,38,144960,65728,6,6,4,1460,515,1,992,41,189228,178140,65700,0,104256,0,0,0
o,0x00000000,1682074232.160062,172.16.1.2,64394,172.16.3.2,5201,132187,107189,38,144960,65728,6,6,4,1460,515,1,992,41,189228,178140,65700,0,105704,0,0,0
i,0x00000000,1682074232.160354,172.16.1.2,64394,172.16.3.2,5201,132187,107189,38,144960,65728,6,6,4,1460,515,1,992,41,189228,178140,65700,0,107152,0,0,0
o,0x00000000,1682074232.160391,172.16.1.2,64394,172.16.3.2,5201,132187,110085,38,146432,65728,6,6,4,1460,519,1,992,41,189228,175244,65700,0,104256,0,0,0
o,0x00000000,1682074232.160591,172.16.1.2,64394,172.16.3.2,5201,132187,110085,38,146432,65728,6,6,4,1460,519,1,992,41,189228,175244,65700,0,105704,0,0,0
o,0x00000000,1682074232.160832,172.16.1.2,64394,172.16.3.2,5201,132187,110085,38,146432,65728,6,6,4,1460,519,1,992,41,189228,175244,65700,0,107152,0,0,0
o,0x00000000,1682074232.161425,172.16.1.2,64394,172.16.3.2,5201,132187,110085,38,146432,65728,6,6,4,1460,519,1,992,41,189228,175244,65700,0,108600,0,0,0
i,0x00000000,1682074232.170825,172.16.1.2,64394,172.16.3.2,5201,132187,110085,38,146432,65728,6,6,4,1460,519,1,992,41,189228,189228,65700,0,110048,0,0,0
o,0x00000000,1682074232.170862,172.16.1.2,64394,172.16.3.2,5201,132187,112981,38,146432,65728,6,6,4,1460,523,1,992,41,189228,186332,65700,0,107152,0,0,0
o,0x00000000,1682074232.170986,172.16.1.2,64394,172.16.3.2,5201,132187,112981,38,146432,65728,6,6,4,1460,523,1,992,41,189228,186332,65700,0,108600,0,0,0
o,0x00000000,1682074232.171280,172.16.1.2,64394,172.16.3.2,5201,132187,112981,38,146432,65728,6,6,4,1460,523,1,992,41,189228,186332,65700,0,110048,0,0,0
o,0x00000000,1682074232.171399,172.16.1.2,64394,172.16.3.2,5201,132187,112981,38,146432,65728,6,6,4,1460,523,1,992,41,189228,186332,65700,0,111496,0,0,0
i,0x00000000,1682074232.171546,172.16.1.2,64394,172.16.3.2,5201,132187,112981,38,146432,65728,6,6,4,1460,523,1,992,41,189228,186332,65700,0,112944,0,0,0
o,0x00000000,1682074232.171572,172.16.1.2,64394,172.16.3.2,5201,132187,115877,38,143552,65728,6,6,4,1460,518,1,992,41,189228,183436,65700,0,110048,0,0,0
o,0x00000000,1682074232.171697,172.16.1.2,64394,172.16.3.2,5201,132187,115877,38,143552,65728,6,6,4,1460,518,1,992,41,189228,183436,65700,0,111496,0,0,0
o,0x00000000,1682074232.171813,172.16.1.2,64394,172.16.3.2,5201,132187,115877,38,143552,65728,6,6,4,1460,518,1,992,41,189228,183436,65700,0,112944,0,0,0
o,0x00000000,1682074232.171927,172.16.1.2,64394,172.16.3.2,5201,132187,115877,38,143552,65728,6,6,4,1460,518,1,992,41,189228,183436,65700,0,114392,0,0,0
i,0x00000000,1682074232.172039,172.16.1.2,64394,172.16.3.2,5201,132187,115877,38,143552,65728,6,6,4,1460,518,1,992,41,189228,183436,65700,0,115840,0,0,0
o,0x00000000,1682074232.172060,172.16.1.2,64394,172.16.3.2,5201,132187,118773,38,140672,65728,6,6,4,1460,518,1,992,39,189228,180540,65700,0,112944,0,0,0
o,0x00000000,1682074232.172177,172.16.1.2,64394,172.16.3.2,5201,132187,118773,38,140672,65728,6,6,4,1460,518,1,992,39,189228,180540,65700,0,114392,0,0,0
o,0x00000000,1682074232.172537,172.16.1.2,64394,172.16.3.2,5201,132187,118773,38,140672,65728,6,6,4,1460,518,1,992,39,189228,180540,65700,0,115840,0,0,0
o,0x00000000,1682074232.172548,172.16.1.2,64394,172.16.3.2,5201,132187,118773,38,140672,65728,6,6,4,1460,518,1,992,39,189228,180540,65700,0,117288,0,0,0
i,0x00000000,1682074232.172548,172.16.1.2,64394,172.16.3.2,5201,132187,118773,38,140672,65728,6,6,4,1460,518,1,992,39,189228,180540,65700,0,118736,0,0,0
o,0x00000000,1682074232.172548,172.16.1.2,64394,172.16.3.2,5201,132187,121669,38,137792,65728,6,6,4,1460,518,1,992,39,189228,177644,65700,0,115840,0,0,0
o,0x00000000,1682074232.172548,172.16.1.2,64394,172.16.3.2,5201,132187,121669,38,137792,65728,6,6,4,1460,518,1,992,39,189228,177644,65700,0,117288,0,0,0
o,0x00000000,1682074232.172548,172.16.1.2,64394,172.16.3.2,5201,132187,121669,38,137792,65728,6,6,4,1460,518,1,992,39,189228,177644,65700,0,118736,0,0,0
o,0x00000000,1682074232.172548,172.16.1.2,64394,172.16.3.2,5201,132187,121669,38,137792,65728,6,6,4,1460,518,1,992,39,189228,177644,65700,0,120184,0,0,0
i,0x00000000,1682074232.196621,172.16.1.2,64394,172.16.3.2,5201,132187,121669,38,137792,65728,6,6,4,1460,518,1,992,39,189228,189228,65700,0,121632,0,0,0
o,0x00000000,1682074232.196707,172.16.1.2,64394,172.16.3.2,5201,132187,124565,38,146432,65728,6,6,4,1460,526,1,992,40,189228,186332,65700,0,118736,0,0,0
o,0x00000000,1682074232.197102,172.16.1.2,64394,172.16.3.2,5201,132187,124565,38,146432,65728,6,6,4,1460,526,1,992,40,189228,186332,65700,0,120184,0,0,0
o,0x00000000,1682074232.197548,172.16.1.2,64394,172.16.3.2,5201,132187,124565,38,146432,65728,6,6,4,1460,526,1,992,40,189228,186332,65700,0,121632,0,0,0
o,0x00000000,1682074232.198095,172.16.1.2,64394,172.16.3.2,5201,132187,124565,38,146432,65728,6,6,4,1460,526,1,992,40,189228,186332,65700,0,123080,0,0,0
i,0x00000000,1682074232.198640,172.16.1.2,64394,172.16.3.2,5201,132187,124565,38,146432,65728,6,6,4,1460,526,1,992,40,189228,186332,65700,0,124528,0,0,0
o,0x00000000,1682074232.198735,172.16.1.2,64394,172.16.3.2,5201,132187,127461,38,143552,65728,6,6,4,1460,517,1,992,41,189228,183436,65700,0,121632,0,0,0
o,0x00000000,1682074232.199238,172.16.1.2,64394,172.16.3.2,5201,132187,127461,38,143552,65728,6,6,4,1460,517,1,992,41,189228,183436,65700,0,123080,0,0,0
o,0x00000000,1682074232.199741,172.16.1.2,64394,172.16.3.2,5201,132187,127461,38,143552,65728,6,6,4,1460,517,1,992,41,189228,183436,65700,0,124528,0,0,0
o,0x00000000,1682074232.200245,172.16.1.2,64394,172.16.3.2,5201,132187,127461,38,143552,65728,6,6,4,1460,517,1,992,41,189228,183436,65700,0,125976,0,0,0
i,0x00000000,1682074232.200748,172.16.1.2,64394,172.16.3.2,5201,132187,127461,38,143552,65728,6,6,4,1460,517,1,992,41,189228,183436,65700,0,127424,0,0,0
o,0x00000000,1682074232.200859,172.16.1.2,64394,172.16.3.2,5201,132187,130357,38,140672,65728,6,6,4,1460,505,1,992,43,189228,183436,65700,0,124528,0,0,0
o,0x00000000,1682074232.202027,172.16.1.2,64394,172.16.3.2,5201,132187,130357,38,140672,65728,6,6,4,1460,505,1,992,43,189228,183436,65700,0,125976,0,0,0
o,0x00000000,1682074232.202230,172.16.1.2,64394,172.16.3.2,5201,132187,130357,38,140672,65728,6,6,4,1460,505,1,992,43,189228,183436,65700,0,127424,0,0,0
o,0x00000000,1682074232.202554,172.16.1.2,64394,172.16.3.2,5201,132187,130357,38,140672,65728,6,6,4,1460,505,1,992,43,189228,183436,65700,0,128872,0,0,0
i,0x00000000,1682074232.231601,172.16.1.2,64394,172.16.3.2,5201,132187,130357,38,140672,65728,6,6,4,1460,505,1,992,43,189228,189228,65700,0,130320,0,0,0
o,0x00000000,1682074232.231651,172.16.1.2,64394,172.16.3.2,5201,132187,133253,38,144960,65728,6,6,4,1460,510,1,992,42,189228,186332,65700,0,127424,0,0,0
o,0x00000000,1682074232.231804,172.16.1.2,64394,172.16.3.2,5201,132187,133253,38,144960,65728,6,6,4,1460,510,1,992,42,189228,186332,65700,0,128872,0,0,0
o,0x00000000,1682074232.231909,172.16.1.2,64394,172.16.3.2,5201,132187,133253,38,144960,65728,6,6,4,1460,510,1,992,42,189228,186332,65700,0,130320,0,0,0
o,0x00000000,1682074232.232024,172.16.1.2,64394,172.16.3.2,5201,132187,133253,38,144960,65728,6,6,4,1460,510,1,992,42,189228,186332,65700,0,131768,0,0,0
i,0x00000000,1682074232.232128,172.16.1.2,64394,172.16.3.2,5201,132187,133253,38,144960,65728,6,6,4,1460,510,1,992,42,189228,186332,65700,0,133216,0,0,0
o,0x00000000,1682074232.232156,172.16.1.2,64394,172.16.3.2,5201,132187,133253,38,146432,65728,6,6,4,1460,515,1,992,42,189228,183436,65700,0,130320,0,0,0
o,0x00000000,1682074232.232269,172.16.1.2,64394,172.16.3.2,5201,132187,133253,38,146432,65728,6,6,4,1460,515,1,992,42,189228,183436,65700,0,131768,0,0,0
i,0x00000000,1682074232.232367,172.16.1.2,64394,172.16.3.2,5201,132187,133253,38,146432,65728,6,6,4,1460,515,1,992,42,189228,183436,65700,0,133216,0,0,0
o,0x00000000,1682074232.232390,172.16.1.2,64394,172.16.3.2,5201,132187,133253,38,144960,65728,6,6,4,1460,519,1,992,42,189228,180540,65700,0,130320,0,0,0
o,0x00000000,1682074232.232492,172.16.1.2,64394,172.16.3.2,5201,132187,133253,38,144960,65728,6,6,4,1460,519,1,992,42,189228,180540,65700,0,131768,0,0,0
i,0x00000000,1682074232.232595,172.16.1.2,64394,172.16.3.2,5201,132187,133253,38,144960,65728,6,6,4,1460,519,1,992,42,189228,180540,65700,0,133216,0,0,0
o,0x00000000,1682074232.232621,172.16.1.2,64394,172.16.3.2,5201,132187,133253,38,142080,65728,6,6,4,1460,523,1,992,41,189228,177644,65700,0,130320,0,0,0
