enable_time_secs=1682074316	enable_time_usecs=405764	siftrver=1.2.4	hz=100	tcp_rtt_scale=32	sysname=FreeBSD	sysver=1400084	ipmode=4
o,0x00000000,1682074316.405965,10.0.2.15,22,10.0.2.2,55704,1073725440,17202,1026,65535,65700,0,0,4,1460,1,0,4,24,33580,68,65700,0,0,0,0,0
i,0x00000000,1682074316.406531,10.0.2.15,22,10.0.2.2,55704,1073725440,17202,1026,65535,65700,0,0,4,1460,1,0,4,24,33580,68,65700,0,68,0,0,0
o,0x00000000,1682074316.406617,10.0.2.15,22,10.0.2.2,55704,1073725440,17270,1026,65535,65700,0,0,4,1460,1,0,4,24,33580,36,65700,0,0,0,0,0
i,0x00000000,1682074316.407913,10.0.2.15,22,10.0.2.2,55704,1073725440,17270,1026,65535,65700,0,0,4,1460,1,0,4,24,33580,36,65700,0,36,0,0,0
o,0x00000000,1682074316.407951,10.0.2.15,22,10.0.2.2,55704,1073725440,17306,1026,65535,65700,0,0,4,1460,1,0,4,24,33580,140,65700,0,0,0,0,0
i,0x00000000,1682074316.410258,10.0.2.15,22,10.0.2.2,55704,1073725440,17306,1026,65535,65700,0,0,4,1460,1,0,4,24,33580,140,65700,0,140,0,0,0
i,0x00000000,1682074316.411506,10.0.2.15,22,10.0.2.2,55704,1073725440,17446,1026,65535,65700,0,0,4,1460,1,0,4,24,33580,0,65700,0,0,0,0,0
i,0x00000000,1682074316.411551,10.0.2.15,22,10.0.2.2,55704,1073725440,17446,1026,65535,65700,0,0,4,1460,1,0,4,24,33580,0,65700,36,0,0,0,0
o,0x00000000,1682074316.411599,10.0.2.15,22,10.0.2.2,55704,1073725440,17446,1026,65535,65700,0,0,4,1460,1,0,5,24,33580,0,65700,96,0,0,0,0
i,0x00000000,1682074316.412048,10.0.2.15,22,10.0.2.2,55704,1073725440,17446,1026,65535,65700,0,0,4,1460,1,0,4,24,33580,0,65700,96,0,0,0,0
o,0x00000000,1682074316.412075,10.0.2.15,22,10.0.2.2,55704,1073725440,17446,1026,65535,65604,0,0,5,1460,1,0,7,24,33580,0,65700,96,0,0,0,0
o,0x00000000,1682074316.412954,10.0.2.15,22,10.0.2.2,55704,1073725440,17446,1026,65535,65604,0,0,8,1460,1,0,4,24,33580,0,65700,0,0,0,0,0
i,0x00000000,1682074316.413665,10.0.2.15,22,10.0.2.2,55704,1073725440,17446,1026,65535,65604,0,0,8,1460,1,0,67108884,24,33580,0,65700,0,1,0,0,0
i,0x00000000,1682074317.852590,10.0.2.15,22,10.0.2.2,55710,1073725440,14600,0,65535,65700,0,0,4,1460,1,0,0,28,33580,0,65700,0,0,0,0,0
o,0x00000000,1682074317.871662,10.0.2.15,22,10.0.2.2,55710,1073725440,14600,1026,65535,65700,0,0,4,1460,1,0,0,28,33580,38,65700,41,0,0,0,0
i,0x00000000,1682074317.872277,10.0.2.15,22,10.0.2.2,55710,1073725440,14600,1026,65535,65700,0,0,4,1460,1,0,0,28,33580,38,65700,0,38,0,0,0
o,0x00000000,1682074317.873102,10.0.2.15,22,10.0.2.2,55710,1073725440,14638,1026,65535,65700,0,0,4,1460,1,0,0,24,33580,1056,65700,0,0,0,0,0
i,0x00000000,1682074317.874191,10.0.2.15,22,10.0.2.2,55710,1073725440,14638,1026,65535,65700,0,0,4,1460,1,0,0,24,33580,1056,65700,0,1056,0,0,0
i,0x00000000,1682074317.874244,10.0.2.15,22,10.0.2.2,55710,1073725440,15694,1026,65535,65700,0,0,4,1460,1,0,0,24,33580,0,65700,0,0,0,0,0
i,0x00000000,1682074317.874326,10.0.2.15,22,10.0.2.2,55710,1073725440,15694,1026,65535,65700,0,0,4,1460,1,0,0,24,33580,0,65700,1460,0,0,0,0
o,0x00000000,1682074317.874347,10.0.2.15,22,10.0.2.2,55710,1073725440,15694,1026,65535,65700,0,0,4,1460,1,0,1,24,33580,0,65700,1504,0,0,0,0
i,0x00000000,1682074317.876165,10.0.2.15,22,10.0.2.2,55710,1073725440,15694,1026,65535,65700,0,0,4,1460,1,0,0,24,33580,0,65700,0,0,0,0,0
o,0x00000000,1682074317.879687,10.0.2.15,22,10.0.2.2,55710,1073725440,15694,1026,65535,65700,0,0,4,1460,1,0,0,24,33580,484,65700,0,0,0,0,0
i,0x00000000,1682074317.881022,10.0.2.15,22,10.0.2.2,55710,1073725440,15694,1026,65535,65700,0,0,4,1460,1,0,0,24,33580,484,65700,0,484,0,0,0
i,0x00000000,1682074317.886314,10.0.2.15,22,10.0.2.2,55710,1073725440,16178,1026,65535,65700,0,0,4,1460,1,0,0,23,33580,0,65700,0,0,0,0,0
i,0x00000000,1682074317.892627,10.0.2.15,22,10.0.2.2,55710,1073725440,16178,1026,65535,65700,0,0,4,1460,1,0,0,23,33580,0,65700,0,0,0,0,0
o,0x00000000,1682074317.892673,10.0.2.15,22,10.0.2.2,55710,1073725440,16178,1026,65535,65700,0,0,4,1460,1,0,1,23,33580,0,65700,44,0,0,0,0
o,0x00000000,1682074317.893016,10.0.2.15,22,10.0.2.2,55710,1073725440,16178,1026,65535,65700,0,0,4,1460,1,0,0,23,33580,44,65700,0,0,0,0,0
i,0x00000000,1682074317.894424,10.0.2.15,22,10.0.2.2,55710,1073725440,16178,1026,65535,65700,0,0,4,1460,1,0,0,23,33580,44,65700,0,44,0,0,0
i,0x00000000,1682074317.894542,10.0.2.15,22,10.0.2.2,55710,1073725440,16222,1026,65535,65700,0,0,4,1460,1,0,0,23,33580,0,65700,0,0,0,0,0
o,0x00000000,1682074317.900379,10.0.2.15,22,10.0.2.2,55710,1073725440,16222,1026,65535,65700,0,0,4,1460,1,0,0,23,33580,68,65700,0,0,0,0,0
i,0x00000000,1682074317.901420,10.0.2.15,22,10.0.2.2,55710,1073725440,16222,1026,65535,65700,0,0,4,1460,1,0,0,23,33580,68,65700,0,68,0,0,0
i,0x00000000,1682074317.905064,10.0.2.15,22,10.0.2.2,55710,1073725440,16290,1026,65535,65700,0,0,4,1460,1,0,0,23,33580,0,65700,0,0,0,0,0
o,0x00000000,1682074317.911869,10.0.2.15,22,10.0.2.2,55710,1073725440,16290,1026,65535,65700,0,0,4,1460,1,0,0,23,33580,28,65700,0,0,0,0,0
i,0x00000000,1682074317.912870,10.0.2.15,22,10.0.2.2,55710,1073725440,16290,1026,65535,65700,0,0,4,1460,1,0,0,23,33580,28,65700,0,28,0,0,0
i,0x00000000,1682074317.912917,10.0.2.15,22,10.0.2.2,55710,1073725440,16318,1026,65535,65700,0,0,4,1460,1,0,0,23,33580,0,65700,0,0,0,0,0
o,0x00000000,1682074317.916355,10.0.2.15,22,10.0.2.2,55710,1073725440,16318,1026,65535,65700,0,0,4,1460,1,0,0,23,33580,768,65700,112,0,0,0,0
i,0x00000000,1682074317.917619,10.0.2.15,22,10.0.2.2,55710,1073725440,16318,1026,65535,65700,0,0,4,1460,1,0,0,23,33580,768,65700,112,768,0,0,0
o,0x00000000,1682074317.917951,10.0.2.15,22,10.0.2.2,55710,1073725440,17086,1026,65535,65700,0,0,4,1460,1,0,0,23,33580,44,65700,0,0,0,0,0
i,0x00000000,1682074317.918920,10.0.2.15,22,10.0.2.2,55710,1073725440,17086,1026,65535,65700,0,0,4,1460,1,0,0,23,33580,44,65700,0,44,0,0,0
i,0x00000000,1682074317.920787,10.0.2.15,22,10.0.2.2,55710,1073725440,17130,1026,65535,65700,0,0,4,1460,1,0,0,23,33580,0,65700,0,0,0,0,0
o,0x00000000,1682074317.923420,10.0.2.15,22,10.0.2.2,55710,1073725440,17130,1026,65535,65700,0,0,4,1460,1,0,4,23,33580,72,65700,0,0,0,0,0
i,0x00000000,1682074317.925309,10.0.2.15,22,10.0.2.2,55710,1073725440,17130,1026,65535,65700,0,0,4,1460,1,0,4,23,33580,72,65700,0,72,0,0,0
o,0x00000000,1682074317.948475,172.16.1.2,11123,172.16.3.2,5201,1073725440,1073725440,2,0,0,0,0,2,536,0,1,672,100,32768,0,65536,0,0,0,0,0
i,0x00000000,1682074318.083260,172.16.1.2,11123,172.16.3.2,5201,1073725440,1073725440,2,0,0,0,0,2,536,0,1,672,100,32768,0,65536,0,1,0,0,0
o,0x00000000,1682074318.083610,172.16.1.2,11123,172.16.3.2,5201,67593,14480,34,65535,65700,6,6,4,1460,532,1,993,45,33580,0,65700,0,0,0,0,0
o,0x00000000,1682074318.084618,172.16.1.2,11123,172.16.3.2,5201,67593,14480,34,65535,65700,6,6,4,1460,532,1,996,45,33580,37,65700,0,0,0,0,0
i,0x00000000,1682074318.207275,172.16.1.2,11123,172.16.3.2,5201,67593,14480,34,65535,65700,6,6,4,1460,532,1,996,45,33580,37,65700,0,37,0,0,0
o,0x00000000,1682074318.207468,172.16.1.2,11123,172.16.3.2,5201,67593,14517,1058,65728,65728,6,6,4,1460,514,1,996,47,33580,4,65700,0,0,0,0,0
o,0x00000000,1682074318.207811,172.16.1.2,11123,172.16.3.2,5201,67593,14517,1058,65728,65728,6,6,4,1460,514,1,996,47,33580,128,65700,0,4,0,0,0
i,0x00000000,1682074318.330707,172.16.1.2,11123,172.16.3.2,5201,67593,14517,1058,65728,65728,6,6,4,1460,514,1,996,47,33580,128,65700,0,128,0,0,0
i,0x00000000,1682074318.330802,172.16.1.2,11123,172.16.3.2,5201,67593,14645,1058,65600,65728,6,6,4,1460,498,1,996,47,33580,0,65700,0,0,0,0,0
o,0x00000000,1682074318.331660,172.16.1.2,49221,172.16.3.2,5201,1073725440,1073725440,2,0,0,0,0,2,536,0,1,672,100,32768,0,65536,0,0,0,0,0
o,0x00000000,1682074318.408141,172.16.1.2,11123,172.16.3.2,5201,67593,14645,1058,65728,65728,6,6,4,1460,498,1,997,47,33580,0,65700,0,0,0,0,0
i,0x00000000,1682074318.442779,172.16.1.2,49221,172.16.3.2,5201,1073725440,1073725440,2,0,0,0,0,2,536,0,1,672,100,32768,0,65536,0,1,0,0,0
o,0x00000000,1682074318.442979,172.16.1.2,49221,172.16.3.2,5201,67593,14480,34,65535,65700,6,6,4,1460,520,1,993,47,33580,0,65700,0,0,0,0,0
o,0x00000000,1682074318.444194,172.16.1.2,49221,172.16.3.2,5201,67593,14480,34,65535,65700,6,6,4,1460,520,1,992,47,33580,37,65700,0,0,0,0,0
i,0x00000000,1682074318.573032,172.16.1.2,11123,172.16.3.2,5201,67593,14645,1058,65728,65728,6,6,4,1460,498,1,996,47,33580,0,65700,0,0,0,0,0
i,0x00000000,1682074318.573057,172.16.1.2,11123,172.16.3.2,5201,67593,14645,1058,65728,65728,6,6,4,1460,498,1,996,47,33580,0,65700,1,0,0,0,0
o,0x00000000,1682074318.573094,172.16.1.2,11123,172.16.3.2,5201,67593,14645,1058,65728,65728,6,6,4,1460,498,1,997,47,33580,0,65700,2,0,0,0,0
o,0x00000000,1682074318.573880,172.16.1.2,49221,172.16.3.2,5201,67593,14480,38,65535,65700,6,6,4,1460,520,1,992,47,33580,33580,65700,0,37,0,0,0
o,0x00000000,1682074318.575410,172.16.1.2,49221,172.16.3.2,5201,67593,14480,38,65535,65700,6,6,4,1460,520,1,992,47,33580,33580,65700,0,1485,0,0,0
o,0x00000000,1682074318.576544,172.16.1.2,49221,172.16.3.2,5201,67593,14480,38,65535,65700,6,6,4,1460,520,1,992,47,33580,33580,65700,0,2933,0,0,0
o,0x00000000,1682074318.577699,172.16.1.2,49221,172.16.3.2,5201,67593,14480,38,65535,65700,6,6,4,1460,520,1,992,47,33580,33580,65700,0,4381,0,0,0
o,0x00000000,1682074318.578037,172.16.1.2,49221,172.16.3.2,5201,67593,14480,38,65535,65700,6,6,4,1460,520,1,992,47,33580,33580,65700,0,5829,0,0,0
o,0x00000000,1682074318.578858,172.16.1.2,49221,172.16.3.2,5201,67593,14480,38,65535,65700,6,6,4,1460,520,1,992,47,33580,33580,65700,0,7277,0,0,0
o,0x00000000,1682074318.579552,172.16.1.2,49221,172.16.3.2,5201,67593,14480,38,65535,65700,6,6,4,1460,520,1,992,47,33580,33580,65700,0,8725,0,0,0
o,0x00000000,1682074318.580020,172.16.1.2,49221,172.16.3.2,5201,67593,14480,38,65535,65700,6,6,4,1460,520,1,992,47,33580,33580,65700,0,10173,0,0,0
o,0x00000000,1682074318.580395,172.16.1.2,49221,172.16.3.2,5201,67593,14480,38,65535,65700,6,6,4,1460,520,1,992,47,33580,33580,65700,0,11621,0,0,0
i,0x00000000,1682074318.601027,172.16.1.2,49221,172.16.3.2,5201,67593,14480,38,65535,65700,6,6,4,1460,520,1,992,47,33580,33580,65700,0,13069,0,0,0
o,0x00000000,1682074318.601281,172.16.1.2,49221,172.16.3.2,5201,67593,14517,38,65728,65728,6,6,4,1460,515,1,992,46,33580,33543,65700,0,13032,0,0,0
i,0x00000000,1682074318.831918,172.16.1.2,49221,172.16.3.2,5201,67593,14517,38,65728,65728,6,6,4,1460,515,1,992,46,33580,33543,65700,0,14480,0,0,0
o,0x00000000,1682074318.832051,172.16.1.2,49221,172.16.3.2,5201,67593,17413,38,64256,65728,6,6,4,1460,555,1,992,54,33580,30647,65700,0,11584,0,0,0
o,0x00000000,1682074318.832357,172.16.1.2,49221,172.16.3.2,5201,67593,17413,38,64256,65728,6,6,4,1460,555,1,992,54,33580,30647,65700,0,13032,0,0,0
o,0x00000000,1682074318.832464,172.16.1.2,49221,172.16.3.2,5201,67593,17413,38,64256,65728,6,6,4,1460,555,1,992,54,41772,30647,65700,0,14480,0,0,0
o,0x00000000,1682074318.832578,172.16.1.2,49221,172.16.3.2,5201,67593,17413,38,64256,65728,6,6,4,1460,555,1,992,54,41772,30647,65700,0,15928,0,0,0
i,0x00000000,1682074318.832692,172.16.1.2,49221,172.16.3.2,5201,67593,17413,38,64256,65728,6,6,4,1460,555,1,992,54,41772,30647,65700,0,17376,0,0,0
o,0x00000000,1682074318.832716,172.16.1.2,49221,172.16.3.2,5201,67593,20309,38,64256,65728,6,6,4,1460,590,1,992,60,41772,27751,65700,0,14480,0,0,0
o,0x00000000,1682074318.832835,172.16.1.2,49221,172.16.3.2,5201,67593,20309,38,64256,65728,6,6,4,1460,590,1,992,60,41772,27751,65700,0,15928,0,0,0
o,0x00000000,1682074318.832947,172.16.1.2,49221,172.16.3.2,5201,67593,20309,38,64256,65728,6,6,4,1460,590,1,992,60,41772,27751,65700,0,17376,0,0,0
o,0x00000000,1682074318.833060,172.16.1.2,49221,172.16.3.2,5201,67593,20309,38,64256,65728,6,6,4,1460,590,1,992,60,41772,27751,65700,0,18824,0,0,0
i,0x00000000,1682074318.861862,172.16.1.2,49221,172.16.3.2,5201,67593,20309,38,64256,65728,6,6,4,1460,590,1,992,60,41772,41772,65700,0,20272,0,0,0
o,0x00000000,1682074318.861903,172.16.1.2,49221,172.16.3.2,5201,67593,23205,38,62848,65728,6,6,4,1460,633,1,992,67,49964,38876,65700,0,17376,0,0,0
o,0x00000000,1682074318.862037,172.16.1.2,49221,172.16.3.2,5201,67593,23205,38,62848,65728,6,6,4,1460,633,1,992,67,49964,38876,65700,0,18824,0,0,0
o,0x00000000,1682074318.862164,172.16.1.2,49221,172.16.3.2,5201,67593,23205,38,62848,65728,6,6,4,1460,633,1,992,67,49964,38876,65700,0,20272,0,0,0
o,0x00000000,1682074318.862296,172.16.1.2,49221,172.16.3.2,5201,67593,23205,38,62848,65728,6,6,4,1460,633,1,992,67,49964,38876,65700,0,21720,0,0,0
i,0x00000000,1682074318.882926,172.16.1.2,49221,172.16.3.2,5201,67593,23205,38,62848,65728,6,6,4,1460,633,1,992,67,49964,49964,65700,0,23168,0,0,0
o,0x00000000,1682074318.882959,172.16.1.2,49221,172.16.3.2,5201,67593,26101,38,64256,65728,6,6,4,1460,678,1,992,72,49964,47068,65700,0,20272,0,0,0
o,0x00000000,1682074318.883074,172.16.1.2,49221,172.16.3.2,5201,67593,26101,38,64256,65728,6,6,4,1460,678,1,992,72,58156,47068,65700,0,21720,0,0,0
o,0x00000000,1682074318.883163,172.16.1.2,49221,172.16.3.2,5201,67593,26101,38,64256,65728,6,6,4,1460,678,1,992,72,58156,47068,65700,0,23168,0,0,0
o,0x00000000,1682074318.883252,172.16.1.2,49221,172.16.3.2,5201,67593,26101,38,64256,65728,6,6,4,1460,678,1,992,72,58156,47068,65700,0,24616,0,0,0
i,0x00000000,1682074318.921535,172.16.1.2,49221,172.16.3.2,5201,67593,26101,38,64256,65728,6,6,4,1460,678,1,992,72,58156,58156,65700,0,26064,0,0,0
o,0x00000000,1682074318.921654,172.16.1.2,49221,172.16.3.2,5201,67593,28997,38,64256,65728,6,6,4,1460,730,1,992,79,58156,55260,65700,0,23168,0,0,0
o,0x00000000,1682074318.922291,172.16.1.2,49221,172.16.3.2,5201,67593,28997,38,64256,65728,6,6,4,1460,730,1,992,79,58156,55260,65700,0,24616,0,0,0
o,0x00000000,1682074318.922900,172.16.1.2,49221,172.16.3.2,5201,67593,28997,38,64256,65728,6,6,4,1460,730,1,992,79,58156,55260,65700,0,26064,0,0,0
o,0x00000000,1682074318.924420,172.16.1.2,49221,172.16.3.2,5201,67593,28997,38,64256,65728,6,6,4,1460,730,1,992,79,66348,55260,65700,0,27512,0,0,0
i,0x00000000,1682074319.101556,172.16.1.2,49221,172.16.3.2,5201,67593,28997,38,64256,65728,6,6,4,1460,730,1,992,79,66348,66348,65700,0,28960,0,0,0
o,0x00000000,1682074319.101649,172.16.1.2,49221,172.16.3.2,5201,67593,31893,38,64256,65728,6,6,4,1460,743,1,992,74,66348,63452,65700,0,26064,0,0,0
o,0x00000000,1682074319.101814,172.16.1.2,49221,172.16.3.2,5201,67593,31893,38,64256,65728,6,6,4,1460,743,1,992,74,66348,63452,65700,0,27512,0,0,0
o,0x00000000,1682074319.101953,172.16.1.2,49221,172.16.3.2,5201,67593,31893,38,64256,65728,6,6,4,1460,743,1,992,74,66348,63452,65700,0,28960,0,0,0
o,0x00000000,1682074319.102086,172.16.1.2,49221,172.16.3.2,5201,67593,31893,38,64256,65728,6,6,4,1460,743,1,992,74,66348,63452,65700,0,30408,0,0,0
i,0x00000000,1682074319.174264,172.16.1.2,49221,172.16.3.2,5201,67593,31893,38,64256,65728,6,6,4,1460,743,1,992,74,74540,74540,65700,0,31856,0,0,0
o,0x00000000,1682074319.174425,172.16.1.2,49221,172.16.3.2,5201,67593,34789,38,62848,65728,6,6,4,1460,787,1,992,78,74540,71644,65700,0,28960,0,0,0
o,0x00000000,1682074319.175121,172.16.1.2,49221,172.16.3.2,5201,67593,34789,38,62848,65728,6,6,4,1460,787,1,992,78,74540,71644,65700,0,30408,0,0,0
o,0x00000000,1682074319.175855,172.16.1.2,49221,172.16.3.2,5201,67593,34789,38,62848,65728,6,6,4,1460,787,1,992,78,74540,71644,65700,0,31856,0,0,0
o,0x00000000,1682074319.176498,172.16.1.2,49221,172.16.3.2,5201,67593,34789,38,62848,65728,6,6,4,1460,787,1,992,78,74540,71644,65700,0,33304,0,0,0
i,0x00000000,1682074319.231794,172.16.1.2,49221,172.16.3.2,5201,67593,34789,38,62848,65728,6,6,4,1460,787,1,992,78,74540,74540,65700,0,34752,0,0,0
o,0x00000000,1682074319.231970,172.16.1.2,49221,172.16.3.2,5201,67593,36237,38,65728,65728,6,6,4,1460,849,1,992,87,74540,73092,65700,0,33304,0,0,0
o,0x00000000,1682074319.232153,172.16.1.2,49221,172.16.3.2,5201,67593,36237,38,65728,65728,6,6,4,1460,849,1,992,87,74540,73092,65700,0,34752,0,0,0
i,0x00000000,1682074319.241356,172.16.1.2,49221,172.16.3.2,5201,67593,36237,38,65728,65728,6,6,4,1460,849,1,992,87,74540,73092,65700,0,36200,0,0,0
o,0x00000000,1682074319.241597,172.16.1.2,49221,172.16.3.2,5201,67593,39133,38,62848,65728,6,6,4,1460,903,1,992,92,82732,70196,65700,0,33304,0,0,0
o,0x00000000,1682074319.241900,172.16.1.2,49221,172.16.3.2,5201,67593,39133,38,62848,65728,6,6,4,1460,903,1,992,92,82732,70196,65700,0,34752,0,0,0
o,0x00000000,1682074319.242223,172.16.1.2,49221,172.16.3.2,5201,67593,39133,38,62848,65728,6,6,4,1460,903,1,992,92,82732,70196,65700,0,36200,0,0,0
o,0x00000000,1682074319.242637,172.16.1.2,49221,172.16.3.2,5201,67593,39133,38,62848,65728,6,6,4,1460,903,1,992,92,82732,70196,65700,0,37648,0,0,0
i,0x00000000,1682074319.271320,172.16.1.2,49221,172.16.3.2,5201,67593,39133,38,62848,65728,6,6,4,1460,903,1,992,92,82732,82732,65700,0,39096,0,0,0
o,0x00000000,1682074319.271450,172.16.1.2,49221,172.16.3.2,5201,67593,42029,38,64256,65728,6,6,4,1460,963,1,992,98,82732,79836,65700,0,36200,0,0,0
o,0x00000000,1682074319.271578,172.16.1.2,49221,172.16.3.2,5201,67593,42029,38,64256,65728,6,6,4,1460,963,1,992,98,82732,79836,65700,0,37648,0,0,0
o,0x00000000,1682074319.271690,172.16.1.2,49221,172.16.3.2,5201,67593,42029,38,64256,65728,6,6,4,1460,963,1,992,98,82732,79836,65700,0,39096,0,0,0
o,0x00000000,1682074319.271805,172.16.1.2,49221,172.16.3.2,5201,67593,42029,38,64256,65728,6,6,4,1460,963,1,992,98,82732,79836,65700,0,40544,0,0,0
i,0x00000000,1682074319.292459,172.16.1.2,49221,172.16.3.2,5201,67593,42029,38,64256,65728,6,6,4,1460,963,1,992,98,82732,82732,65700,0,41992,0,0,0
o,0x00000000,1682074319.292722,172.16.1.2,49221,172.16.3.2,5201,67593,44925,38,64256,65728,6,6,4,1460,1015,1,992,101,82732,79836,65700,0,39096,0,0,0
o,0x00000000,1682074319.293459,172.16.1.2,49221,172.16.3.2,5201,67593,44925,38,64256,65728,6,6,4,1460,1015,1,992,101,82732,79836,65700,0,40544,0,0,0
o,0x00000000,1682074319.294115,172.16.1.2,49221,172.16.3.2,5201,67593,44925,38,64256,65728,6,6,4,1460,1015,1,992,101,82732,79836,65700,0,41992,0,0,0
o,0x00000000,1682074319.294848,172.16.1.2,49221,172.16.3.2,5201,67593,44925,38,64256,65728,6,6,4,1460,1015,1,992,101,82732,79836,65700,0,43440,0,0,0
i,0x00000000,1682074319.320787,172.16.1.2,49221,172.16.3.2,5201,67593,44925,38,64256,65728,6,6,4,1460,1015,1,992,101,82732,82732,65700,0,44888,0,0,0
o,0x00000000,1682074319.320828,172.16.1.2,49221,172.16.3.2,5201,67593,47821,38,64256,65728,6,6,4,1460,1069,1,992,104,82732,79836,65700,0,41992,0,0,0
o,0x00000000,1682074319.320969,172.16.1.2,49221,172.16.3.2,5201,67593,47821,38,64256,65728,6,6,4,1460,1069,1,992,104,82732,79836,65700,0,43440,0,0,0
o,0x00000000,1682074319.321324,172.16.1.2,49221,172.16.3.2,5201,67593,47821,38,64256,65728,6,6,4,1460,1069,1,992,104,82732,79836,65700,0,44888,0,0,0
o,0x00000000,1682074319.321482,172.16.1.2,49221,172.16.3.2,5201,67593,47821,38,64256,65728,6,6,4,1460,1069,1,992,104,82732,79836,65700,0,46336,0,0,0
i,0x00000000,1682074319.342112,172.16.1.2,49221,172.16.3.2,5201,67593,47821,38,64256,65728,6,6,4,1460,1069,1,992,104,82732,82732,65700,0,47784,0,0,0
o,0x00000000,1682074319.342189,172.16.1.2,49221,172.16.3.2,5201,67593,50717,38,64256,65728,6,6,4,1460,1120,1,992,106,82732,79836,65700,0,44888,0,0,0
o,0x00000000,1682074319.342440,172.16.1.2,49221,172.16.3.2,5201,67593,50717,38,64256,65728,6,6,4,1460,1120,1,992,106,82732,79836,65700,0,46336,0,0,0
o,0x00000000,1682074319.342737,172.16.1.2,49221,172.16.3.2,5201,67593,50717,38,64256,65728,6,6,4,1460,1120,1,992,106,82732,79836,65700,0,47784,0,0,0
o,0x00000000,1682074319.342907,172.16.1.2,49221,172.16.3.2,5201,67593,50717,38,64256,65728,6,6,4,1460,1120,1,992,106,82732,79836,65700,0,49232,0,0,0
i,0x00000000,1682074319.391015,172.16.1.2,49221,172.16.3.2,5201,67593,50717,38,64256,65728,6,6,4,1460,1120,1,992,106,82732,82732,65700,0,50680,0,0,0
o,0x00000000,1682074319.391779,172.16.1.2,49221,172.16.3.2,5201,67593,52165,38,65728,65728,6,6,4,1460,1184,1,992,111,82732,81284,65700,0,49232,0,0,0
o,0x00000000,1682074319.392360,172.16.1.2,49221,172.16.3.2,5201,67593,52165,38,65728,65728,6,6,4,1460,1184,1,992,111,82732,81284,65700,0,50680,0,0,0
i,0x00000000,1682074319.454034,172.16.1.2,49221,172.16.3.2,5201,67593,52165,38,65728,65728,6,6,4,1460,1184,1,992,111,82732,81284,65700,0,52128,0,0,0
o,0x00000000,1682074319.454197,172.16.1.2,49221,172.16.3.2,5201,67593,53613,38,65728,65728,6,6,4,1460,1248,1,992,115,82732,79836,65700,0,50680,0,0,0
o,0x00000000,1682074319.454418,172.16.1.2,49221,172.16.3.2,5201,67593,53613,38,65728,65728,6,6,4,1460,1248,1,992,115,82732,79836,65700,0,52128,0,0,0
i,0x00000000,1682074319.454548,172.16.1.2,49221,172.16.3.2,5201,67593,53613,38,65728,65728,6,6,4,1460,1248,1,992,115,82732,79836,65700,0,53576,0,0,0
o,0x00000000,1682074319.454588,172.16.1.2,49221,172.16.3.2,5201,67593,56472,38,65728,65728,6,6,4,1460,1248,1,992,115,82732,79836,65700,0,53576,0,0,0
o,0x00000000,1682074319.454731,172.16.1.2,49221,172.16.3.2,5201,67593,56472,34,65728,65728,6,6,4,1460,1248,1,992,115,82732,79836,65700,0,55024,0,0,0
i,0x00000000,1682074319.703885,172.16.1.2,49221,172.16.3.2,5201,67593,53613,34,65728,65728,6,6,4,1460,1248,1,992,115,82732,82732,65700,0,56472,0,0,0
o,0x00000000,1682074319.703951,172.16.1.2,49221,172.16.3.2,5201,26806,1448,98,65728,65728,6,6,4,1460,1248,1,537920480,115,82732,82732,65700,0,56472,0,0,0
i,0x00000000,1682074319.735378,172.16.1.2,49221,172.16.3.2,5201,26806,1448,98,65728,65728,6,6,4,1460,1248,1,537920480,115,82732,82732,65700,0,56472,0,0,0
i,0x00000000,1682074319.756873,172.16.1.2,49221,172.16.3.2,5201,26806,1448,98,65728,65728,6,6,4,1460,1248,1,537920480,115,82732,82732,65700,0,56472,0,0,0
o,0x00000000,1682074319.756918,172.16.1.2,49221,172.16.3.2,5201,26806,2896,98,65728,65728,6,6,4,1460,1248,1,537920480,115,82732,82732,65700,0,56472,0,0,0
i,0x00000000,1682074319.788400,172.16.1.2,49221,172.16.3.2,5201,26806,2896,98,65728,65728,6,6,4,1460,1248,1,537920480,115,82732,82732,65700,0,56472,0,0,0
i,0x00000000,1682074319.851197,172.16.1.2,49221,172.16.3.2,5201,26806,2896,98,65728,65728,6,6,4,1460,1248,1,537920480,115,82732,82732,65700,0,56472,0,0,0
o,0x00000000,1682074319.851236,172.16.1.2,49221,172.16.3.2,5201,26806,4344,34,65728,65728,6,6,4,1460,1248,1,537920480,115,82732,82732,65700,0,56472,0,0,0
i,0x00000000,1682074319.851344,172.16.1.2,49221,172.16.3.2,5201,26806,4344,34,65728,65728,6,6,4,1460,1248,1,537920480,115,82732,82732,65700,0,57920,0,0,0
o,0x00000000,1682074319.851364,172.16.1.2,49221,172.16.3.2,5201,26806,4344,34,65728,65728,6,6,4,1460,1248,1,537920480,115,82732,82732,65700,0,57920,0,0,0
i,0x00000000,1682074319.861747,172.16.1.2,49221,172.16.3.2,5201,26806,4344,34,65728,65728,6,6,4,1460,1248,1,537920480,115,82732,82732,65700,0,57920,0,0,0
o,0x00000000,1682074319.861811,172.16.1.2,49221,172.16.3.2,5201,26806,4344,34,65728,65728,6,6,4,1460,1248,1,537920481,115,82732,82732,65700,0,57920,0,0,0
i,0x00000000,1682074319.890658,172.16.1.2,49221,172.16.3.2,5201,26806,4344,34,59968,65728,6,6,4,1460,1152,1,537920480,122,82732,82732,65700,0,52128,0,0,0
i,0x00000000,1682074319.891563,172.16.1.2,49221,172.16.3.2,5201,26806,4344,34,65728,65728,6,6,4,1460,1152,1,537920480,122,82732,82732,65700,0,52128,0,0,0
i,0x00000000,1682074319.900824,172.16.1.2,49221,172.16.3.2,5201,26806,4344,34,65728,65728,6,6,4,1460,1152,1,537920480,122,82732,82732,65700,0,52128,0,0,0
o,0x00000000,1682074319.900914,172.16.1.2,49221,172.16.3.2,5201,26806,2896,34,65728,65728,6,6,4,1460,1152,1,537920481,122,82732,82732,65700,0,52128,0,0,0
i,0x00000000,1682074319.950991,172.16.1.2,49221,172.16.3.2,5201,26806,2896,34,58496,65728,6,6,4,1460,1064,1,537920480,125,82732,82732,65700,0,44888,0,0,0
i,0x00000000,1682074319.991456,172.16.1.2,49221,172.16.3.2,5201,26806,2896,34,65728,65728,6,6,4,1460,1064,1,537920480,125,82732,82732,65700,0,44888,0,0,0
i,0x00000000,1682074319.991480,172.16.1.2,49221,172.16.3.2,5201,26806,2896,34,65728,65728,6,6,4,1460,1064,1,537920480,125,82732,82732,65700,0,44888,0,0,0
i,0x00000000,1682074319.991495,172.16.1.2,49221,172.16.3.2,5201,26806,2896,34,65728,65728,6,6,4,1460,1064,1,537920480,125,82732,82732,65700,0,44888,0,0,0
i,0x00000000,1682074320.030725,172.16.1.2,49221,172.16.3.2,5201,26806,2896,34,65728,65728,6,6,4,1460,1064,1,537920480,125,82732,82732,65700,0,44888,0,0,0
o,0x00000000,1682074320.030759,172.16.1.2,49221,172.16.3.2,5201,26806,4344,34,65728,65728,6,6,4,1460,1064,1,537920481,125,82732,82732,65700,0,44888,0,0,0
i,0x00000000,1682074320.030952,172.16.1.2,49221,172.16.3.2,5201,26806,4344,34,62848,65728,6,6,4,1460,999,1,537920480,121,82732,79836,65700,0,41992,0,0,0
o,0x00000000,1682074320.030974,172.16.1.2,49221,172.16.3.2,5201,26806,43440,34,62848,65728,6,6,4,1460,999,1,537920480,121,82732,79836,65700,0,41992,0,0,0
i,0x00000000,1682074320.037977,172.16.1.2,49221,172.16.3.2,5201,26806,43440,34,62848,65728,6,6,4,1460,999,1,537920480,121,82732,82732,65700,0,43440,0,0,0
i,0x00000000,1682074320.068424,172.16.1.2,49221,172.16.3.2,5201,26806,43440,34,62848,65728,6,6,4,1460,999,1,537920480,121,82732,82732,65700,0,43440,0,0,0
o,0x00000000,1682074320.068473,172.16.1.2,49221,172.16.3.2,5201,26806,44888,34,62848,65728,6,6,4,1460,999,1,537920480,121,82732,82732,65700,0,43440,0,0,0
i,0x00000000,1682074320.068639,172.16.1.2,49221,172.16.3.2,5201,26806,44888,34,62848,65728,6,6,4,1460,999,1,537920480,121,82732,82732,65700,0,44888,0,0,0
i,0x00000000,1682074320.081268,172.16.1.2,49221,172.16.3.2,5201,26806,44888,34,62848,65728,6,6,4,1460,999,1,537920480,121,82732,82732,65700,0,44888,0,0,0
o,0x00000000,1682074320.081274,172.16.1.2,49221,172.16.3.2,5201,26806,46336,34,62848,65728,6,6,4,1460,999,1,537920480,121,82732,82732,65700,0,44888,0,0,0
i,0x00000000,1682074320.081274,172.16.1.2,49221,172.16.3.2,5201,26806,46336,34,62848,65728,6,6,4,1460,999,1,537920480,121,82732,82732,65700,0,46336,0,0,0
i,0x00000000,1682074320.121755,172.16.1.2,49221,172.16.3.2,5201,26806,46336,34,62848,65728,6,6,4,1460,999,1,537920480,121,82732,82732,65700,0,46336,0,0,0
o,0x00000000,1682074320.121802,172.16.1.2,49221,172.16.3.2,5201,26806,47784,34,62848,65728,6,6,4,1460,999,1,537920480,121,82732,82732,65700,0,46336,0,0,0
i,0x00000000,1682074320.121969,172.16.1.2,49221,172.16.3.2,5201,26806,47784,34,62848,65728,6,6,4,1460,999,1,537920480,121,82732,82732,65700,0,47784,0,0,0
i,0x00000000,1682074320.121991,172.16.1.2,49221,172.16.3.2,5201,26806,47784,34,62848,65728,6,6,4,1460,999,1,537920480,121,82732,82732,65700,0,47784,0,0,0
o,0x00000000,1682074320.122013,172.16.1.2,49221,172.16.3.2,5201,26806,49232,34,62848,65728,6,6,4,1460,999,1,537920480,121,82732,82732,65700,0,47784,0,0,0
i,0x00000000,1682074320.140371,172.16.1.2,49221,172.16.3.2,5201,26806,49232,34,62848,65728,6,6,4,1460,999,1,537920480,121,82732,82732,65700,0,49232,0,0,0
i,0x00000000,1682074320.140404,172.16.1.2,49221,172.16.3.2,5201,26806,49232,34,62848,65728,6,6,4,1460,999,1,537920480,121,82732,82732,65700,0,49232,0,0,0
i,0x00000000,1682074320.172185,172.16.1.2,49221,172.16.3.2,5201,26806,49232,34,62848,65728,6,6,4,1460,999,1,537920480,121,82732,82732,65700,0,49232,0,0,0
o,0x00000000,1682074320.172222,172.16.1.2,49221,172.16.3.2,5201,26806,50680,34,62848,65728,6,6,4,1460,999,1,537920480,121,82732,82732,65700,0,49232,0,0,0
i,0x00000000,1682074320.223529,172.16.1.2,49221,172.16.3.2,5201,26806,50680,34,62848,65728,6,6,4,1460,999,1,537920480,121,82732,82732,65700,0,50680,0,0,0
o,0x00000000,1682074320.223670,172.16.1.2,49221,172.16.3.2,5201,26806,10136,38,62848,65728,6,6,4,1460,999,1,537920480,121,82732,82732,65700,0,50680,0,0,0
o,0x00000000,1682074320.224303,172.16.1.2,49221,172.16.3.2,5201,26806,10136,38,62848,65728,6,6,4,1460,999,1,537920480,121,82732,82732,65700,0,50680,0,0,0
o,0x00000000,1682074320.224835,172.16.1.2,49221,172.16.3.2,5201,26806,10136,38,62848,65728,6,6,4,1460,999,1,537920480,121,82732,82732,65700,0,50680,0,0,0
o,0x00000000,1682074320.225525,172.16.1.2,49221,172.16.3.2,5201,26806,10136,38,62848,65728,6,6,4,1460,999,1,537920480,121,82732,82732,65700,0,50680,0,0,0
o,0x00000000,1682074320.226193,172.16.1.2,49221,172.16.3.2,5201,26806,10136,38,62848,65728,6,6,4,1460,999,1,537920480,121,82732,82732,65700,0,50680,0,0,0
o,0x00000000,1682074320.226760,172.16.1.2,49221,172.16.3.2,5201,26806,10136,38,62848,65728,6,6,4,1460,999,1,537920480,121,82732,82732,65700,0,50680,0,0,0
o,0x00000000,1682074320.227166,172.16.1.2,49221,172.16.3.2,5201,26806,10136,34,62848,65728,6,6,4,1460,999,1,537920480,121,82732,82732,65700,0,50680,0,0,0
i,0x00000000,1682074320.265042,172.16.1.2,49221,172.16.3.2,5201,26806,10136,34,62848,65728,6,6,4,1460,999,1,537920480,121,82732,82732,65700,0,50680,0,0,0
o,0x00000000,1682074320.265149,172.16.1.2,49221,172.16.3.2,5201,26806,20272,38,62848,65728,6,6,4,1460,999,1,537920480,121,82732,82732,65700,0,50680,0,0,0
o,0x00000000,1682074320.265487,172.16.1.2,49221,172.16.3.2,5201,26806,20272,38,62848,65728,6,6,4,1460,999,1,537920480,121,82732,82732,65700,0,50680,0,0,0
o,0x00000000,1682074320.265662,172.16.1.2,49221,172.16.3.2,5201,26806,20272,38,62848,65728,6,6,4,1460,999,1,537920480,121,82732,82732,65700,0,50680,0,0,0
o,0x00000000,1682074320.265837,172.16.1.2,49221,172.16.3.2,5201,26806,20272,38,62848,65728,6,6,4,1460,999,1,537920480,121,82732,82732,65700,0,50680,0,0,0
o,0x00000000,1682074320.265987,172.16.1.2,49221,172.16.3.2,5201,26806,20272,38,62848,65728,6,6,4,1460,999,1,537920480,121,82732,82732,65700,0,50680,0,0,0
o,0x00000000,1682074320.266120,172.16.1.2,49221,172.16.3.2,5201,26806,20272,38,62848,65728,6,6,4,1460,999,1,537920480,121,82732,82732,65700,0,50680,0,0,0
o,0x00000000,1682074320.266245,172.16.1.2,49221,172.16.3.2,5201,26806,20272,34,62848,65728,6,6,4,1460,999,1,537920480,121,82732,82732,65700,0,50680,0,0,0
i,0x00000000,1682074320.266392,172.16.1.2,49221,172.16.3.2,5201,26806,20272,34,62848,65728,6,6,4,1460,999,1,537920480,121,82732,82732,65700,0,50680,0,0,0
o,0x00000000,1682074320.266427,172.16.1.2,49221,172.16.3.2,5201,26806,30408,38,62848,65728,6,6,4,1460,999,1,537920480,121,82732,82732,65700,0,50680,0,0,0
o,0x00000000,1682074320.266555,172.16.1.2,49221,172.16.3.2,5201,26806,30408,38,62848,65728,6,6,4,1460,999,1,537920480,121,82732,82732,65700,0,50680,0,0,0
o,0x00000000,1682074320.266682,172.16.1.2,49221,172.16.3.2,5201,26806,30408,38,62848,65728,6,6,4,1460,999,1,537920480,121,82732,82732,65700,0,50680,0,0,0
o,0x00000000,1682074320.266829,172.16.1.2,49221,172.16.3.2,5201,26806,30408,38,62848,65728,6,6,4,1460,999,1,537920480,121,82732,82732,65700,0,50680,0,0,0
o,0x00000000,1682074320.267119,172.16.1.2,49221,172.16.3.2,5201,26806,30408,38,62848,65728,6,6,4,1460,999,1,537920480,121,82732,82732,65700,0,50680,0,0,0
o,0x00000000,1682074320.267210,172.16.1.2,49221,172.16.3.2,5201,26806,30408,38,62848,65728,6,6,4,1460,999,1,537920480,121,82732,82732,65700,0,50680,0,0,0
o,0x00000000,1682074320.267306,172.16.1.2,49221,172.16.3.2,5201,26806,30408,34,62848,65728,6,6,4,1460,999,1,537920480,121,82732,82732,65700,0,50680,0,0,0
i,0x00000000,1682074320.267407,172.16.1.2,49221,172.16.3.2,5201,26806,30408,34,62848,65728,6,6,4,1460,999,1,537920480,121,82732,82732,65700,0,50680,0,0,0
o,0x00000000,1682074320.267425,172.16.1.2,49221,172.16.3.2,5201,26806,40544,38,62848,65728,6,6,4,1460,999,1,537920480,121,82732,82732,65700,0,50680,0,0,0
o,0x00000000,1682074320.267512,172.16.1.2,49221,172.16.3.2,5201,26806,40544,38,62848,65728,6,6,4,1460,999,1,537920480,121,82732,82732,65700,0,50680,0,0,0
o,0x00000000,1682074320.267600,172.16.1.2,49221,172.16.3.2,5201,26806,40544,38,62848,65728,6,6,4,1460,999,1,537920480,121,82732,82732,65700,0,50680,0,0,0
o,0x00000000,1682074320.267688,172.16.1.2,49221,172.16.3.2,5201,26806,40544,38,62848,65728,6,6,4,1460,999,1,537920480,121,82732,82732,65700,0,50680,0,0,0
o,0x00000000,1682074320.267890,172.16.1.2,49221,172.16.3.2,5201,26806,40544,38,62848,65728,6,6,4,1460,999,1,537920480,121,82732,82732,65700,0,50680,0,0,0
o,0x00000000,1682074320.268178,172.16.1.2,49221,172.16.3.2,5201,26806,40544,38,62848,65728,6,6,4,1460,999,1,537920480,121,82732,82732,65700,0,50680,0,0,0
o,0x00000000,1682074320.268278,172.16.1.2,49221,172.16.3.2,5201,26806,40544,34,62848,65728,6,6,4,1460,999,1,537920480,121,82732,82732,65700,0,50680,0,0,0
i,0x00000000,1682074320.682093,172.16.1.2,49221,172.16.3.2,5201,26806,40544,34,62848,65728,6,6,4,1460,999,1,537920480,121,82732,82732,65700,0,50680,0,0,0
i,0x00000000,1682074320.969847,172.16.1.2,49221,172.16.3.2,5201,26806,50680,34,62848,65728,6,6,4,1460,999,1,537920480,121,82732,82732,65700,0,50680,0,0,0
o,0x00000000,1682074320.969885,172.16.1.2,49221,172.16.3.2,5201,26806,47784,34,62848,65728,6,6,4,1460,999,1,537920481,121,82732,82732,65700,0,50680,0,0,0
i,0x00000000,1682074320.970016,172.16.1.2,49221,172.16.3.2,5201,26806,47784,34,64256,65728,6,6,4,1460,1171,1,537920480,152,82732,79836,65700,0,47784,0,0,0
o,0x00000000,1682074320.970037,172.16.1.2,49221,172.16.3.2,5201,26806,46336,34,64256,65728,6,6,4,1460,1171,1,537920481,152,82732,79836,65700,0,47784,0,0,0
i,0x00000000,1682074320.970163,172.16.1.2,49221,172.16.3.2,5201,26806,46336,34,64256,65728,6,6,4,1460,1321,1,537920480,170,82732,78388,65700,0,46336,0,0,0
o,0x00000000,1682074320.970192,172.16.1.2,49221,172.16.3.2,5201,26806,44888,34,64256,65728,6,6,4,1460,1321,1,537920481,170,82732,78388,65700,0,46336,0,0,0
i,0x00000000,1682074320.970419,172.16.1.2,49221,172.16.3.2,5201,26806,44888,34,64256,65728,6,6,4,1460,1452,1,537920480,180,82732,76940,65700,0,44888,0,0,0
o,0x00000000,1682074320.970454,172.16.1.2,49221,172.16.3.2,5201,26806,41992,34,64256,65728,6,6,4,1460,1452,1,537920481,180,82732,76940,65700,0,44888,0,0,0
i,0x00000000,1682074320.970712,172.16.1.2,49221,172.16.3.2,5201,26806,41992,34,64256,65728,6,6,4,1460,1567,1,537920480,183,82732,74044,65700,0,41992,0,0,0
o,0x00000000,1682074320.970747,172.16.1.2,49221,172.16.3.2,5201,26806,40544,34,64256,65728,6,6,4,1460,1567,1,537920481,183,82732,74044,65700,0,41992,0,0,0
i,0x00000000,1682074320.976011,172.16.1.2,49221,172.16.3.2,5201,26806,40544,34,64256,65728,6,6,4,1460,1668,1,537920480,183,82732,82732,65700,0,40544,0,0,0
o,0x00000000,1682074320.976046,172.16.1.2,49221,172.16.3.2,5201,26806,39096,34,64256,65728,6,6,4,1460,1668,1,537920481,183,82732,82732,65700,0,40544,0,0,0
i,0x00000000,1682074320.976258,172.16.1.2,49221,172.16.3.2,5201,26806,39096,34,64256,65728,6,6,4,1460,1740,1,537920480,176,82732,81284,65700,0,39096,0,0,0
o,0x00000000,1682074320.976278,172.16.1.2,49221,172.16.3.2,5201,26806,37648,34,64256,65728,6,6,4,1460,1740,1,537920481,176,82732,81284,65700,0,39096,0,0,0
i,0x00000000,1682074320.976402,172.16.1.2,49221,172.16.3.2,5201,26806,37648,34,64256,65728,6,6,4,1460,1803,1,537920480,168,82732,79836,65700,0,37648,0,0,0
o,0x00000000,1682074320.976421,172.16.1.2,49221,172.16.3.2,5201,26806,36200,34,64256,65728,6,6,4,1460,1803,1,537920481,168,82732,79836,65700,0,37648,0,0,0
i,0x00000000,1682074320.976566,172.16.1.2,49221,172.16.3.2,5201,26806,36200,34,64256,65728,6,6,4,1460,1858,1,537920480,161,82732,78388,65700,0,36200,0,0,0
o,0x00000000,1682074320.976585,172.16.1.2,49221,172.16.3.2,5201,26806,34752,34,64256,65728,6,6,4,1460,1858,1,537920481,161,82732,78388,65700,0,36200,0,0,0
i,0x00000000,1682074320.976945,172.16.1.2,49221,172.16.3.2,5201,26806,34752,34,64256,65728,6,6,4,1460,1906,1,537920480,153,82732,76940,65700,0,34752,0,0,0
o,0x00000000,1682074320.976967,172.16.1.2,49221,172.16.3.2,5201,26806,31856,34,64256,65728,6,6,4,1460,1906,1,537920481,153,82732,76940,65700,0,34752,0,0,0
i,0x00000000,1682074320.977115,172.16.1.2,49221,172.16.3.2,5201,26806,31856,34,64256,65728,6,6,4,1460,1948,1,537920480,147,82732,74044,65700,0,31856,0,0,0
o,0x00000000,1682074320.977141,172.16.1.2,49221,172.16.3.2,5201,26806,30408,34,64256,65728,6,6,4,1460,1948,1,537920481,147,82732,74044,65700,0,31856,0,0,0
i,0x00000000,1682074320.977297,172.16.1.2,49221,172.16.3.2,5201,26806,30408,34,64256,65728,6,6,4,1460,1985,1,537920480,141,82732,72596,65700,0,30408,0,0,0
o,0x00000000,1682074320.977322,172.16.1.2,49221,172.16.3.2,5201,26806,28960,34,64256,65728,6,6,4,1460,1985,1,537920481,141,82732,72596,65700,0,30408,0,0,0
i,0x00000000,1682074320.978090,172.16.1.2,49221,172.16.3.2,5201,26806,28960,34,64256,65728,6,6,4,1460,2017,1,537920480,135,82732,71148,65700,0,28960,0,0,0
o,0x00000000,1682074320.978118,172.16.1.2,49221,172.16.3.2,5201,26806,26064,34,64256,65728,6,6,4,1460,2017,1,537920481,135,82732,71148,65700,0,28960,0,0,0
i,0x00000000,1682074320.978292,172.16.1.2,49221,172.16.3.2,5201,26806,26064,34,64256,65728,6,6,4,1460,2045,1,537920480,130,82732,68252,65700,0,26064,0,0,0
o,0x00000000,1682074320.978310,172.16.1.2,49221,172.16.3.2,5201,26806,23168,34,64256,65728,6,6,4,1460,2045,1,537920481,130,82732,68252,65700,0,26064,0,0,0
i,0x00000000,1682074320.978427,172.16.1.2,49221,172.16.3.2,5201,26806,23168,34,64256,65728,6,6,4,1460,2070,1,537920480,125,82732,65356,65700,0,23168,0,0,0
o,0x00000000,1682074320.978447,172.16.1.2,49221,172.16.3.2,5201,26806,20272,34,64256,65728,6,6,4,1460,2070,1,537920481,125,82732,65356,65700,0,23168,0,0,0
i,0x00000000,1682074320.978566,172.16.1.2,49221,172.16.3.2,5201,26806,20272,34,64256,65728,6,6,4,1460,2092,1,537920480,121,82732,62460,65700,0,20272,0,0,0
o,0x00000000,1682074320.978587,172.16.1.2,49221,172.16.3.2,5201,26806,23168,38,64256,65728,6,6,4,1460,2092,1,537920481,121,82732,62460,65700,0,20272,0,0,0
o,0x00000000,1682074320.978698,172.16.1.2,49221,172.16.3.2,5201,26806,23168,38,64256,65728,6,6,4,1460,2092,1,537920480,121,82732,62460,65700,0,21720,0,0,0
o,0x00000000,1682074320.978806,172.16.1.2,49221,172.16.3.2,5201,26806,23168,34,64256,65728,6,6,4,1460,2092,1,537920480,121,82732,62460,65700,0,23168,0,0,0
i,0x00000000,1682074320.981411,172.16.1.2,49221,172.16.3.2,5201,26806,23168,34,64256,65728,6,6,4,1460,2111,1,537920480,117,82732,82732,65700,0,23168,0,0,0
o,0x00000000,1682074320.981442,172.16.1.2,49221,172.16.3.2,5201,26806,24616,38,64256,65728,6,6,4,1460,2111,1,537920481,117,82732,82732,65700,0,23168,0,0,0
o,0x00000000,1682074320.981595,172.16.1.2,49221,172.16.3.2,5201,26806,24616,38,64256,65728,6,6,4,1460,2111,1,537920480,117,82732,82732,65700,0,24616,0,0,0
o,0x00000000,1682074320.981718,172.16.1.2,49221,172.16.3.2,5201,26806,24616,34,64256,65728,6,6,4,1460,2111,1,537920480,117,82732,82732,65700,0,26064,0,0,0
i,0x00000000,1682074320.981858,172.16.1.2,49221,172.16.3.2,5201,26806,24616,34,64256,65728,6,6,4,1460,2132,1,537920480,115,82732,79836,65700,0,24616,0,0,0
o,0x00000000,1682074320.981883,172.16.1.2,49221,172.16.3.2,5201,26806,27512,38,64256,65728,6,6,4,1460,2132,1,537920481,115,82732,79836,65700,0,24616,0,0,0
o,0x00000000,1682074320.982017,172.16.1.2,49221,172.16.3.2,5201,26806,27512,38,64256,65728,6,6,4,1460,2132,1,537920480,115,82732,79836,65700,0,26064,0,0,0
o,0x00000000,1682074320.982282,172.16.1.2,49221,172.16.3.2,5201,26806,27512,34,64256,65728,6,6,4,1460,2132,1,537920480,115,82732,79836,65700,0,27512,0,0,0
i,0x00000000,1682074320.982492,172.16.1.2,49221,172.16.3.2,5201,26806,27512,34,64256,65728,6,6,4,1460,2150,1,537920480,113,82732,78388,65700,0,27512,0,0,0
o,0x00000000,1682074320.982525,172.16.1.2,49221,172.16.3.2,5201,26806,28960,38,64256,65728,6,6,4,1460,2150,1,537920481,113,82732,78388,65700,0,27512,0,0,0
o,0x00000000,1682074320.982733,172.16.1.2,49221,172.16.3.2,5201,26806,28960,34,64256,65728,6,6,4,1460,2150,1,537920480,113,82732,78388,65700,0,28960,0,0,0
i,0x00000000,1682074320.982836,172.16.1.2,49221,172.16.3.2,5201,26806,28960,34,64256,65728,6,6,4,1460,2166,1,537920480,111,82732,76940,65700,0,28960,0,0,0
o,0x00000000,1682074320.982853,172.16.1.2,49221,172.16.3.2,5201,26806,30408,38,64256,65728,6,6,4,1460,2166,1,537920481,111,82732,76940,65700,0,28960,0,0,0
o,0x00000000,1682074320.982942,172.16.1.2,49221,172.16.3.2,5201,26806,30408,34,64256,65728,6,6,4,1460,2166,1,537920480,111,82732,76940,65700,0,30408,0,0,0
i,0x00000000,1682074320.991014,172.16.1.2,49221,172.16.3.2,5201,26806,30408,34,64256,65728,6,6,4,1460,2180,1,537920480,109,82732,82732,65700,0,30408,0,0,0
i,0x00000000,1682074321.239495,172.16.1.2,49221,172.16.3.2,5201,26806,26076,34,62848,65728,6,6,4,1460,2192,1,992,107,82732,82732,65700,0,27512,0,0,0
o,0x00000000,1682074321.239628,172.16.1.2,49221,172.16.3.2,5201,15454,1448,98,62848,65728,6,6,4,1460,2192,1,537920480,107,82732,82732,65700,0,27512,0,0,0
i,0x00000000,1682074321.251743,172.16.1.2,49221,172.16.3.2,5201,15454,1448,98,62848,65728,6,6,4,1460,2192,1,537920480,107,82732,82732,65700,0,27512,0,0,0
o,0x00000000,1682074321.251794,172.16.1.2,49221,172.16.3.2,5201,15454,4344,98,62848,65728,6,6,4,1460,2192,1,537920480,107,82732,82732,65700,0,27512,0,0,0
o,0x00000000,1682074321.251907,172.16.1.2,49221,172.16.3.2,5201,15454,4344,34,62848,65728,6,6,4,1460,2192,1,537920480,107,82732,82732,65700,0,27512,0,0,0
i,0x00000000,1682074321.251934,172.16.1.2,49221,172.16.3.2,5201,15454,4344,34,62848,65728,6,6,4,1460,2192,1,537920480,107,82732,82732,65700,0,28960,0,0,0
i,0x00000000,1682074321.273066,172.16.1.2,49221,172.16.3.2,5201,15454,4344,34,62848,65728,6,6,4,1460,2192,1,537920480,107,82732,82732,65700,0,28960,0,0,0
o,0x00000000,1682074321.273167,172.16.1.2,49221,172.16.3.2,5201,15454,5792,34,62848,65728,6,6,4,1460,2192,1,537920480,107,82732,82732,65700,0,28960,0,0,0
i,0x00000000,1682074321.281471,172.16.1.2,49221,172.16.3.2,5201,15454,5792,34,62848,65728,6,6,4,1460,2192,1,537920480,107,82732,82732,65700,0,30408,0,0,0
o,0x00000000,1682074321.281548,172.16.1.2,49221,172.16.3.2,5201,15454,7240,34,62848,65728,6,6,4,1460,2192,1,537920480,107,82732,82732,65700,0,30408,0,0,0
i,0x00000000,1682074321.334560,172.16.1.2,49221,172.16.3.2,5201,15454,7240,34,62848,65728,6,6,4,1460,2192,1,537920480,107,82732,82732,65700,0,31856,0,0,0
i,0x00000000,1682074321.334649,172.16.1.2,49221,172.16.3.2,5201,15454,7240,34,62848,65728,6,6,4,1460,2192,1,537920480,107,82732,82732,65700,0,31856,0,0,0
o,0x00000000,1682074321.334716,172.16.1.2,49221,172.16.3.2,5201,15454,8688,34,62848,65728,6,6,4,1460,2192,1,537920480,107,82732,82732,65700,0,31856,0,0,0
i,0x00000000,1682074321.335023,172.16.1.2,49221,172.16.3.2,5201,15454,8688,34,62848,65728,6,6,4,1460,2192,1,537920480,107,82732,82732,65700,0,33304,0,0,0
i,0x00000000,1682074321.360730,172.16.1.2,49221,172.16.3.2,5201,15454,8688,34,62848,65728,6,6,4,1460,2192,1,537920480,107,82732,82732,65700,0,33304,0,0,0
o,0x00000000,1682074321.360766,172.16.1.2,49221,172.16.3.2,5201,15454,10136,34,62848,65728,6,6,4,1460,2192,1,537920480,107,82732,82732,65700,0,33304,0,0,0
i,0x00000000,1682074321.396242,172.16.1.2,49221,172.16.3.2,5201,15454,10136,34,62848,65728,6,6,4,1460,2192,1,537920480,107,82732,82732,65700,0,34752,0,0,0
i,0x00000000,1682074321.402345,172.16.1.2,49221,172.16.3.2,5201,15454,10136,34,62848,65728,6,6,4,1460,2192,1,537920480,107,82732,82732,65700,0,34752,0,0,0
o,0x00000000,1682074321.402378,172.16.1.2,49221,172.16.3.2,5201,15454,10136,34,62848,65728,6,6,4,1460,2192,1,537920481,107,82732,82732,65700,0,34752,0,0,0
i,0x00000000,1682074321.402708,172.16.1.2,49221,172.16.3.2,5201,15454,10136,34,64320,65728,6,6,4,1460,1986,1,537920480,148,82732,81284,65700,0,34752,0,0,0
i,0x00000000,1682074321.402786,172.16.1.2,49221,172.16.3.2,5201,15454,10136,34,65728,65728,6,6,4,1460,1986,1,537920480,148,82732,81284,65700,0,34752,0,0,0
o,0x00000000,1682074321.402865,172.16.1.2,49221,172.16.3.2,5201,15454,11584,34,65728,65728,6,6,4,1460,1986,1,537920481,148,82732,81284,65700,0,34752,0,0,0
i,0x00000000,1682074321.403713,172.16.1.2,49221,172.16.3.2,5201,15454,11584,34,44032,65728,6,6,4,1460,1798,1,537920480,172,82732,59564,65700,0,13032,0,0,0
o,0x00000000,1682074321.403775,172.16.1.2,49221,172.16.3.2,5201,15454,15928,38,44032,65728,6,6,4,1460,1798,1,537920480,172,82732,82732,65700,0,13032,0,0,0
o,0x00000000,1682074321.404122,172.16.1.2,49221,172.16.3.2,5201,15454,15928,34,44032,65728,6,6,4,1460,1798,1,537920480,172,82732,82732,65700,0,14480,0,0,0
i,0x00000000,1682074321.409744,172.16.1.2,49221,172.16.3.2,5201,15454,15928,34,44032,65728,6,6,4,1460,1798,1,537920480,172,82732,82732,65700,0,15928,0,0,0
o,0x00000000,1682074321.409766,172.16.1.2,49221,172.16.3.2,5201,15454,17376,34,44032,65728,6,6,4,1460,1798,1,537920480,172,82732,82732,65700,0,15928,0,0,0
i,0x00000000,1682074321.431781,172.16.1.2,49221,172.16.3.2,5201,15454,17376,34,44032,65728,6,6,4,1460,1798,1,537920480,172,82732,82732,65700,0,17376,0,0,0
o,0x00000000,1682074321.431830,172.16.1.2,49221,172.16.3.2,5201,15454,18824,34,44032,65728,6,6,4,1460,1798,1,537920480,172,82732,82732,65700,0,17376,0,0,0
i,0x00000000,1682074321.519529,172.16.1.2,49221,172.16.3.2,5201,15454,18824,34,44032,65728,6,6,4,1460,1798,1,537920480,172,82732,82732,65700,0,18824,0,0,0
o,0x00000000,1682074321.519585,172.16.1.2,49221,172.16.3.2,5201,15454,14480,38,44032,65728,6,6,4,1460,1798,1,537920480,172,82732,82732,65700,0,18824,0,0,0
o,0x00000000,1682074321.519789,172.16.1.2,49221,172.16.3.2,5201,15454,14480,38,44032,65728,6,6,4,1460,1798,1,537920480,172,82732,82732,65700,0,18824,0,0,0
o,0x00000000,1682074321.519922,172.16.1.2,49221,172.16.3.2,5201,15454,14480,34,44032,65728,6,6,4,1460,1798,1,537920480,172,82732,82732,65700,0,18824,0,0,0
i,0x00000000,1682074321.540760,172.16.1.2,49221,172.16.3.2,5201,15454,14480,34,44032,65728,6,6,4,1460,1798,1,537920480,172,82732,82732,65700,0,18824,0,0,0
i,0x00000000,1682074321.611661,172.16.1.2,49221,172.16.3.2,5201,15454,18824,34,44032,65728,6,6,4,1460,1798,1,537920480,172,82732,82732,65700,0,18824,0,0,0
i,0x00000000,1682074321.681519,172.16.1.2,49221,172.16.3.2,5201,15454,18824,34,44032,65728,6,6,4,1460,1798,1,537920480,172,82732,82732,65700,0,18824,0,0,0
i,0x00000000,1682074321.681569,172.16.1.2,49221,172.16.3.2,5201,15454,18824,34,44032,65728,6,6,4,1460,1798,1,537920480,172,82732,82732,65700,0,18824,0,0,0
i,0x00000000,1682074321.715703,172.16.1.2,49221,172.16.3.2,5201,15454,18824,34,44032,65728,6,6,4,1460,1798,1,537920480,172,82732,82732,65700,0,18824,0,0,0
i,0x00000000,1682074321.715738,172.16.1.2,49221,172.16.3.2,5201,15454,18824,34,44032,65728,6,6,4,1460,1798,1,537920480,172,82732,82732,65700,0,18824,0,0,0
o,0x00000000,1682074321.715771,172.16.1.2,49221,172.16.3.2,5201,15454,18824,34,44032,65728,6,6,4,1460,1798,1,537920481,172,82732,82732,65700,0,18824,0,0,0
i,0x00000000,1682074321.715944,172.16.1.2,49221,172.16.3.2,5201,15454,18824,34,64320,65728,6,6,4,1460,1654,1,537920480,180,82732,81284,65700,0,18824,0,0,0
i,0x00000000,1682074321.715970,172.16.1.2,49221,172.16.3.2,5201,15454,18824,34,65728,65728,6,6,4,1460,1654,1,537920480,180,82732,81284,65700,0,18824,0,0,0
o,0x00000000,1682074321.716018,172.16.1.2,49221,172.16.3.2,5201,15454,20272,38,65728,65728,6,6,4,1460,1654,1,537920481,180,82732,81284,65700,0,18824,0,0,0
o,0x00000000,1682074321.716157,172.16.1.2,49221,172.16.3.2,5201,15454,20272,34,65728,65728,6,6,4,1460,1654,1,537920480,180,82732,81284,65700,0,20272,0,0,0
i,0x00000000,1682074321.717059,172.16.1.2,49221,172.16.3.2,5201,15454,20272,34,64320,65728,6,6,4,1460,1528,1,537920480,180,82732,82732,65700,0,20272,0,0,0
i,0x00000000,1682074321.722559,172.16.1.2,49221,172.16.3.2,5201,15454,20272,34,65728,65728,6,6,4,1460,1528,1,537920480,180,82732,82732,65700,0,20272,0,0,0
o,0x00000000,1682074321.722593,172.16.1.2,49221,172.16.3.2,5201,12014,2895,98,65728,65728,6,6,4,1460,1528,1,537920481,180,82732,82732,65700,0,20272,0,0,0
i,0x00000000,1682074321.746311,172.16.1.2,49221,172.16.3.2,5201,12014,2895,98,55616,65728,6,6,4,1460,1421,1,537920480,175,82732,82732,65700,0,10136,0,0,0
o,0x00000000,1682074321.746311,172.16.1.2,49221,172.16.3.2,5201,12014,13032,38,55616,65728,6,6,4,1460,1421,1,537920480,175,82732,82732,65700,0,10136,0,0,0
o,0x00000000,1682074321.746311,172.16.1.2,49221,172.16.3.2,5201,12014,13032,34,55616,65728,6,6,4,1460,1421,1,537920480,175,82732,82732,65700,0,11584,0,0,0
i,0x00000000,1682074321.751932,172.16.1.2,49221,172.16.3.2,5201,12014,13032,34,55616,65728,6,6,4,1460,1421,1,537920480,175,82732,82732,65700,0,13032,0,0,0
o,0x00000000,1682074321.751960,172.16.1.2,49221,172.16.3.2,5201,12014,14480,34,55616,65728,6,6,4,1460,1421,1,537920480,175,82732,82732,65700,0,13032,0,0,0
i,0x00000000,1682074321.881541,172.16.1.2,49221,172.16.3.2,5201,12014,14480,34,55616,65728,6,6,4,1460,1421,1,537920480,175,82732,82732,65700,0,14480,0,0,0
o,0x00000000,1682074321.881656,172.16.1.2,49221,172.16.3.2,5201,12014,4343,38,55616,65728,6,6,4,1460,1421,1,537920480,175,82732,82732,65700,0,14480,0,0,0
o,0x00000000,1682074321.881844,172.16.1.2,49221,172.16.3.2,5201,12014,4343,38,55616,65728,6,6,4,1460,1421,1,537920480,175,82732,82732,65700,0,14480,0,0,0
o,0x00000000,1682074321.882000,172.16.1.2,49221,172.16.3.2,5201,12014,4343,34,55616,65728,6,6,4,1460,1421,1,537920480,175,82732,82732,65700,0,14480,0,0,0
i,0x00000000,1682074321.882152,172.16.1.2,49221,172.16.3.2,5201,12014,4343,34,55616,65728,6,6,4,1460,1421,1,537920480,175,82732,82732,65700,0,14480,0,0,0
o,0x00000000,1682074321.882187,172.16.1.2,49221,172.16.3.2,5201,12014,8686,34,55616,65728,6,6,4,1460,1421,1,537920480,175,82732,82732,65700,0,14480,0,0,0
o,0x00000000,1682074321.882337,172.16.1.2,49221,172.16.3.2,5201,12014,8686,34,55616,65728,6,6,4,1460,1421,1,537920480,175,82732,82732,65700,0,14480,0,0,0
i,0x00000000,1682074321.902490,172.16.1.2,49221,172.16.3.2,5201,12014,8686,34,55616,65728,6,6,4,1460,1421,1,537920480,175,82732,82732,65700,0,14480,0,0,0
i,0x00000000,1682074321.902540,172.16.1.2,49221,172.16.3.2,5201,12014,10135,34,55616,65728,6,6,4,1460,1421,1,537920480,175,82732,82732,65700,0,14480,0,0,0
i,0x00000000,1682074321.953300,172.16.1.2,49221,172.16.3.2,5201,12014,10135,34,55616,65728,6,6,4,1460,1421,1,537920480,175,82732,82732,65700,0,14480,0,0,0
i,0x00000000,1682074321.953411,172.16.1.2,49221,172.16.3.2,5201,12014,10135,34,55616,65728,6,6,4,1460,1421,1,537920480,175,82732,82732,65700,0,14480,0,0,0
i,0x00000000,1682074322.022475,172.16.1.2,49221,172.16.3.2,5201,12014,10135,34,55616,65728,6,6,4,1460,1421,1,537920480,175,82732,82732,65700,0,14480,0,0,0
o,0x00000000,1682074322.022533,172.16.1.2,49221,172.16.3.2,5201,12014,10135,34,55616,65728,6,6,4,1460,1421,1,537920481,175,82732,82732,65700,0,14480,0,0,0
i,0x00000000,1682074322.022863,172.16.1.2,49221,172.16.3.2,5201,12014,10135,34,64320,65728,6,6,4,1460,1300,1,537920480,174,82732,81284,65700,0,14480,0,0,0
o,0x00000000,1682074322.022905,172.16.1.2,49221,172.16.3.2,5201,12014,11583,38,64320,65728,6,6,4,1460,1300,1,537920481,174,82732,81284,65700,0,14480,0,0,0
o,0x00000000,1682074322.023966,172.16.1.2,49221,172.16.3.2,5201,12014,11583,34,64320,65728,6,6,4,1460,1300,1,537920480,174,82732,81284,65700,0,15928,0,0,0
i,0x00000000,1682074322.024438,172.16.1.2,49221,172.16.3.2,5201,12014,11583,34,64256,65728,6,6,4,1460,1194,1,537920480,169,82732,79836,65700,0,15928,0,0,0
o,0x00000000,1682074322.024520,172.16.1.2,49221,172.16.3.2,5201,12014,13032,38,64256,65728,6,6,4,1460,1194,1,537920481,169,82732,79836,65700,0,15928,0,0,0
o,0x00000000,1682074322.025063,172.16.1.2,49221,172.16.3.2,5201,12014,13032,34,64256,65728,6,6,4,1460,1194,1,537920480,169,82732,79836,65700,0,17376,0,0,0
i,0x00000000,1682074322.051009,172.16.1.2,49221,172.16.3.2,5201,12014,13032,34,64256,65728,6,6,4,1460,1101,1,537920480,161,82732,82732,65700,0,17377,0,0,0
o,0x00000000,1682074322.051173,172.16.1.2,49221,172.16.3.2,5201,12014,14480,38,64256,65728,6,6,4,1460,1101,1,537920481,161,82732,82732,65700,0,17377,0,0,0
o,0x00000000,1682074322.051330,172.16.1.2,49221,172.16.3.2,5201,12014,14480,34,64256,65728,6,6,4,1460,1101,1,537920480,161,82732,82732,65700,0,18825,0,0,0
i,0x00000000,1682074322.051468,172.16.1.2,49221,172.16.3.2,5201,12014,14480,34,64256,65728,6,6,4,1460,1032,1,537920480,150,82732,81284,65700,0,18825,0,0,0
o,0x00000000,1682074322.051490,172.16.1.2,49221,172.16.3.2,5201,12014,12014,38,55616,65728,6,6,4,1460,971,1,992,139,82732,72595,65700,0,10136,0,0,0
i,0x00000000,1682074322.245441,172.16.1.2,49221,172.16.3.2,5201,12014,12014,38,55616,65728,6,6,4,1460,971,1,992,139,82732,82732,65700,0,11584,0,0,0
o,0x00000000,1682074322.245628,172.16.1.2,49221,172.16.3.2,5201,12014,14910,38,64256,65728,6,6,4,1460,938,1,992,124,82732,79836,65700,0,8688,0,0,0
o,0x00000000,1682074322.245770,172.16.1.2,49221,172.16.3.2,5201,12014,14910,38,64256,65728,6,6,4,1460,938,1,992,124,82732,79836,65700,0,10136,0,0,0
o,0x00000000,1682074322.245926,172.16.1.2,49221,172.16.3.2,5201,12014,14910,38,64256,65728,6,6,4,1460,938,1,992,124,82732,79836,65700,0,11584,0,0,0
o,0x00000000,1682074322.246053,172.16.1.2,49221,172.16.3.2,5201,12014,14910,38,64256,65728,6,6,4,1460,938,1,992,124,82732,79836,65700,0,13032,0,0,0
i,0x00000000,1682074322.271964,172.16.1.2,49221,172.16.3.2,5201,12014,14910,38,64256,65728,6,6,4,1460,938,1,992,124,82732,82732,65700,0,14480,0,0,0
o,0x00000000,1682074322.272199,172.16.1.2,49221,172.16.3.2,5201,12014,14910,38,64256,65728,6,6,4,1460,921,1,992,109,82732,79836,65700,0,11584,0,0,0
o,0x00000000,1682074322.272639,172.16.1.2,49221,172.16.3.2,5201,12014,14910,38,64256,65728,6,6,4,1460,921,1,992,109,82732,79836,65700,0,13032,0,0,0
i,0x00000000,1682074322.272970,172.16.1.2,49221,172.16.3.2,5201,12014,14910,38,64256,65728,6,6,4,1460,921,1,992,109,82732,79836,65700,0,14480,0,0,0
o,0x00000000,1682074322.273034,172.16.1.2,49221,172.16.3.2,5201,12014,14910,38,64256,65728,6,6,4,1460,906,1,992,97,82732,76940,65700,0,11584,0,0,0
o,0x00000000,1682074322.273430,172.16.1.2,49221,172.16.3.2,5201,12014,14910,38,64256,65728,6,6,4,1460,906,1,992,97,82732,76940,65700,0,13032,0,0,0
i,0x00000000,1682074322.306803,172.16.1.2,49221,172.16.3.2,5201,12014,14910,38,64256,65728,6,6,4,1460,906,1,992,97,82732,82732,65700,0,14480,0,0,0
o,0x00000000,1682074322.306848,172.16.1.2,49221,172.16.3.2,5201,12014,14910,38,64256,65728,6,6,4,1460,893,1,992,88,82732,79836,65700,0,11584,0,0,0
o,0x00000000,1682074322.307107,172.16.1.2,49221,172.16.3.2,5201,12014,14910,38,64256,65728,6,6,4,1460,893,1,992,88,82732,79836,65700,0,13032,0,0,0
i,0x00000000,1682074322.451831,172.16.1.2,49221,172.16.3.2,5201,12014,14910,38,64256,65728,6,6,4,1460,893,1,992,88,82732,82732,65700,0,14480,0,0,0
o,0x00000000,1682074322.451903,172.16.1.2,49221,172.16.3.2,5201,12014,15723,38,64256,65728,6,6,4,1460,862,1,992,84,82732,79836,65700,0,11584,0,0,0
o,0x00000000,1682074322.452051,172.16.1.2,49221,172.16.3.2,5201,12014,15723,38,64256,65728,6,6,4,1460,862,1,992,84,82732,79836,65700,0,13032,0,0,0
i,0x00000000,1682074322.481403,172.16.1.2,49221,172.16.3.2,5201,12014,15723,38,64256,65728,6,6,4,1460,862,1,992,84,82732,82732,65700,0,14480,0,0,0
o,0x00000000,1682074322.481437,172.16.1.2,49221,172.16.3.2,5201,12014,15723,38,64256,65728,6,6,4,1460,847,1,992,78,82732,79836,65700,0,11584,0,0,0
o,0x00000000,1682074322.481592,172.16.1.2,49221,172.16.3.2,5201,12014,15723,38,64256,65728,6,6,4,1460,847,1,992,78,82732,79836,65700,0,13032,0,0,0
i,0x00000000,1682074322.553790,172.16.1.2,49221,172.16.3.2,5201,12014,15723,38,64256,65728,6,6,4,1460,847,1,992,78,82732,82732,65700,0,14480,0,0,0
o,0x00000000,1682074322.554045,172.16.1.2,49221,172.16.3.2,5201,12014,15723,38,64256,65728,6,6,4,1460,854,1,992,72,82732,79836,65700,0,11584,0,0,0
o,0x00000000,1682074322.554988,172.16.1.2,49221,172.16.3.2,5201,12014,15723,38,64256,65728,6,6,4,1460,854,1,992,72,82732,79836,65700,0,13032,0,0,0
i,0x00000000,1682074322.555711,172.16.1.2,49221,172.16.3.2,5201,12014,15723,38,64256,65728,6,6,4,1460,854,1,992,72,82732,79836,65700,0,14480,0,0,0
o,0x00000000,1682074322.556006,172.16.1.2,49221,172.16.3.2,5201,12014,15723,38,64256,65728,6,6,4,1460,860,1,992,67,82732,76940,65700,0,11584,0,0,0
o,0x00000000,1682074322.556737,172.16.1.2,49221,172.16.3.2,5201,12014,15723,38,64256,65728,6,6,4,1460,860,1,992,67,82732,76940,65700,0,13032,0,0,0
i,0x00000000,1682074322.581245,172.16.1.2,49221,172.16.3.2,5201,12014,15723,38,64256,65728,6,6,4,1460,860,1,992,67,82732,82732,65700,0,14480,0,0,0
o,0x00000000,1682074322.581313,172.16.1.2,49221,172.16.3.2,5201,12014,15723,38,64256,65728,6,6,4,1460,861,1,992,62,82732,79836,65700,0,11584,0,0,0
o,0x00000000,1682074322.581533,172.16.1.2,49221,172.16.3.2,5201,12014,15723,38,64256,65728,6,6,4,1460,861,1,992,62,82732,79836,65700,0,13032,0,0,0
i,0x00000000,1682074322.641253,172.16.1.2,49221,172.16.3.2,5201,12014,15723,38,64256,65728,6,6,4,1460,861,1,992,62,82732,82732,65700,0,14480,0,0,0
o,0x00000000,1682074322.641291,172.16.1.2,49221,172.16.3.2,5201,12014,15723,38,64256,65728,6,6,4,1460,830,1,992,65,82732,79836,65700,0,11584,0,0,0
o,0x00000000,1682074322.641425,172.16.1.2,49221,172.16.3.2,5201,12014,15723,38,64256,65728,6,6,4,1460,830,1,992,65,82732,79836,65700,0,13032,0,0,0
i,0x00000000,1682074322.700896,172.16.1.2,49221,172.16.3.2,5201,12014,15723,38,64256,65728,6,6,4,1460,830,1,992,65,82732,82732,65700,0,14480,0,0,0
o,0x00000000,1682074322.700942,172.16.1.2,49221,172.16.3.2,5201,12014,15723,38,65728,65728,6,6,4,1460,811,1,992,65,82732,81284,65700,0,13032,0,0,0
i,0x00000000,1682074322.753422,172.16.1.2,49221,172.16.3.2,5201,12014,15723,38,65728,65728,6,6,4,1460,811,1,992,65,82732,81284,65700,0,14480,0,0,0
o,0x00000000,1682074322.753576,172.16.1.2,49221,172.16.3.2,5201,12014,15723,38,64256,65728,6,6,4,1460,818,1,992,62,82732,78388,65700,0,11584,0,0,0
o,0x00000000,1682074322.754274,172.16.1.2,49221,172.16.3.2,5201,12014,15723,38,64256,65728,6,6,4,1460,818,1,992,62,82732,78388,65700,0,13032,0,0,0
i,0x00000000,1682074322.791133,172.16.1.2,49221,172.16.3.2,5201,12014,15723,38,64256,65728,6,6,4,1460,818,1,992,62,82732,81144,65700,0,14480,0,0,0
o,0x00000000,1682074322.791185,172.16.1.2,49221,172.16.3.2,5201,12014,15723,38,64256,65728,6,6,4,1460,808,1,992,60,82732,78248,65700,0,11584,0,0,0
o,0x00000000,1682074322.791313,172.16.1.2,49221,172.16.3.2,5201,12014,15723,38,64256,65728,6,6,4,1460,808,1,992,60,82732,78248,65700,0,13032,0,0,0
i,0x00000000,1682074322.835173,172.16.1.2,49221,172.16.3.2,5201,12014,15723,38,64256,65728,6,6,4,1460,808,1,992,60,82732,82732,65700,0,14480,0,0,0
o,0x00000000,1682074322.835214,172.16.1.2,49221,172.16.3.2,5201,12014,15723,38,65728,65728,6,6,4,1460,815,1,992,58,82732,81284,65700,0,13032,0,0,0
i,0x00000000,1682074322.841353,172.16.1.2,49221,172.16.3.2,5201,12014,15723,38,65728,65728,6,6,4,1460,815,1,992,58,82732,81284,65700,0,14480,0,0,0
o,0x00000000,1682074322.841353,172.16.1.2,49221,172.16.3.2,5201,12014,15723,38,64256,65728,6,6,4,1460,818,1,992,56,82732,78388,65700,0,11584,0,0,0
o,0x00000000,1682074322.841749,172.16.1.2,49221,172.16.3.2,5201,12014,15723,38,64256,65728,6,6,4,1460,818,1,992,56,82732,78388,65700,0,13032,0,0,0
i,0x00000000,1682074322.880954,172.16.1.2,49221,172.16.3.2,5201,12014,15723,38,64256,65728,6,6,4,1460,818,1,992,56,82732,82732,65700,0,14480,0,0,0
o,0x00000000,1682074322.881688,172.16.1.2,49221,172.16.3.2,5201,12014,15723,38,64256,65728,6,6,4,1460,808,1,992,56,82732,79836,65700,0,11584,0,0,0
o,0x00000000,1682074322.881864,172.16.1.2,49221,172.16.3.2,5201,12014,15723,38,64256,65728,6,6,4,1460,808,1,992,56,82732,79836,65700,0,13032,0,0,0
i,0x00000000,1682074322.962705,172.16.1.2,49221,172.16.3.2,5201,12014,15723,38,64256,65728,6,6,4,1460,808,1,992,56,82732,82732,65700,0,14480,0,0,0
o,0x00000000,1682074322.962739,172.16.1.2,49221,172.16.3.2,5201,12014,15723,38,64256,65728,6,6,4,1460,811,1,992,54,82732,79836,65700,0,11584,0,0,0
o,0x00000000,1682074322.962851,172.16.1.2,49221,172.16.3.2,5201,12014,15723,38,64256,65728,6,6,4,1460,811,1,992,54,82732,79836,65700,0,13032,0,0,0
i,0x00000000,1682074323.022708,172.16.1.2,49221,172.16.3.2,5201,12014,15723,38,64256,65728,6,6,4,1460,811,1,992,54,82732,82732,65700,0,14480,0,0,0
o,0x00000000,1682074323.023051,172.16.1.2,49221,172.16.3.2,5201,12014,15723,38,65728,65728,6,6,4,1460,814,1,992,52,82732,81284,65700,0,13032,0,0,0
i,0x00000000,1682074323.025584,172.16.1.2,49221,172.16.3.2,5201,12014,15723,38,65728,65728,6,6,4,1460,814,1,992,52,82732,81284,65700,0,14480,0,0,0
o,0x00000000,1682074323.025718,172.16.1.2,49221,172.16.3.2,5201,12014,15723,38,64256,65728,6,6,4,1460,805,1,992,53,82732,78388,65700,0,11584,0,0,0
o,0x00000000,1682074323.026401,172.16.1.2,49221,172.16.3.2,5201,12014,15723,38,64256,65728,6,6,4,1460,805,1,992,53,82732,78388,65700,0,13032,0,0,0
i,0x00000000,1682074323.072321,172.16.1.2,49221,172.16.3.2,5201,12014,15723,38,64256,65728,6,6,4,1460,805,1,992,53,82732,82732,65700,0,14480,0,0,0
o,0x00000000,1682074323.072469,172.16.1.2,49221,172.16.3.2,5201,12014,15723,38,64256,65728,6,6,4,1460,801,1,992,52,82732,79836,65700,0,11584,0,0,0
o,0x00000000,1682074323.073291,172.16.1.2,49221,172.16.3.2,5201,12014,15723,38,64256,65728,6,6,4,1460,801,1,992,52,82732,79836,65700,0,13032,0,0,0
